[{"title":"A M Windham Elementary School","lat":"31.315018","lon":"-85.71129","type":"Traditional Public School","address":"626 N Daleville Ave","grades":["Pre-K","Elementary"],"city":"Daleville","state":"AL","zip":"36322","phone":"(334) 494-2280","low":"PK","high":"4","students":"477","cost":"No","url":"","review":"https:\/\/www.publicschoolreview.com\/a-m-windham-elementary-school-profile","virtual":"No"},{"title":"Abbeville Christian Academy","lat":"31.5718352","lon":"-85.2504893","type":"Private School","address":"258 Ml Tillis Dr","grades":["Pre-K","Elementary","Middle","High"],"city":"Abbeville","state":"AL","zip":"36310","phone":"(334) 585-5100","low":"PK","high":"12","students":"217","cost":"Yes","url":"https:\/\/acagenerals.org\/","review":"https:\/\/www.privateschoolreview.com\/abbeville-christian-academy-profile","virtual":"No"},{"title":"Abbeville Elementary School","lat":"31.567284","lon":"-85.248743","type":"Traditional Public School","address":"100 Elm St","grades":["Pre-K","Elementary","Middle"],"city":"Abbeville","state":"AL","zip":"36310","phone":"(334) 585-3679","low":"PK","high":"6","students":"386","cost":"No","url":"https:\/\/www.henrycountyboe.org\/Page\/134","review":"https:\/\/www.publicschoolreview.com\/abbeville-elementary-school-profile","virtual":"No"},{"title":"Abbeville High School","lat":"31.581814","lon":"-85.278168","type":"Traditional Public School","address":"411 Graball Cutoff","grades":["Middle","High"],"city":"Abbeville","state":"AL","zip":"36310","phone":"(334) 585-2065","low":"7","high":"12","students":"321","cost":"No","url":"http:\/\/www.abbevillehighschool.com\/","review":"https:\/\/www.publicschoolreview.com\/abbeville-high-school-profile","virtual":"No"},{"title":"Abc Elementary School","lat":"32.197389","lon":"-87.382373","type":"Traditional Public School","address":"3000 County Road 29","grades":["Pre-K","Elementary","Middle"],"city":"Alberta","state":"AL","zip":"36720","phone":"(334) 573-2550","low":"PK","high":"6","students":"110","cost":"No","url":"https:\/\/www.wilcox.k12.al.us\/o\/abc","review":"https:\/\/www.publicschoolreview.com\/abc-elementary-school-profile","virtual":"No"},{"title":"Abrams Elementary School","lat":"33.41331","lon":"-86.961194","type":"Traditional Public School","address":"1200 23rd Street N","grades":["Pre-K","Elementary"],"city":"Bessemer","state":"AL","zip":"35020","phone":"(205) 432-3100","low":"PK","high":"5","students":"240","cost":"No","url":"https:\/\/www.abramselementaryschool.com\/","review":"https:\/\/www.publicschoolreview.com\/abrams-elementary-school-profile","virtual":"No"},{"title":"Academy For Academics And Arts Middle School","lat":"34.75987","lon":"-86.63655","type":"Traditional Public School","address":"4800 Sparkman Drive","grades":["Middle"],"city":"Huntsville","state":"AL","zip":"35810","phone":"(256) 428-7600","low":"6","high":"8","students":"256","cost":"No","url":"","review":"https:\/\/www.publicschoolreview.com\/academy-for-academics-and-arts-middle-school-profile","virtual":"No"},{"title":"Academy For Academics Arts Elementary School","lat":"34.737897","lon":"-86.610777","type":"Public Magnet School","address":"2800 Poplar St Nw","grades":["Pre-K","Elementary"],"city":"Huntsville","state":"AL","zip":"35816","phone":"(256) 428-7600","low":"PK","high":"5","students":"402","cost":"No","url":"https:\/\/www.huntsvillecityschools.org\/schools\/academy-academics-and-arts","review":"https:\/\/www.publicschoolreview.com\/academy-for-academics-arts-elementary-school-profile","virtual":"No"},{"title":"Academy For Science Foreign Language","lat":"34.771113","lon":"-86.608878","type":"Public Magnet School","address":"3221 Mastin Lake Rd","grades":["Pre-K","Elementary"],"city":"Huntsville","state":"AL","zip":"35810","phone":"(256) 428-7000","low":"PK","high":"5","students":"332","cost":"No","url":"https:\/\/www.huntsvillecityschools.org\/schools\/academy-science-foreign-language","review":"https:\/\/www.publicschoolreview.com\/academy-for-science-foreign-language-profile","virtual":"No"},{"title":"Academy For Science Foreign Language Middle School","lat":"34.770254","lon":"-86.607471","type":"Traditional Public School","address":"3221 Mastin Lake Road","grades":["Middle"],"city":"Huntsville","state":"AL","zip":"35810","phone":"(256) 428-7000","low":"6","high":"8","students":"229","cost":"No","url":"","review":"https:\/\/www.publicschoolreview.com\/academy-for-science-foreign-language-middle-school-profile","virtual":"No"},{"title":"Acceleration Day And Evening Academy","lat":"30.668685","lon":"-88.119883","type":"Public Charter School","address":"3100 Cottage Hill Rd","grades":["High"],"city":"Mobile","state":"AL","zip":"36606","phone":"(251) 301-0050","low":"9","high":"12","students":"331","cost":"No","url":"","review":"https:\/\/www.publicschoolreview.com\/acceleration-day-and-evening-academy-profile","virtual":"No"},{"title":"Acts Academy","lat":"32.816849","lon":"-85.189285","type":"Private School","address":"316 Fob James Dr","grades":["Elementary","Middle","High"],"city":"Valley","state":"AL","zip":"36854","phone":"(334) 756-0674","low":"3","high":"12","students":"28","cost":"Yes","url":"","review":"https:\/\/www.privateschoolreview.com\/acts-academy-profile","virtual":"No"},{"title":"Adams Elementary School","lat":"34.000968","lon":"-85.968231","type":"Traditional Public School","address":"919 Raley St","grades":["Pre-K","Elementary"],"city":"Gadsden","state":"AL","zip":"35903","phone":"(256) 492-4952","low":"PK","high":"5","students":"408","cost":"No","url":"http:\/\/oaes.gcs.k12.al.us\/","review":"https:\/\/www.publicschoolreview.com\/adams-elementary-school-profile","virtual":"No"},{"title":"Adamsville Elementary School","lat":"33.59379","lon":"-86.95736","type":"Traditional Public School","address":"4600 Hazelwood Road","grades":["Pre-K","Elementary"],"city":"Adamsville","state":"AL","zip":"35005","phone":"(205) 379-2400","low":"PK","high":"5","students":"313","cost":"No","url":"http:\/\/adamsvilleel.jefcoed.com\/","review":"https:\/\/www.publicschoolreview.com\/adamsville-elementary-school-profile","virtual":"No"},{"title":"Addison Elementary School","lat":"34.164563","lon":"-87.182174","type":"Traditional Public School","address":"16411 County Road 41","grades":["Pre-K","Elementary","Middle"],"city":"Addison","state":"AL","zip":"35540","phone":"(205) 717-3310","low":"PK","high":"6","students":"292","cost":"No","url":"https:\/\/www.winstonk12.org\/1\/home","review":"https:\/\/www.publicschoolreview.com\/addison-elementary-school-profile","virtual":"No"},{"title":"Addison High School","lat":"34.204727","lon":"-87.181618","type":"Traditional Public School","address":"151 School Drive","grades":["Middle","High"],"city":"Addison","state":"AL","zip":"35540","phone":"(205) 717-3314","low":"7","high":"12","students":"280","cost":"No","url":"https:\/\/www.winstonk12.org\/2\/Home","review":"https:\/\/www.publicschoolreview.com\/addison-high-school-profile","virtual":"No"},{"title":"Adolescent Day Treatment","lat":"33.503162","lon":"-86.805672","type":"Specialized Public School","address":"2015 Park Place N","grades":["Elementary","Middle","High"],"city":"Birmingham","state":"AL","zip":"35202","phone":"(205) 231-4633","low":"K","high":"12","students":"See website","cost":"No","url":"","review":"https:\/\/www.publicschoolreview.com\/adolescent-day-treatment-profile","virtual":"No"},{"title":"Adullam House Christian Academy","lat":"32.6137013","lon":"-86.1079303","type":"Private School","address":"7469 Georgia Rd.","grades":["Pre-K","Elementary","Middle","High"],"city":"Wetumpka","state":"AL","zip":"36092","phone":"(334) 478-3888","low":"PK","high":"12","students":"136","cost":"Yes","url":"https:\/\/adullamhouse.org\/ourfacilities\/","review":"https:\/\/www.privateschoolreview.com\/adullam-house-christian-academy-profile","virtual":"No"},{"title":"Advent Episcopal Day School","lat":"33.51922638","lon":"-86.80856407","type":"Private School","address":"2019 6th Avenue North","grades":["Pre-K","Elementary","Middle"],"city":"Birmingham","state":"AL","zip":"35203","phone":"(205) 252-2535","low":"PK","high":"8","students":"265","cost":"Yes","url":"https:\/\/www.adventepiscopalschool.org\/page","review":"https:\/\/www.privateschoolreview.com\/advent-episcopal-day-school-profile","virtual":"No"},{"title":"Ah Watwood Elementary School","lat":"33.267481","lon":"-86.355059","type":"Traditional Public School","address":"3002 Limbaugh Blvd","grades":["Pre-K","Elementary"],"city":"Childersburg","state":"AL","zip":"35044","phone":"(256) 315-5460","low":"PK","high":"4","students":"273","cost":"No","url":"http:\/\/wes.tcboe.org\/","review":"https:\/\/www.publicschoolreview.com\/ah-watwood-elementary-school-profile","virtual":"No"},{"title":"Airport Road Intermediate School","lat":"32.515794","lon":"-86.345093","type":"Traditional Public School","address":"384 Blackmon Farm Lane","grades":["Elementary"],"city":"Coosada","state":"AL","zip":"36020","phone":"(334) 285-2115","low":"3","high":"4","students":"584","cost":"No","url":"https:\/\/airportroad.eci.schoolinsites.com\/","review":"https:\/\/www.publicschoolreview.com\/airport-road-intermediate-school-profile","virtual":"No"},{"title":"Al - Iman Academy Of Mobile","lat":"30.68906061","lon":"-88.1799","type":"Private School","address":"63 East Dr","grades":["Pre-K","Elementary","Middle","High"],"city":"Mobile","state":"AL","zip":"36608","phone":"(251) 605-6745","low":"PK","high":"12","students":"83","cost":"Yes","url":"","review":"https:\/\/www.privateschoolreview.com\/al-iman-academy-of-mobile-profile","virtual":"No"},{"title":"Alabama Christian Academy","lat":"32.3893843","lon":"-86.2151263","type":"Private School","address":"4700 Wares Ferry Road","grades":["Pre-K","Elementary","Middle","High"],"city":"Montgomery","state":"AL","zip":"36109","phone":"(334) 277-1985","low":"PK","high":"12","students":"804","cost":"Yes","url":"https:\/\/www.alabamachristian.org\/","review":"https:\/\/www.privateschoolreview.com\/alabama-christian-academy-profile","virtual":"No"},{"title":"Alabama Clinical Schools","lat":"33.587197","lon":"-86.646401","type":"Specialized Public School","address":"1221 Alton Dr","grades":[],"city":"Birmingham","state":"AL","zip":"35210","phone":"(205) 836-9923","low":"N","high":"N","students":"See website","cost":"No","url":"https:\/\/alabamaclinicalschools.com\/","review":"https:\/\/www.publicschoolreview.com\/alabama-clinical-schools-profile","virtual":"No"},{"title":"Alabama Clinical Schools","lat":"33.584435","lon":"-86.646255","type":"Private School","address":"1221 Alton Dr","grades":["Pre-K"],"city":"Birmingham","state":"AL","zip":"35210","phone":"(205) 836-9923","low":"PK","high":"PK","students":"65","cost":"Yes","url":"https:\/\/alabamaclinicalschools.com\/","review":"https:\/\/www.privateschoolreview.com\/alabama-clinical-schools-profile","virtual":"No"},{"title":"Alabama Connections Academy","lat":"34.855581","lon":"-87.045853","type":"Traditional Public School","address":"21465 Al Hwy 99","grades":["Elementary","Middle","High"],"city":"Athens","state":"AL","zip":"35614","phone":"(256) 233-6463","low":"K","high":"12","students":"4727","cost":"No","url":"","review":"https:\/\/www.publicschoolreview.com\/alabama-connections-academy-profile","virtual":"Yes"},{"title":"Alabama Destinations Career Academy","lat":"30.756564","lon":"-88.079962","type":"Traditional Public School","address":"50 12th Ave","grades":[],"city":"Mobile","state":"AL","zip":"36611","phone":"(251) 452-6452","low":"N","high":"N","students":"See website","cost":"No","url":"","review":"https:\/\/www.publicschoolreview.com\/alabama-destinations-career-academy-profile\/36611","virtual":"No"},{"title":"Alabama School For Blind","lat":"33.43323","lon":"-86.08953","type":"Specialized Public School","address":"705 E South Street","grades":["Elementary","Middle","High"],"city":"Talladega","state":"AL","zip":"35161","phone":"(256) 761-3259","low":"K","high":"12","students":"See website","cost":"No","url":"https:\/\/www.aidb.org\/page\/11","review":"https:\/\/www.publicschoolreview.com\/alabama-school-for-blind-profile","virtual":"No"},{"title":"Alabama School For Deaf","lat":"33.456642","lon":"-86.271839","type":"Specialized Public School","address":"205 E South Street","grades":["Elementary","Middle","High"],"city":"Talladega","state":"AL","zip":"35161","phone":"(256) 761-3214","low":"K","high":"12","students":"See website","cost":"No","url":"https:\/\/www.aidb.org\/","review":"https:\/\/www.publicschoolreview.com\/alabama-school-for-deaf-profile","virtual":"No"},{"title":"Alabama Virtual Academy At Eufaula City Schools","lat":"31.887811","lon":"-85.157631","type":"Online Public School","address":"831 West Washington Street","grades":["Elementary","Middle","High"],"city":"Eufaula","state":"AL","zip":"36027","phone":"(334) 689-5059","low":"K","high":"12","students":"3943","cost":"No","url":"https:\/\/alva.k12.com\/","review":"https:\/\/www.publicschoolreview.com\/alabama-virtual-academy-at-eufaula-city-schools-profile","virtual":"Yes"},{"title":"Alabama Waldorf School","lat":"33.530454","lon":"-86.738955","type":"Private School","address":"5901 Crestwood Blvd","grades":["Pre-K","Elementary","Middle"],"city":"Birmingham","state":"AL","zip":"35212","phone":"(205) 592-0541","low":"PK","high":"8","students":"167","cost":"Yes","url":"https:\/\/www.alabamawaldorf.org\/","review":"https:\/\/www.privateschoolreview.com\/alabama-waldorf-school-profile","virtual":"No"},{"title":"Albert P Brewer High School","lat":"34.411604","lon":"-86.703491","type":"Traditional Public School","address":"59 Eva Rd","grades":["High"],"city":"Somerville","state":"AL","zip":"35670","phone":"(256) 778-8634","low":"9","high":"12","students":"710","cost":"No","url":"https:\/\/www.morgank12.org\/domain\/8","review":"https:\/\/www.publicschoolreview.com\/albert-p-brewer-high-school-profile","virtual":"No"},{"title":"Albertville Elementary School","lat":"34.255166","lon":"-86.221807","type":"Traditional Public School","address":"145 West End Drive","grades":["Elementary"],"city":"Albertville","state":"AL","zip":"35950","phone":"(256) 894-4822","low":"3","high":"4","students":"908","cost":"No","url":"https:\/\/www.albertk12.org\/","review":"https:\/\/www.publicschoolreview.com\/albertville-elementary-school-profile","virtual":"No"},{"title":"Albertville High School","lat":"34.2608568","lon":"-86.2049586","type":"Traditional Public School","address":"402 E Mccord Ave","grades":["High"],"city":"Albertville","state":"AL","zip":"35950","phone":"(256) 894-5000","low":"9","high":"12","students":"1606","cost":"No","url":"https:\/\/ahs.albertk12.org\/","review":"https:\/\/www.publicschoolreview.com\/albertville-high-school-profile","virtual":"No"},{"title":"Albertville Intermediate School","lat":"34.272687","lon":"-86.219574","type":"Traditional Public School","address":"901 W Mckinney Ave","grades":["Elementary","Middle"],"city":"Albertville","state":"AL","zip":"35950","phone":"(256) 878-7698","low":"5","high":"6","students":"891","cost":"No","url":"https:\/\/www.albertk12.org\/","review":"https:\/\/www.publicschoolreview.com\/albertville-intermediate-school-profile","virtual":"No"},{"title":"Albertville Kindergarten And Prek","lat":"34.288259","lon":"-86.191438","type":"Traditional Public School","address":"257 Country Club Rd","grades":["Pre-K","Elementary"],"city":"Albertville","state":"AL","zip":"35951","phone":"(256) 878-7922","low":"PK","high":"K","students":"556","cost":"No","url":"https:\/\/diemer.smsd.org\/","review":"https:\/\/www.publicschoolreview.com\/albertville-kindergarten-and-prek-profile","virtual":"No"},{"title":"Albertville Middle School","lat":"34.259935","lon":"-86.207521","type":"Traditional Public School","address":"600 E Alabama Ave","grades":["Middle"],"city":"Albertville","state":"AL","zip":"35950","phone":"(256) 878-2341","low":"7","high":"8","students":"908","cost":"No","url":"https:\/\/www.albertk12.org\/","review":"https:\/\/www.publicschoolreview.com\/albertville-middle-school-profile","virtual":"No"},{"title":"Albertville Primary School","lat":"34.255166","lon":"-86.221807","type":"Traditional Public School","address":"1100 Horton Rd","grades":["Elementary"],"city":"Albertville","state":"AL","zip":"35950","phone":"(256) 878-6611","low":"1","high":"2","students":"973","cost":"No","url":"https:\/\/aps.albertk12.org\/","review":"https:\/\/www.publicschoolreview.com\/albertville-primary-school-profile","virtual":"No"},{"title":"Alexander City Middle School","lat":"32.944515","lon":"-85.950823","type":"Traditional Public School","address":"359 State St","grades":["Middle"],"city":"Alexander City","state":"AL","zip":"35010","phone":"(256) 234-8660","low":"7","high":"8","students":"468","cost":"No","url":"https:\/\/www.alexcityschools.net\/","review":"https:\/\/www.publicschoolreview.com\/alexander-city-middle-school-profile","virtual":"No"},{"title":"Alexandria Elementary School","lat":"33.775731","lon":"-85.883616","type":"Traditional Public School","address":"2525 Alexandriawellington Rd","grades":["Pre-K","Elementary"],"city":"Alexandria","state":"AL","zip":"36250","phone":"(256) 741-4300","low":"PK","high":"4","students":"667","cost":"No","url":"https:\/\/al01901382.schoolwires.net\/ae?CFID=14828898&CFTOKEN=cf4222dcb51f772f-DA89B6B6-CA9A-EFA4-5AE536E670498F5E","review":"https:\/\/www.publicschoolreview.com\/alexandria-elementary-school-profile","virtual":"No"},{"title":"Alexandria High School","lat":"33.774382","lon":"-85.885656","type":"Traditional Public School","address":"353 Stadium Dr","grades":["High"],"city":"Alexandria","state":"AL","zip":"36250","phone":"(256) 741-4400","low":"9","high":"12","students":"506","cost":"No","url":"https:\/\/al01901382.schoolwires.net\/?CFID=14856455&CFTOKEN=4ee984399ea51e0b-E85CD035-FF8B-70F3-7266A5A2764FFE55","review":"https:\/\/www.publicschoolreview.com\/alexandria-high-school-profile","virtual":"No"},{"title":"Alexandria Middle School","lat":"33.776337","lon":"-85.886422","type":"Traditional Public School","address":"353 Stadium Dr","grades":["Elementary","Middle"],"city":"Alexandria","state":"AL","zip":"36250","phone":"(256) 741-4501","low":"5","high":"8","students":"530","cost":"No","url":"","review":"https:\/\/www.publicschoolreview.com\/alexandria-middle-school-profile\/36250","virtual":"No"},{"title":"Aliceville Elementary School","lat":"33.134066","lon":"-88.155393","type":"Traditional Public School","address":"800 Columbus Rd Nw","grades":["Pre-K","Elementary","Middle"],"city":"Aliceville","state":"AL","zip":"35442","phone":"(205) 373-8722","low":"PK","high":"6","students":"467","cost":"No","url":"https:\/\/www.alicevilleelementary.net\/","review":"https:\/\/www.publicschoolreview.com\/aliceville-elementary-school-profile","virtual":"No"},{"title":"Aliceville High School","lat":"33.123774","lon":"-88.148753","type":"Traditional Public School","address":"417 3rd St Se","grades":["Middle","High"],"city":"Aliceville","state":"AL","zip":"35442","phone":"(205) 373-6378","low":"7","high":"12","students":"347","cost":"No","url":"https:\/\/www.alicevillehigh.net\/","review":"https:\/\/www.publicschoolreview.com\/aliceville-high-school-profile","virtual":"No"},{"title":"All Saints' Episcopal Preschool","lat":"33.474418","lon":"-86.8040991","type":"Private School","address":"112 W. Hawthorne Road","grades":["Pre-K"],"city":"Birmingham","state":"AL","zip":"35209","phone":"(205) 879-1092","low":"NS","high":"NS","students":"145","cost":"Yes","url":"https:\/\/www.allsaintsbhm.org\/children\/","review":"https:\/\/www.privateschoolreview.com\/all-saints-episcopal-preschool-profile","virtual":"No"},{"title":"Allen Thornton Career Technical Center","lat":"34.85989","lon":"-87.439019","type":"Specialized Public School","address":"7275 Highway 72","grades":["High"],"city":"Killen","state":"AL","zip":"35645","phone":"(256) 757-2101","low":"10","high":"12","students":"See website","cost":"No","url":"https:\/\/www.lcschools.org\/Domain\/9","review":"https:\/\/www.publicschoolreview.com\/allen-thornton-career-technical-center-profile","virtual":"No"},{"title":"Allentown Elementary School","lat":"30.744691","lon":"-88.285305","type":"Traditional Public School","address":"10330 Howells Ferry Rd","grades":["Pre-K","Elementary"],"city":"Semmes","state":"AL","zip":"36575","phone":"(251) 221-1000","low":"PK","high":"5","students":"761","cost":"No","url":"https:\/\/www.allentowngators.com\/","review":"https:\/\/www.publicschoolreview.com\/allentown-elementary-school-profile","virtual":"No"},{"title":"Allgood Alternative School","lat":"33.905399","lon":"-86.512429","type":"Specialized Public School","address":"45 Community Rd","grades":["Elementary","Middle","High"],"city":"Oneonta","state":"AL","zip":"35121","phone":"(205) 775-1960","low":"2","high":"12","students":"See website","cost":"No","url":"https:\/\/www.blountboe.net\/","review":"https:\/\/www.publicschoolreview.com\/allgood-alternative-school-profile","virtual":"No"},{"title":"Alma Bryant High School","lat":"30.443305","lon":"-88.2825","type":"Traditional Public School","address":"14001 Hurricane Blvd","grades":["High"],"city":"Irvington","state":"AL","zip":"36544","phone":"(251) 824-3213","low":"9","high":"12","students":"1687","cost":"No","url":"https:\/\/www.almabryanths.com\/","review":"https:\/\/www.publicschoolreview.com\/alma-bryant-high-school-profile","virtual":"No"},{"title":"Alpha & Omega Christian School","lat":"30.668308","lon":"-87.91273","type":"Private School","address":"6389 Spanish Fort Blv","grades":["Pre-K","Elementary","Middle","High"],"city":"Daphne","state":"AL","zip":"36527","phone":"(251) 621-1126","low":"PK","high":"12","students":"232","cost":"Yes","url":"","review":"https:\/\/www.privateschoolreview.com\/alpha-omega-christian-school-profile\/36527","virtual":"No"},{"title":"Alternative Learning Center","lat":"32.315744","lon":"-85.170301","type":"Specialized Public School","address":"91 Poorhouse Rd","grades":["Elementary","Middle","High"],"city":"Seale","state":"AL","zip":"36875","phone":"(334) 408-4986","low":"5","high":"12","students":"See website","cost":"No","url":"","review":"https:\/\/www.publicschoolreview.com\/alternative-learning-center-profile\/36875","virtual":"No"},{"title":"Alternative Learning Center","lat":"31.813424","lon":"-85.962493","type":"Specialized Public School","address":"211 Lake Ave","grades":["Middle","High"],"city":"Troy","state":"AL","zip":"36081","phone":"(334) 566-7134","low":"6","high":"12","students":"See website","cost":"No","url":"https:\/\/www.pikecountyschools.com\/?DivisionID=3491&DepartmentID=3182&ToggleSideNav=ShowAll","review":"https:\/\/www.publicschoolreview.com\/alternative-learning-center-profile\/36081","virtual":"No"},{"title":"Alternative School","lat":"34.490649","lon":"-85.8394","type":"Specialized Public School","address":"155 20th Street Ne","grades":["Elementary","Middle","High"],"city":"Fort Payne","state":"AL","zip":"35967","phone":"(256) 845-3711","low":"5","high":"12","students":"See website","cost":"No","url":"","review":"https:\/\/www.publicschoolreview.com\/alternative-school-profile\/35967","virtual":"No"},{"title":"Amelia L Johnson High School","lat":"32.2798","lon":"-87.63224","type":"Traditional Public School","address":"Coates St","grades":["Pre-K","Elementary","Middle","High"],"city":"Thomaston","state":"AL","zip":"36783","phone":"(334) 627-3364","low":"PK","high":"12","students":"151","cost":"No","url":"https:\/\/aljhsmarengoal.schoolinsites.com\/","review":"https:\/\/www.publicschoolreview.com\/amelia-l-johnson-high-school-profile","virtual":"No"},{"title":"American Christian Academy","lat":"33.1976","lon":"-87.5082","type":"Private School","address":"2300 Veterans Memorial Parkway","grades":["Pre-K","Elementary","Middle","High"],"city":"Tuscaloosa","state":"AL","zip":"35404","phone":"(205) 553-5963","low":"PK","high":"12","students":"998","cost":"Yes","url":"https:\/\/www.acacademy.com\/","review":"https:\/\/www.privateschoolreview.com\/american-christian-academy-profile","virtual":"No"},{"title":"Andalusia Elementary School","lat":"31.28461","lon":"-86.50251","type":"Traditional Public School","address":"1501 West Bypass","grades":["Pre-K","Elementary","Middle"],"city":"Andalusia","state":"AL","zip":"36420","phone":"(334) 222-1224","low":"PK","high":"6","students":"1005","cost":"No","url":"","review":"https:\/\/www.publicschoolreview.com\/andalusia-elementary-school-profile","virtual":"No"},{"title":"Andalusia High School","lat":"31.313678","lon":"-86.470925","type":"Traditional Public School","address":"701 Third St","grades":["High"],"city":"Andalusia","state":"AL","zip":"36420","phone":"(334) 222-7569","low":"9","high":"12","students":"514","cost":"No","url":"http:\/\/andalusiahighschool.org\/","review":"https:\/\/www.publicschoolreview.com\/andalusia-high-school-profile","virtual":"No"},{"title":"Andalusia Junior High School","lat":"31.326951","lon":"-86.483457","type":"Traditional Public School","address":"408 4th Avenue","grades":["Middle"],"city":"Andalusia","state":"AL","zip":"36420","phone":"(334) 222-7569","low":"7","high":"8","students":"266","cost":"No","url":"https:\/\/juniorandalusiaal.schoolinsites.com\/","review":"https:\/\/www.publicschoolreview.com\/andalusia-junior-high-school-profile","virtual":"No"},{"title":"Anna F Booth Elementary School","lat":"30.44212","lon":"-88.2802","type":"Traditional Public School","address":"17001 Hurricane Blvd","grades":["Pre-K","Elementary"],"city":"Irvington","state":"AL","zip":"36544","phone":"(251) 824-1740","low":"PK","high":"5","students":"435","cost":"No","url":"https:\/\/boothelemmcpssal.schoolinsites.com\/","review":"https:\/\/www.publicschoolreview.com\/anna-f-booth-elementary-school-profile","virtual":"No"},{"title":"Anniston City Boot Camp School","lat":"33.708018","lon":"-85.821329","type":"Specialized Public School","address":"4804 Mcclellan Blvd","grades":["Middle","High"],"city":"Anniston","state":"AL","zip":"36206","phone":"(256) 231-5100","low":"7","high":"12","students":"See website","cost":"No","url":"https:\/\/www.annistonschools.com\/","review":"https:\/\/www.publicschoolreview.com\/anniston-city-boot-camp-school-profile","virtual":"No"},{"title":"Anniston High School","lat":"33.661144","lon":"-85.821682","type":"Traditional Public School","address":"1301 Woodstock Ave","grades":["High"],"city":"Anniston","state":"AL","zip":"36207","phone":"(256) 231-5010","low":"9","high":"12","students":"415","cost":"No","url":"https:\/\/www.annistonschools.com\/Domain\/82","review":"https:\/\/www.publicschoolreview.com\/anniston-high-school-profile","virtual":"No"},{"title":"Anniston Middle School","lat":"33.707958","lon":"-85.821349","type":"Traditional Public School","address":"4800 Mcclellan Blvd","grades":["Middle"],"city":"Anniston","state":"AL","zip":"36206","phone":"(256) 231-5020","low":"6","high":"8","students":"396","cost":"No","url":"https:\/\/www.annistonschools.com\/Domain\/224","review":"https:\/\/www.publicschoolreview.com\/anniston-middle-school-profile","virtual":"No"},{"title":"Appalachian School","lat":"33.888573","lon":"-86.397588","type":"Traditional Public School","address":"350 County Highway 12","grades":["Pre-K","Elementary","Middle","High"],"city":"Oneonta","state":"AL","zip":"35121","phone":"(205) 775-1970","low":"PK","high":"12","students":"599","cost":"No","url":"","review":"https:\/\/www.publicschoolreview.com\/appalachian-school-profile","virtual":"No"},{"title":"Arab Elementary School","lat":"34.32863","lon":"-86.493454","type":"Traditional Public School","address":"241 8th Ave Ne","grades":["Elementary"],"city":"Arab","state":"AL","zip":"35016","phone":"(256) 586-6085","low":"3","high":"5","students":"546","cost":"No","url":"https:\/\/www.arabcityschools.org\/Domain\/10","review":"https:\/\/www.publicschoolreview.com\/arab-elementary-school-profile","virtual":"No"},{"title":"Arab High School","lat":"34.32704","lon":"-86.489622","type":"Traditional Public School","address":"511 Arabian Dr Ne","grades":["High"],"city":"Arab","state":"AL","zip":"35016","phone":"(256) 586-6026","low":"9","high":"12","students":"758","cost":"No","url":"https:\/\/www.arabcityschools.org\/","review":"https:\/\/www.publicschoolreview.com\/arab-high-school-profile","virtual":"No"},{"title":"Arab Junior High School","lat":"34.313134","lon":"-86.511207","type":"Traditional Public School","address":"911 Old Cullman Rd","grades":["Middle"],"city":"Arab","state":"AL","zip":"35016","phone":"(256) 586-6074","low":"6","high":"8","students":"631","cost":"No","url":"https:\/\/www.arabcityschools.org\/Domain\/9","review":"https:\/\/www.publicschoolreview.com\/arab-junior-high-school-profile","virtual":"No"},{"title":"Arab Primary School","lat":"34.334331","lon":"-86.499676","type":"Traditional Public School","address":"121 Mimosa St Ne","grades":["Pre-K","Elementary"],"city":"Arab","state":"AL","zip":"35016","phone":"(256) 586-6005","low":"PK","high":"2","students":"674","cost":"No","url":"https:\/\/www.arabcityschools.org\/Domain\/11","review":"https:\/\/www.publicschoolreview.com\/arab-primary-school-profile","virtual":"No"},{"title":"Arcadia Elementary School","lat":"33.198328","lon":"-87.488629","type":"Traditional Public School","address":"3740 Arcadia Drive","grades":["Pre-K","Elementary"],"city":"Tuscaloosa","state":"AL","zip":"35404","phone":"(205) 759-3567","low":"PK","high":"5","students":"403","cost":"No","url":"https:\/\/www.tuscaloosacityschools.com\/domain\/377","review":"https:\/\/www.publicschoolreview.com\/arcadia-elementary-school-profile","virtual":"No"},{"title":"Ardmore High School","lat":"34.988252","lon":"-86.846603","type":"Traditional Public School","address":"30285 Ardmore Ave","grades":["Middle","High"],"city":"Ardmore","state":"AL","zip":"35739","phone":"(256) 423-2685","low":"6","high":"12","students":"991","cost":"No","url":"https:\/\/www.ardmorehigh.org\/","review":"https:\/\/www.publicschoolreview.com\/ardmore-high-school-profile","virtual":"No"},{"title":"Ariton School","lat":"31.602767","lon":"-85.726602","type":"Traditional Public School","address":"264 Creel Richardson Drive","grades":["Pre-K","Elementary","Middle","High"],"city":"Ariton","state":"AL","zip":"36311","phone":"(334) 762-2371","low":"PK","high":"12","students":"784","cost":"No","url":"https:\/\/ahs.dalecountyboe.org\/","review":"https:\/\/www.publicschoolreview.com\/ariton-school-profile","virtual":"No"},{"title":"Arlington School","lat":"33.49965","lon":"-86.7884","type":"Private School","address":"1312 22nd St S","grades":["Middle","High"],"city":"Birmingham","state":"AL","zip":"35205","phone":"(205) 939-3665","low":"7","high":"12","students":"15","cost":"Yes","url":"https:\/\/www.arlingtonschool.net\/","review":"https:\/\/www.privateschoolreview.com\/arlington-school-profile","virtual":"No"},{"title":"Asbury Elementary School","lat":"34.3631287","lon":"-86.1422156","type":"Traditional Public School","address":"1966 Asbury Road","grades":["Pre-K","Elementary"],"city":"Albertville","state":"AL","zip":"35951","phone":"(256) 878-6221","low":"PK","high":"5","students":"594","cost":"No","url":"http:\/\/aes.marshallk12.org\/","review":"https:\/\/www.publicschoolreview.com\/asbury-elementary-school-profile\/35951","virtual":"No"},{"title":"Ascension Episcopal Kindergarten","lat":"33.44534629","lon":"-86.79475463","type":"Private School","address":"1912 Canyon Rd","grades":["Pre-K","Elementary"],"city":"Birmingham","state":"AL","zip":"35216","phone":"(205) 979-8711","low":"PK","high":"K","students":"58","cost":"Yes","url":"https:\/\/www.ascensionkindergarten.com\/","review":"","virtual":"No"},{"title":"Ashford Elementary School","lat":"31.181034","lon":"-85.228035","type":"Traditional Public School","address":"100 Barfield St","grades":["Pre-K","Elementary"],"city":"Ashford","state":"AL","zip":"36312","phone":"(334) 726-5960","low":"PK","high":"5","students":"601","cost":"No","url":"https:\/\/www.hcboe.us\/Domain\/8","review":"https:\/\/www.publicschoolreview.com\/ashford-elementary-school-profile","virtual":"No"},{"title":"Ashford High School","lat":"31.183696","lon":"-85.233128","type":"Traditional Public School","address":"607 Church St","grades":["Middle","High"],"city":"Ashford","state":"AL","zip":"36312","phone":"(334) 899-5411","low":"6","high":"12","students":"725","cost":"No","url":"https:\/\/www.hcboe.us\/Domain\/9","review":"https:\/\/www.publicschoolreview.com\/ashford-high-school-profile","virtual":"No"},{"title":"Ashford Middle School","lat":"31.183823","lon":"-85.232497","type":"Traditional Public School","address":"607 Church St","grades":[],"city":"Ashford","state":"AL","zip":"36312","phone":"(334) 899-5411","low":"N","high":"N","students":"See website","cost":"No","url":"","review":"https:\/\/www.publicschoolreview.com\/ashford-middle-school-profile","virtual":"No"},{"title":"Ashland Elementary School","lat":"33.271835","lon":"-85.839382","type":"Traditional Public School","address":"223 3rd Street Sw","grades":["Pre-K","Elementary","Middle"],"city":"Ashland","state":"AL","zip":"36251","phone":"(256) 396-1466","low":"PK","high":"6","students":"482","cost":"No","url":"https:\/\/www.ashland-clay.org\/login","review":"https:\/\/www.publicschoolreview.com\/ashland-elementary-school-profile","virtual":"No"},{"title":"Ashville Elementary School","lat":"33.847275","lon":"-86.271801","type":"Traditional Public School","address":"33225 Highway 231","grades":["Pre-K","Elementary"],"city":"Ashville","state":"AL","zip":"35953","phone":"(205) 594-5242","low":"PK","high":"4","students":"463","cost":"No","url":"http:\/\/aes.sccboe.org\/","review":"https:\/\/www.publicschoolreview.com\/ashville-elementary-school-profile","virtual":"No"},{"title":"Ashville High School","lat":"33.84725","lon":"-86.271771","type":"Traditional Public School","address":"33215 Us Highway 231","grades":["High"],"city":"Ashville","state":"AL","zip":"35953","phone":"(205) 594-7943","low":"9","high":"12","students":"371","cost":"No","url":"","review":"https:\/\/www.publicschoolreview.com\/ashville-high-school-profile","virtual":"No"},{"title":"Ashville Middle School","lat":"33.771478","lon":"-86.282265","type":"Traditional Public School","address":"33221 Highway 231","grades":["Elementary","Middle"],"city":"Ashville","state":"AL","zip":"35953","phone":"(205) 594-7044","low":"5","high":"8","students":"380","cost":"No","url":"http:\/\/ashvillemiddleschool.weebly.com\/","review":"https:\/\/www.publicschoolreview.com\/ashville-middle-school-profile","virtual":"No"},{"title":"Athens Bible School","lat":"34.7965","lon":"-86.9569","type":"Private School","address":"700 US Hwy 31 N","grades":["Elementary","Middle","High"],"city":"Athens","state":"AL","zip":"35611","phone":"(256) 232-3525","low":"K","high":"12","students":"252","cost":"Yes","url":"http:\/\/www.athensbibleschool.org","review":"https:\/\/www.privateschoolreview.com\/athens-bible-school-profile","virtual":"No"},{"title":"Athens Elementary School","lat":"34.808077","lon":"-86.972945","type":"Traditional Public School","address":"601 S Clinton Street","grades":["Pre-K","Elementary"],"city":"Athens","state":"AL","zip":"35611","phone":"(256) 233-6609","low":"PK","high":"3","students":"358","cost":"No","url":"https:\/\/www.acs-k12.org\/aes","review":"https:\/\/www.publicschoolreview.com\/athens-elementary-school-profile\/35611","virtual":"No"},{"title":"Athens High School","lat":"34.802803","lon":"-86.951372","type":"Traditional Public School","address":"655 Hwy 31 North","grades":["High"],"city":"Athens","state":"AL","zip":"35612","phone":"(256) 233-6613","low":"9","high":"12","students":"1114","cost":"No","url":"https:\/\/www.acs-k12.org\/ahs","review":"https:\/\/www.publicschoolreview.com\/athens-high-school-profile\/35612","virtual":"No"},{"title":"Athens Intermediate School","lat":"34.79076","lon":"-86.995513","type":"Traditional Public School","address":"1916 Us Hwy 72 W","grades":["Elementary"],"city":"Athens","state":"AL","zip":"35611","phone":"(256) 230-2880","low":"4","high":"5","students":"571","cost":"No","url":"https:\/\/www.acs-k12.org\/ais","review":"https:\/\/www.publicschoolreview.com\/athens-intermediate-school-profile","virtual":"No"},{"title":"Athens Middle School","lat":"34.797081","lon":"-86.969067","type":"Traditional Public School","address":"100 Hwy 31 North","grades":["Middle"],"city":"Athens","state":"AL","zip":"35611","phone":"(256) 233-6620","low":"6","high":"8","students":"959","cost":"No","url":"https:\/\/www.acs-k12.org\/ams","review":"https:\/\/www.publicschoolreview.com\/athens-middle-school-profile\/35611","virtual":"No"},{"title":"Athens Renaissance School","lat":"34.800195","lon":"-86.964887","type":"Traditional Public School","address":"405 South Street East","grades":["Elementary","Middle","High"],"city":"Athens","state":"AL","zip":"35611","phone":"(256) 614-3708","low":"K","high":"12","students":"633","cost":"No","url":"","review":"https:\/\/www.publicschoolreview.com\/athens-renaissance-school-profile","virtual":"Yes"},{"title":"Atmore Christian School","lat":"31.02158","lon":"-87.5072","type":"Private School","address":"245 Tennant Drive","grades":["Elementary","Middle","High"],"city":"Atmore","state":"AL","zip":"36502","phone":"(251) 368-5499","low":"K","high":"12","students":"109","cost":"Yes","url":"http:\/\/www.atmorechristianschool.com\/","review":"https:\/\/www.privateschoolreview.com\/atmore-christian-school-profile","virtual":"No"},{"title":"Attalla Elementary School","lat":"34.013419","lon":"-86.103148","type":"Traditional Public School","address":"300 Cullman Avenue","grades":["Pre-K","Elementary"],"city":"Attalla","state":"AL","zip":"35954","phone":"(256) 538-7266","low":"PK","high":"5","students":"616","cost":"No","url":"","review":"https:\/\/www.publicschoolreview.com\/attalla-elementary-school-profile","virtual":"No"},{"title":"Auburn Classical Academy Inc.","lat":"32.646968","lon":"-85.402867","type":"Private School","address":"1901-b Waverly Pkwy","grades":["Elementary","Middle"],"city":"Opelika","state":"AL","zip":"36801","phone":"(334) 821-7081","low":"K","high":"7","students":"64","cost":"Yes","url":"https:\/\/www.auburnclassicalacademy.com\/","review":"","virtual":"No"},{"title":"Auburn Early Education Center","lat":"32.585347","lon":"-85.467595","type":"Traditional Public School","address":"721 E University Dr","grades":["Pre-K","Elementary"],"city":"Auburn","state":"AL","zip":"36830","phone":"(334) 887-4950","low":"PK","high":"2","students":"448","cost":"No","url":"https:\/\/www.auburnschools.org\/AEEC\/Index.html","review":"https:\/\/www.publicschoolreview.com\/auburn-early-education-center-profile","virtual":"No"},{"title":"Auburn High School","lat":"32.598507","lon":"-85.464706","type":"Traditional Public School","address":"1701 E Samford Avenue","grades":["High"],"city":"Auburn","state":"AL","zip":"36830","phone":"(334) 887-2120","low":"10","high":"12","students":"2025","cost":"No","url":"https:\/\/www.auburnschools.org\/ahs","review":"https:\/\/www.publicschoolreview.com\/auburn-high-school-profile","virtual":"No"},{"title":"Auburn Junior High School","lat":"32.598769","lon":"-85.477704","type":"Traditional Public School","address":"405 S Dean Rd","grades":["Middle","High"],"city":"Auburn","state":"AL","zip":"36830","phone":"(334) 887-4970","low":"8","high":"9","students":"1384","cost":"No","url":"https:\/\/www.auburnschools.org\/ajhs\/","review":"https:\/\/www.publicschoolreview.com\/auburn-junior-high-school-profile","virtual":"No"},{"title":"Augusta Evans School","lat":"30.691045","lon":"-88.099881","type":"Specialized Public School","address":"6301 Biloxi Ave","grades":["Pre-K","Elementary","Middle","High"],"city":"Mobile","state":"AL","zip":"36608","phone":"(251) 221-5400","low":"PK","high":"12","students":"248","cost":"No","url":"https:\/\/evansspecialmcpssal.schoolinsites.com\/","review":"https:\/\/www.publicschoolreview.com\/augusta-evans-school-profile","virtual":"No"},{"title":"Austin High School","lat":"34.581631","lon":"-87.003328","type":"Traditional Public School","address":"3004 Modaus Road","grades":["High"],"city":"Decatur","state":"AL","zip":"35601","phone":"(256) 552-3060","low":"10","high":"12","students":"1099","cost":"No","url":"https:\/\/ahs.dcs.edu\/","review":"https:\/\/www.publicschoolreview.com\/austin-high-school-profile","virtual":"No"},{"title":"Austin Junior High School","lat":"34.579034","lon":"-87.006891","type":"Traditional Public School","address":"1625 Danville Road Sw","grades":["Middle","High"],"city":"Decatur","state":"AL","zip":"35601","phone":"(256) 552-3060","low":"8","high":"9","students":"732","cost":"No","url":"","review":"https:\/\/www.publicschoolreview.com\/austin-junior-high-school-profile","virtual":"No"},{"title":"Austin Middle School","lat":"34.562488","lon":"-87.01785","type":"Traditional Public School","address":"2715 Danville Rd Sw","grades":["Middle"],"city":"Decatur","state":"AL","zip":"35603","phone":"(256) 552-4622","low":"6","high":"8","students":"799","cost":"No","url":"","review":"https:\/\/www.publicschoolreview.com\/austin-middle-school-profile\/35603","virtual":"No"},{"title":"Austinville Elementary School","lat":"34.569358","lon":"-86.997465","type":"Traditional Public School","address":"2320 Clara Ave Sw","grades":["Pre-K","Elementary"],"city":"Decatur","state":"AL","zip":"35601","phone":"(256) 552-3050","low":"PK","high":"5","students":"390","cost":"No","url":"https:\/\/aves.dcs.edu\/","review":"https:\/\/www.publicschoolreview.com\/austinville-elementary-school-profile","virtual":"No"},{"title":"Autauga Academy","lat":"32.47086473","lon":"-86.54187054","type":"Private School","address":"497 Golson Rd","grades":["Pre-K","Elementary","Middle","High"],"city":"Prattville","state":"AL","zip":"36067","phone":"(334) 365-4343","low":"PK","high":"12","students":"289","cost":"Yes","url":"http:\/\/www.autaugaacademy.com\/","review":"https:\/\/www.privateschoolreview.com\/autauga-academy-profile","virtual":"No"},{"title":"Autauga County Alternative School","lat":"32.462881","lon":"-86.473198","type":"Specialized Public School","address":"816 Cardinal Ln","grades":["Elementary","Middle","High"],"city":"Prattville","state":"AL","zip":"36067","phone":"(334) 361-3833","low":"3","high":"12","students":"See website","cost":"No","url":"https:\/\/www.acboe.net\/","review":"https:\/\/www.publicschoolreview.com\/autauga-county-alternative-school-profile","virtual":"No"},{"title":"Autauga County Technology Center","lat":"32.494334","lon":"-86.476548","type":"Specialized Public School","address":"1301 Upper Kingston Rd","grades":["High"],"city":"Prattville","state":"AL","zip":"36067","phone":"(334) 361-0258","low":"9","high":"12","students":"See website","cost":"No","url":"https:\/\/www.autaugatech.com\/","review":"https:\/\/www.publicschoolreview.com\/autauga-county-technology-center-profile","virtual":"No"},{"title":"Autaugaville School","lat":"32.433484","lon":"-86.660036","type":"Traditional Public School","address":"2708 Dutch Bend St","grades":["Pre-K","Elementary","Middle","High"],"city":"Autaugaville","state":"AL","zip":"36003","phone":"(334) 365-8329","low":"PK","high":"12","students":"246","cost":"No","url":"https:\/\/www.autaugavilleschool.com\/","review":"https:\/\/www.publicschoolreview.com\/autaugaville-school-profile","virtual":"No"},{"title":"Avondale Elementary School","lat":"33.516273","lon":"-86.771949","type":"Traditional Public School","address":"4000 8th Ct S","grades":["Pre-K","Elementary"],"city":"Birmingham","state":"AL","zip":"35222","phone":"(205) 231-7130","low":"PK","high":"5","students":"441","cost":"No","url":"https:\/\/www.bhamcityschools.org\/domain\/35","review":"https:\/\/www.publicschoolreview.com\/avondale-elementary-school-profile","virtual":"No"},{"title":"Bagley Elementary School","lat":"33.754118","lon":"-86.991347","type":"Traditional Public School","address":"8581 Tate Mill Rd","grades":["Pre-K","Elementary"],"city":"Dora","state":"AL","zip":"35062","phone":"(205) 379-2500","low":"PK","high":"4","students":"501","cost":"No","url":"http:\/\/bagley.jefcoed.com\/","review":"https:\/\/www.publicschoolreview.com\/bagley-elementary-school-profile\/35062","virtual":"No"},{"title":"Bailey Cove Kindercare","lat":"34.6220503","lon":"-86.5384382","type":"Private School","address":"12920 Bailey Cove Rd SE","grades":["Pre-K"],"city":"Huntsville","state":"AL","zip":"35803","phone":"(256) 270-9888","low":"NS","high":"PK","students":"See website","cost":"Yes","url":"https:\/\/www.kindercare.com\/our-centers\/huntsville\/al\/086083?utm_campaign=kc-lg&utm_source=psr&utm_medium=pro","review":"","virtual":"No"},{"title":"Baker High School","lat":"30.669551","lon":"-88.251711","type":"Traditional Public School","address":"8901 Airport Blvd","grades":["High"],"city":"Mobile","state":"AL","zip":"36608","phone":"(251) 221-3000","low":"9","high":"12","students":"2538","cost":"No","url":"https:\/\/www.bakerhighschool.com\/","review":"https:\/\/www.publicschoolreview.com\/baker-high-school-profile","virtual":"No"},{"title":"Baldwin Art And Academics Magnet","lat":"32.373447","lon":"-86.304843","type":"Public Magnet School","address":"410 S Mcdonough St","grades":["Middle"],"city":"Montgomery","state":"AL","zip":"36104","phone":"(334) 269-3870","low":"6","high":"8","students":"547","cost":"No","url":"https:\/\/www.mps.k12.al.us\/BaldwinMS","review":"https:\/\/www.publicschoolreview.com\/baldwin-art-and-academics-magnet-profile","virtual":"No"},{"title":"Baldwin County Elementary Virtual School","lat":"30.584599","lon":"-87.900643","type":"Traditional Public School","address":"605 Us Hwy 98","grades":["Elementary","Middle"],"city":"Daphne","state":"AL","zip":"36526","phone":"(251) 972-6862","low":"K","high":"6","students":"1648","cost":"No","url":"","review":"https:\/\/www.publicschoolreview.com\/baldwin-county-elementary-virtual-school-profile","virtual":"Yes"},{"title":"Baldwin County High School","lat":"30.894183","lon":"-87.792459","type":"Traditional Public School","address":"One Tiger Dr","grades":["High"],"city":"Bay Minette","state":"AL","zip":"36507","phone":"(251) 937-2341","low":"9","high":"12","students":"868","cost":"No","url":"https:\/\/www.bcbe.org\/bchs","review":"https:\/\/www.publicschoolreview.com\/baldwin-county-high-school-profile","virtual":"No"},{"title":"Baldwin County Virtual School","lat":"30.522887","lon":"-87.90253","type":"Online Public School","address":"24675 Hwy 98","grades":["Middle","High"],"city":"Daphne","state":"AL","zip":"36526","phone":"(251) 404-6209","low":"7","high":"12","students":"2366","cost":"No","url":"https:\/\/www.bcbe.org\/bcvs","review":"https:\/\/www.publicschoolreview.com\/baldwin-county-virtual-school-profile","virtual":"Yes"},{"title":"Bankhead Middle School","lat":"33.765505","lon":"-87.185314","type":"Traditional Public School","address":"110 School Rd","grades":["Elementary","Middle"],"city":"Cordova","state":"AL","zip":"35550","phone":"(205) 483-7245","low":"5","high":"8","students":"322","cost":"No","url":"https:\/\/www.walkercountyschools.com\/bms","review":"https:\/\/www.publicschoolreview.com\/bankhead-middle-school-profile","virtual":"No"},{"title":"Banks School","lat":"31.817526","lon":"-85.837973","type":"Traditional Public School","address":"9769 N U S Hwy 29","grades":["Pre-K","Elementary","Middle"],"city":"Banks","state":"AL","zip":"36005","phone":"(334) 243-5514","low":"PK","high":"8","students":"365","cost":"No","url":"http:\/\/banks.al.pcs.schoolinsites.com\/","review":"https:\/\/www.publicschoolreview.com\/banks-school-profile","virtual":"No"},{"title":"Bankscaddell Elementary School","lat":"34.600609","lon":"-86.985053","type":"Traditional Public School","address":"211 Gordon Dr Se","grades":["Pre-K","Elementary"],"city":"Decatur","state":"AL","zip":"35601","phone":"(256) 552-3040","low":"PK","high":"5","students":"422","cost":"No","url":"https:\/\/bce.dcs.edu\/","review":"https:\/\/www.publicschoolreview.com\/bankscaddell-elementary-school-profile","virtual":"No"},{"title":"Barbour County High School","lat":"31.867887","lon":"-85.44612","type":"Traditional Public School","address":"165 S Midway","grades":["Middle","High"],"city":"Clayton","state":"AL","zip":"36016","phone":"(334) 775-3545","low":"7","high":"12","students":"274","cost":"No","url":"https:\/\/bchs.barbourcountyschools.org\/","review":"https:\/\/www.publicschoolreview.com\/barbour-county-high-school-profile","virtual":"No"},{"title":"Barbour County Intermediate School","lat":"31.7804","lon":"-85.55456","type":"Traditional Public School","address":"18 Beaty Drive","grades":["Elementary","Middle"],"city":"Louisville","state":"AL","zip":"36048","phone":"(334) 266-6151","low":"2","high":"6","students":"288","cost":"No","url":"https:\/\/bcis.barbourcountyschools.org\/","review":"https:\/\/www.publicschoolreview.com\/barbour-county-intermediate-school-profile","virtual":"No"},{"title":"Barbour County Primary School","lat":"31.78029","lon":"-85.54984","type":"Traditional Public School","address":"168 Western Bypass","grades":["Pre-K","Elementary"],"city":"Clayton","state":"AL","zip":"36016","phone":"(334) 775-3404","low":"PK","high":"1","students":"125","cost":"No","url":"https:\/\/www.csd83.org\/Spitalny","review":"https:\/\/www.publicschoolreview.com\/barbour-county-primary-school-profile","virtual":"No"},{"title":"Barkley Bridge Elementary School","lat":"34.42261","lon":"-86.946022","type":"Traditional Public School","address":"2333 Barkley Bridge Rd","grades":["Pre-K","Elementary"],"city":"Hartselle","state":"AL","zip":"35640","phone":"(256) 773-1931","low":"PK","high":"4","students":"431","cost":"No","url":"https:\/\/www.hartselletigers.org\/BBES","review":"https:\/\/www.publicschoolreview.com\/barkley-bridge-elementary-school-profile","virtual":"No"},{"title":"Barrett Elementary School","lat":"33.5596","lon":"-86.728795","type":"Traditional Public School","address":"7601 Division Ave","grades":["Pre-K","Elementary"],"city":"Birmingham","state":"AL","zip":"35206","phone":"(205) 231-8130","low":"PK","high":"5","students":"383","cost":"No","url":"https:\/\/www.bhamcityschools.org\/barrett","review":"https:\/\/www.publicschoolreview.com\/barrett-elementary-school-profile","virtual":"No"},{"title":"Barton Academy For Advanced World Studies","lat":"30.688613","lon":"-88.047845","type":"Traditional Public School","address":"504 Government Street","grades":[],"city":"Mobile","state":"AL","zip":"36602","phone":"(251) 221-4156","low":"N","high":"N","students":"See website","cost":"No","url":"","review":"https:\/\/www.publicschoolreview.com\/barton-academy-for-advanced-world-studies-profile","virtual":"No"},{"title":"Bay Minette Elementary School","lat":"30.890297","lon":"-87.775116","type":"Traditional Public School","address":"800 Blackburn Ave","grades":["Pre-K","Elementary","Middle"],"city":"Bay Minette","state":"AL","zip":"36507","phone":"(251) 937-7651","low":"PK","high":"6","students":"649","cost":"No","url":"https:\/\/www.bcbe.org\/bme","review":"https:\/\/www.publicschoolreview.com\/bay-minette-elementary-school-profile","virtual":"No"},{"title":"Bay Minette Middle School","lat":"30.8874","lon":"-87.7951","type":"Traditional Public School","address":"1311 W 13th Street","grades":["Middle"],"city":"Bay Minette","state":"AL","zip":"36507","phone":"(251) 580-2960","low":"7","high":"8","students":"364","cost":"No","url":"https:\/\/www.bcbe.org\/bmms","review":"https:\/\/www.publicschoolreview.com\/bay-minette-middle-school-profile","virtual":"No"},{"title":"Baypointe Residentialaltapointe Health Systems","lat":"30.624781","lon":"-88.177874","type":"Specialized Public School","address":"5800 Southland Dr","grades":[],"city":"Mobile","state":"AL","zip":"36693","phone":"(251) 661-0153","low":"N","high":"N","students":"See website","cost":"No","url":"","review":"https:\/\/www.publicschoolreview.com\/baypointe-residentialaltapointe-health-systems-profile","virtual":"No"},{"title":"Bayshore Christian School","lat":"30.480713","lon":"-87.861306","type":"Private School","address":"316 Presbyterian Dr","grades":["Pre-K","Elementary","Middle","High"],"city":"Fairhope","state":"AL","zip":"36532","phone":"(251) 929-0011","low":"PK","high":"12","students":"458","cost":"Yes","url":"https:\/\/bayshorechristian.org\/","review":"https:\/\/www.privateschoolreview.com\/bayshore-christian-school-profile\/36532","virtual":"No"},{"title":"Bayside Academy","lat":"30.6012","lon":"-87.9115875","type":"Private School","address":"303 Dryer Ave","grades":["Pre-K","Elementary","Middle","High"],"city":"Daphne","state":"AL","zip":"36526","phone":"(251) 338-6300","low":"PK","high":"12","students":"702","cost":"Yes","url":"https:\/\/www.baysideacademy.org\/","review":"https:\/\/www.privateschoolreview.com\/bayside-academy-profile","virtual":"No"},{"title":"Bb Comer Memorial Elementary School","lat":"33.185966","lon":"-86.26416","type":"Traditional Public School","address":"803 Seminole Ave","grades":["Pre-K","Elementary","Middle"],"city":"Sylacauga","state":"AL","zip":"35150","phone":"(256) 315-5430","low":"PK","high":"6","students":"498","cost":"No","url":"http:\/\/bbces.tcboe.org\/","review":"https:\/\/www.publicschoolreview.com\/bb-comer-memorial-elementary-school-profile","virtual":"No"},{"title":"Bb Comer Memorial High School","lat":"33.185897","lon":"-86.264037","type":"Traditional Public School","address":"801 Seminole Ave","grades":["Middle","High"],"city":"Sylacauga","state":"AL","zip":"35150","phone":"(256) 315-5400","low":"7","high":"12","students":"393","cost":"No","url":"http:\/\/bbchs.tcboe.org\/","review":"https:\/\/www.publicschoolreview.com\/bb-comer-memorial-high-school-profile","virtual":"No"},{"title":"Bear Exploration Center","lat":"32.336321","lon":"-86.272338","type":"Traditional Public School","address":"2525 Churchill Dr","grades":["Elementary"],"city":"Montgomery","state":"AL","zip":"36111","phone":"(334) 284-8014","low":"K","high":"5","students":"524","cost":"No","url":"http:\/\/www.bear.mps-al.org\/","review":"https:\/\/www.publicschoolreview.com\/bear-exploration-center-profile","virtual":"No"},{"title":"Beauregard Elementary School","lat":"32.550246","lon":"-85.373987","type":"Traditional Public School","address":"300 Lee Road 431","grades":["Pre-K","Elementary"],"city":"Opelika","state":"AL","zip":"36804","phone":"(334) 705-6011","low":"PK","high":"4","students":"694","cost":"No","url":"https:\/\/www.lee.k12.al.us\/Domain\/8","review":"https:\/\/www.publicschoolreview.com\/beauregard-elementary-school-profile","virtual":"No"},{"title":"Beauregard High School","lat":"32.542566","lon":"-85.370609","type":"Traditional Public School","address":"7343 Al Highway 51","grades":["High"],"city":"Opelika","state":"AL","zip":"36804","phone":"(334) 705-6010","low":"9","high":"12","students":"574","cost":"No","url":"https:\/\/www.lee.k12.al.us\/BGH","review":"https:\/\/www.publicschoolreview.com\/beauregard-high-school-profile","virtual":"No"},{"title":"Belforest Elementary School","lat":"30.603714","lon":"-87.828936","type":"Traditional Public School","address":"11364 County Road 64","grades":["Pre-K","Elementary","Middle"],"city":"Daphne","state":"AL","zip":"36526","phone":"(251) 607-5624","low":"PK","high":"6","students":"745","cost":"No","url":"","review":"https:\/\/www.publicschoolreview.com\/belforest-elementary-school-profile","virtual":"No"},{"title":"Belgreen High School","lat":"34.473747","lon":"-87.865927","type":"Traditional Public School","address":"14220 Highway 187","grades":["Pre-K","Elementary","Middle","High"],"city":"Russellville","state":"AL","zip":"35653","phone":"(256) 332-1376","low":"PK","high":"12","students":"547","cost":"No","url":"http:\/\/belgreenhighschool.com","review":"https:\/\/www.publicschoolreview.com\/belgreen-high-school-profile","virtual":"No"},{"title":"Bellbrown Career Technical Center","lat":"32.458859","lon":"-88.050293","type":"Specialized Public School","address":"111 Mlk Parkway","grades":["High"],"city":"Livingston","state":"AL","zip":"35470","phone":"(205) 652-9469","low":"10","high":"12","students":"See website","cost":"No","url":"http:\/\/www.sumter.k12.al.us\/?PN=Contact","review":"https:\/\/www.publicschoolreview.com\/bellbrown-career-technical-center-profile","virtual":"No"},{"title":"Bellingrath Middle School","lat":"32.344696","lon":"-86.308241","type":"Traditional Public School","address":"3350 S Court St","grades":["Middle"],"city":"Montgomery","state":"AL","zip":"36105","phone":"(334) 269-3623","low":"6","high":"8","students":"577","cost":"No","url":"http:\/\/www.bellingrath.mps-al.org\/?PageName=%27Contact%27","review":"https:\/\/www.publicschoolreview.com\/bellingrath-middle-school-profile","virtual":"No"},{"title":"Ben C Rain High School","lat":"30.618609","lon":"-88.075492","type":"Traditional Public School","address":"3125 Dauphin Island Pkwy","grades":["High"],"city":"Mobile","state":"AL","zip":"36605","phone":"(251) 221-3233","low":"9","high":"12","students":"598","cost":"No","url":"https:\/\/bcrainmcpssal.schoolinsites.com\/","review":"https:\/\/www.publicschoolreview.com\/ben-c-rain-high-school-profile","virtual":"No"},{"title":"Benjamin Davis Elementary School","lat":"34.609374","lon":"-87.006218","type":"Traditional Public School","address":"417 Monroe Dr Nw","grades":["Pre-K","Elementary"],"city":"Decatur","state":"AL","zip":"35601","phone":"(256) 552-3025","low":"PK","high":"2","students":"248","cost":"No","url":"https:\/\/bde.dcs.edu\/","review":"https:\/\/www.publicschoolreview.com\/benjamin-davis-elementary-school-profile","virtual":"No"},{"title":"Benjamin Russell High School","lat":"32.937796","lon":"-85.952184","type":"Traditional Public School","address":"225 Heard Blvd","grades":["High"],"city":"Alexander City","state":"AL","zip":"35010","phone":"(256) 234-8611","low":"9","high":"12","students":"807","cost":"No","url":"https:\/\/brhs.alexcityschools.net\/","review":"https:\/\/www.publicschoolreview.com\/benjamin-russell-high-school-profile","virtual":"No"},{"title":"Berean Baptist Christian School","lat":"30.411062","lon":"-87.613834","type":"Private School","address":"27040 Hwy 98 E","grades":["Elementary","Middle","High"],"city":"Elberta","state":"AL","zip":"36530","phone":"(251) 986-5162","low":"5","high":"10","students":"See website","cost":"Yes","url":"https:\/\/bbcelberta.com\/","review":"","virtual":"No"},{"title":"Bernice J Causey Middle School","lat":"30.646622","lon":"-88.258415","type":"Traditional Public School","address":"2205 Mcfarland Rd","grades":["Middle"],"city":"Mobile","state":"AL","zip":"36695","phone":"(251) 221-2060","low":"6","high":"8","students":"1530","cost":"No","url":"https:\/\/www.causeytigers.com\/","review":"https:\/\/www.publicschoolreview.com\/bernice-j-causey-middle-school-profile","virtual":"No"},{"title":"Berry Elementary School","lat":"33.664254","lon":"-87.600743","type":"Traditional Public School","address":"341 School Avenue","grades":["Pre-K","Elementary","Middle"],"city":"Berry","state":"AL","zip":"35546","phone":"(205) 689-4464","low":"PK","high":"6","students":"320","cost":"No","url":"https:\/\/www.fayette.k12.al.us\/BerryElementary","review":"https:\/\/www.publicschoolreview.com\/berry-elementary-school-profile","virtual":"No"},{"title":"Berry High School","lat":"33.66004","lon":"-87.599737","type":"Traditional Public School","address":"18242 Highway 18 E","grades":["Middle","High"],"city":"Berry","state":"AL","zip":"35546","phone":"(205) 689-4467","low":"7","high":"12","students":"255","cost":"No","url":"https:\/\/www.fayette.k12.al.us\/","review":"https:\/\/www.publicschoolreview.com\/berry-high-school-profile","virtual":"No"},{"title":"Berry Middle School","lat":"33.391367","lon":"-86.72887","type":"Traditional Public School","address":"4500 Jaguar Dr","grades":["Middle"],"city":"Birmingham","state":"AL","zip":"35242","phone":"(205) 439-2000","low":"6","high":"8","students":"1142","cost":"No","url":"https:\/\/www.hoovercityschools.net\/berry","review":"https:\/\/www.publicschoolreview.com\/berry-middle-school-profile","virtual":"No"},{"title":"Bessemer Academy","lat":"33.35349643","lon":"-86.99359905","type":"Private School","address":"1705 4th Ave Sw","grades":["Pre-K","Elementary","Middle","High"],"city":"Bessemer","state":"AL","zip":"35022","phone":"(205) 428-6288","low":"PK","high":"12","students":"436","cost":"Yes","url":"https:\/\/www.bessemeracademy.com\/","review":"","virtual":"No"},{"title":"Bessemer Center For Technology","lat":"33.368385","lon":"-86.983443","type":"Specialized Public School","address":"4940 Premiere Parkway","grades":["High"],"city":"Bessemer","state":"AL","zip":"35022","phone":"(205) 432-3805","low":"9","high":"12","students":"See website","cost":"No","url":"https:\/\/bessemer.bcst.schoolinsites.com\/","review":"https:\/\/www.publicschoolreview.com\/bessemer-center-for-technology-profile","virtual":"No"},{"title":"Bessemer City High School","lat":"33.368134","lon":"-86.98351","type":"Traditional Public School","address":"4950 Premiere Parkway","grades":["High"],"city":"Bessemer","state":"AL","zip":"35022","phone":"(205) 432-3700","low":"9","high":"12","students":"816","cost":"No","url":"https:\/\/lanier.bcss.schoolinsites.com\/","review":"https:\/\/www.publicschoolreview.com\/bessemer-city-high-school-profile\/35022","virtual":"No"},{"title":"Bessemer City Middle School","lat":"33.391597","lon":"-86.952661","type":"Traditional Public School","address":"100 High School Drive","grades":["Middle"],"city":"Bessemer","state":"AL","zip":"35020","phone":"(205) 432-3600","low":"6","high":"8","students":"780","cost":"No","url":"","review":"https:\/\/www.publicschoolreview.com\/bessemer-city-middle-school-profile\/35020","virtual":"No"},{"title":"Beth Haven Christian Academy","lat":"34.280611","lon":"-86.068842","type":"Private School","address":"1424 County Road 471","grades":["Elementary","Middle","High"],"city":"Crossville","state":"AL","zip":"35962","phone":"(256) 561-3531","low":"4","high":"12","students":"30","cost":"Yes","url":"http:\/\/www.bethhavenbaptistchurch.com","review":"https:\/\/www.privateschoolreview.com\/beth-haven-christian-academy-profile","virtual":"No"},{"title":"Bethany Child Development Center","lat":"32.37188577","lon":"-86.28946861","type":"Private School","address":"714 Cedar Street","grades":["Pre-K"],"city":"Montgomery","state":"AL","zip":"36106","phone":"(334) 265-5521","low":"NS","high":"PK","students":"77","cost":"Yes","url":"http:\/\/bethany27.adventistchurchconnect.org\/","review":"","virtual":"No"},{"title":"Bethany Christian Academy","lat":"32.372306","lon":"-86.284795","type":"Private School","address":"1765 Highland Ave.","grades":["Elementary","Middle"],"city":"Montgomery","state":"AL","zip":"36107","phone":"(334) 264-1078","low":"K","high":"8","students":"83","cost":"Yes","url":"https:\/\/antp25.adventistschoolconnect.org\/","review":"","virtual":"No"},{"title":"Bethel Baptist School","lat":"34.4605306","lon":"-86.92355224","type":"Private School","address":"1301 Bethel Rd","grades":["Pre-K","Elementary","Middle","High"],"city":"Hartselle","state":"AL","zip":"35640","phone":"(256) 773-2154","low":"PK","high":"11","students":"123","cost":"Yes","url":"http:\/\/www.bbsbobcats.org","review":"https:\/\/www.privateschoolreview.com\/bethel-baptist-school-profile","virtual":"No"},{"title":"Bethlehem Child Development Center","lat":"31.2572387","lon":"-85.4845552","type":"Private School","address":"416 Bethlehem Road","grades":["Pre-K","Elementary"],"city":"Midland City","state":"AL","zip":"36350","phone":"(334) 673-4980","low":"PK","high":"K","students":"100","cost":"Yes","url":"https:\/\/bbcdothan.com\/?fbclid=IwAR2kC1GlqoVYrrM4pJKDPEVwllhf1aJhBiw6CF6ecgXPbNLrlnhPVDxkuII","review":"","virtual":"No"},{"title":"Bethlehem Christian Academy","lat":"34.97501","lon":"-86.645161","type":"Private School","address":"1936 Elkwood Section Rd","grades":["Pre-K","Elementary","Middle","High"],"city":"Hazel Green","state":"AL","zip":"35750","phone":"(256) 828-4835","low":"PK","high":"9","students":"104","cost":"Yes","url":"https:\/\/www.bethlehemchristianacademy.net\/","review":"https:\/\/www.privateschoolreview.com\/bethlehem-christian-academy-profile\/35750","virtual":"No"},{"title":"Beulah Baptist Christian School","lat":"33.39255828","lon":"-86.96044662","type":"Private School","address":"1022 2nd Ave N","grades":["Pre-K","Elementary"],"city":"Bessemer","state":"AL","zip":"35020","phone":"(205) 424-0861","low":"PK","high":"2","students":"15","cost":"Yes","url":"https:\/\/www.bbchristianschool.org\/","review":"","virtual":"No"},{"title":"Beulah Elementary School","lat":"32.711718","lon":"-85.188027","type":"Traditional Public School","address":"4747 Lee Road 270","grades":["Pre-K","Elementary","Middle"],"city":"Valley","state":"AL","zip":"36854","phone":"(334) 705-6021","low":"PK","high":"6","students":"682","cost":"No","url":"https:\/\/www.lee.k12.al.us\/BUE","review":"https:\/\/www.publicschoolreview.com\/beulah-elementary-school-profile","virtual":"No"},{"title":"Beulah High School","lat":"32.711389","lon":"-85.186486","type":"Traditional Public School","address":"4848 Lee Road 270","grades":["Middle","High"],"city":"Valley","state":"AL","zip":"36854","phone":"(334) 705-6020","low":"7","high":"12","students":"534","cost":"No","url":"https:\/\/www.lee.k12.al.us\/Domain\/11","review":"https:\/\/www.publicschoolreview.com\/beulah-high-school-profile","virtual":"No"},{"title":"Beulah Land Christian Academy","lat":"31.232833","lon":"-85.391859","type":"Private School","address":"280 Headland Ave","grades":["Pre-K","Elementary"],"city":"Dothan","state":"AL","zip":"36303","phone":"(334) 673-2767","low":"PK","high":"1","students":"90","cost":"Yes","url":"http:\/\/greaterbeulah.com\/WP\/","review":"","virtual":"No"},{"title":"Beverlye Intermediate School","lat":"31.193737","lon":"-85.35409","type":"Traditional Public School","address":"1025 S Beverlye Rd","grades":["Elementary","Middle"],"city":"Dothan","state":"AL","zip":"36301","phone":"(334) 794-1432","low":"3","high":"6","students":"516","cost":"No","url":"https:\/\/www.dothan.k12.al.us\/Domain\/8","review":"https:\/\/www.publicschoolreview.com\/beverlye-intermediate-school-profile","virtual":"No"},{"title":"Bibb County Career Academy","lat":"33.055742","lon":"-87.135346","type":"Specialized Public School","address":"17191 Highway 5","grades":["High"],"city":"West Blocton","state":"AL","zip":"35184","phone":"(205) 938-7434","low":"9","high":"12","students":"See website","cost":"No","url":"https:\/\/www.bibbed.org\/Domain\/12","review":"https:\/\/www.publicschoolreview.com\/bibb-county-career-academy-profile","virtual":"No"},{"title":"Bibb County High School","lat":"32.949229","lon":"-87.144438","type":"Traditional Public School","address":"220 Birmingham Rd","grades":["High"],"city":"Centreville","state":"AL","zip":"35042","phone":"(205) 926-9071","low":"9","high":"12","students":"486","cost":"No","url":"https:\/\/sites.google.com\/a\/bibbcountychoctaws.com\/bchs\/","review":"https:\/\/www.publicschoolreview.com\/bibb-county-high-school-profile","virtual":"No"},{"title":"Bible Way Christian Academy","lat":"34.1055598","lon":"-86.3761045","type":"Private School","address":"8224 County Highway 36","grades":["Elementary","Middle","High"],"city":"Altoona","state":"AL","zip":"35952","phone":"(205) 466-5604","low":"K","high":"9","students":"37","cost":"Yes","url":"http:\/\/biblewayacademy.org","review":"","virtual":"No"},{"title":"Big Cove Christian Academy","lat":"34.66767475","lon":"-86.4882674","type":"Private School","address":"6354 Highway 431 S","grades":["Elementary","Middle","High"],"city":"Owens Cross Roads","state":"AL","zip":"35763","phone":"(256) 518-9642","low":"K","high":"9","students":"30","cost":"Yes","url":"https:\/\/www.bigcovesda.net\/","review":"https:\/\/www.privateschoolreview.com\/big-cove-christian-academy-profile","virtual":"No"},{"title":"Big Sandy Elementary School","lat":"33.0542","lon":"-87.588","type":"Traditional Public School","address":"11950 Upper Hull Road","grades":["Pre-K","Elementary"],"city":"Moundville","state":"AL","zip":"35474","phone":"(205) 342-2840","low":"PK","high":"5","students":"447","cost":"No","url":"https:\/\/www.tcss.net\/","review":"https:\/\/www.publicschoolreview.com\/big-sandy-elementary-school-profile\/35474","virtual":"No"},{"title":"Billingsley High School","lat":"32.658621","lon":"-86.701543","type":"Traditional Public School","address":"2446 County Road 77","grades":["Elementary","Middle","High"],"city":"Billingsley","state":"AL","zip":"36006","phone":"(205) 755-1629","low":"K","high":"12","students":"571","cost":"No","url":"https:\/\/www.bsk12.net\/","review":"https:\/\/www.publicschoolreview.com\/billingsley-high-school-profile","virtual":"No"},{"title":"Blossomwood Elementary School","lat":"34.722564","lon":"-86.569232","type":"Traditional Public School","address":"1321 Woodmont Avenue","grades":["Pre-K","Elementary","Middle"],"city":"Huntsville","state":"AL","zip":"35801","phone":"(256) 428-7020","low":"PK","high":"6","students":"602","cost":"No","url":"https:\/\/www.huntsvillecityschools.org\/schools\/blossomwood-elementary","review":"https:\/\/www.publicschoolreview.com\/blossomwood-elementary-school-profile","virtual":"No"},{"title":"Blount County Career Technical Center","lat":"33.991366","lon":"-86.554609","type":"Specialized Public School","address":"61500 Us Highway 231","grades":["High"],"city":"Cleveland","state":"AL","zip":"35049","phone":"(205) 775-2080","low":"10","high":"12","students":"See website","cost":"No","url":"https:\/\/www.blountboe.net\/","review":"https:\/\/www.publicschoolreview.com\/blount-county-career-technical-center-profile","virtual":"No"},{"title":"Blount County Learning Center","lat":"33.992811","lon":"-86.568911","type":"Specialized Public School","address":"189 Horton Ln","grades":["Pre-K","Elementary","Middle","High"],"city":"Cleveland","state":"AL","zip":"35049","phone":"(205) 775-1980","low":"PK","high":"12","students":"See website","cost":"No","url":"https:\/\/sites.google.com\/site\/blountcountylearningcenter\/","review":"https:\/\/www.publicschoolreview.com\/blount-county-learning-center-profile","virtual":"No"},{"title":"Blount Elementary School","lat":"32.309475","lon":"-86.127406","type":"Traditional Public School","address":"1650 Ray Thorington Road","grades":["Pre-K","Elementary"],"city":"Montgomery","state":"AL","zip":"36117","phone":"(334) 244-0078","low":"PK","high":"5","students":"279","cost":"No","url":"https:\/\/www.mps.k12.al.us\/BlountES","review":"https:\/\/www.publicschoolreview.com\/blount-elementary-school-profile","virtual":"No"},{"title":"Blountsville Elementary School","lat":"34.085976","lon":"-86.586243","type":"Traditional Public School","address":"260 Page St","grades":["Pre-K","Elementary","Middle"],"city":"Blountsville","state":"AL","zip":"35031","phone":"(205) 775-1990","low":"PK","high":"6","students":"622","cost":"No","url":"https:\/\/blcsbes.ss19.sharpschool.com\/","review":"https:\/\/www.publicschoolreview.com\/blountsville-elementary-school-profile","virtual":"No"},{"title":"Blue Springs Elementary School","lat":"34.7988571","lon":"-87.1527287","type":"Traditional Public School","address":"16787 Hardy Road","grades":["Pre-K","Elementary"],"city":"Athens","state":"AL","zip":"35611","phone":"(256) 729-4092","low":"PK","high":"5","students":"431","cost":"No","url":"https:\/\/www.bluespringselem.org\/","review":"https:\/\/www.publicschoolreview.com\/blue-springs-elementary-school-profile","virtual":"No"},{"title":"Bluff Park Elementary School","lat":"33.410294","lon":"-86.854849","type":"Traditional Public School","address":"569 Park Avenue","grades":["Pre-K","Elementary"],"city":"Birmingham","state":"AL","zip":"35226","phone":"(205) 439-2800","low":"PK","high":"5","students":"597","cost":"No","url":"https:\/\/www.hoovercityschools.net\/bluffpark","review":"https:\/\/www.publicschoolreview.com\/bluff-park-elementary-school-profile","virtual":"No"},{"title":"Boaz Elementary School","lat":"34.207377","lon":"-86.178477","type":"Traditional Public School","address":"362 Collier St","grades":["Pre-K","Elementary"],"city":"Boaz","state":"AL","zip":"35957","phone":"(256) 593-3481","low":"PK","high":"1","students":"449","cost":"No","url":"https:\/\/www.boazk12.org\/Domain\/8","review":"https:\/\/www.publicschoolreview.com\/boaz-elementary-school-profile","virtual":"No"},{"title":"Boaz High School","lat":"34.210283","lon":"-86.165045","type":"Traditional Public School","address":"907 Brown St","grades":["High"],"city":"Boaz","state":"AL","zip":"35957","phone":"(256) 593-2401","low":"9","high":"12","students":"727","cost":"No","url":"https:\/\/www.boazk12.org\/Domain\/12","review":"https:\/\/www.publicschoolreview.com\/boaz-high-school-profile","virtual":"No"},{"title":"Boaz Intermediate School","lat":"34.212807","lon":"-86.16268","type":"Traditional Public School","address":"11 Newt Parker Drive","grades":["Elementary"],"city":"Boaz","state":"AL","zip":"35957","phone":"(256) 593-9211","low":"4","high":"5","students":"348","cost":"No","url":"https:\/\/www.boazk12.org\/Domain\/10","review":"https:\/\/www.publicschoolreview.com\/boaz-intermediate-school-profile","virtual":"No"},{"title":"Boaz Middle School","lat":"34.212863","lon":"-86.16011","type":"Traditional Public School","address":"140 Newt Parker Dr","grades":["Middle"],"city":"Boaz","state":"AL","zip":"35957","phone":"(256) 593-0799","low":"6","high":"8","students":"540","cost":"No","url":"https:\/\/www.boazk12.org\/Domain\/11","review":"https:\/\/www.publicschoolreview.com\/boaz-middle-school-profile","virtual":"No"},{"title":"Bob Hardingshawmut Elementary School","lat":"32.839552","lon":"-85.183476","type":"Traditional Public School","address":"3301 23rd Dr","grades":["Pre-K","Elementary"],"city":"Valley","state":"AL","zip":"36854","phone":"(334) 710-2803","low":"PK","high":"2","students":"232","cost":"No","url":"https:\/\/bhs.chambersk12.org\/","review":"https:\/\/www.publicschoolreview.com\/bob-hardingshawmut-elementary-school-profile","virtual":"No"},{"title":"Bob Jones High School","lat":"34.719845","lon":"-86.741717","type":"Traditional Public School","address":"650 Hughes Rd","grades":["High"],"city":"Madison","state":"AL","zip":"35758","phone":"(256) 772-2547","low":"9","high":"12","students":"1880","cost":"No","url":"http:\/\/bjhs.madisoncity.k12.al.us\/","review":"https:\/\/www.publicschoolreview.com\/bob-jones-high-school-profile","virtual":"No"},{"title":"Booker T Washington High School","lat":"32.400906","lon":"-85.733466","type":"Traditional Public School","address":"3803 M L K Highway","grades":["High"],"city":"Tuskegee","state":"AL","zip":"36083","phone":"(334) 727-0073","low":"9","high":"12","students":"458","cost":"No","url":"https:\/\/www.maconk12.org\/Booker\/","review":"https:\/\/www.publicschoolreview.com\/booker-t-washington-high-school-profile","virtual":"No"},{"title":"Booker T Washington Magnet High School","lat":"32.369339","lon":"-86.300102","type":"Public Magnet School","address":"3315 Hayneville Road","grades":["High"],"city":"Montgomery","state":"AL","zip":"36108","phone":"(334) 269-3617","low":"9","high":"12","students":"432","cost":"No","url":"http:\/\/www.btw.mps-al.org","review":"https:\/\/www.publicschoolreview.com\/booker-t-washington-magnet-high-school-profile","virtual":"No"},{"title":"Booker T Washington Middle School","lat":"30.703249","lon":"-88.084455","type":"Traditional Public School","address":"1961 Andrews St","grades":["Middle"],"city":"Mobile","state":"AL","zip":"36617","phone":"(251) 221-2361","low":"6","high":"8","students":"369","cost":"No","url":"https:\/\/washingtonmcpssal.schoolinsites.com\/","review":"https:\/\/www.publicschoolreview.com\/booker-t-washington-middle-school-profile","virtual":"No"},{"title":"Bradford Kindercare","lat":"34.728891","lon":"-86.665274","type":"Private School","address":"5014 Bradford Blvd NW","grades":["Pre-K"],"city":"Huntsville","state":"AL","zip":"35803","phone":"(256) 830-0110","low":"NS","high":"PK","students":"See website","cost":"Yes","url":"https:\/\/www.kindercare.com\/our-centers\/huntsville\/al\/086084?utm_campaign=kc-lg&utm_source=psr&utm_medium=pro","review":"","virtual":"No"},{"title":"Bragg Middle School","lat":"33.646269","lon":"-86.816384","type":"Traditional Public School","address":"840 Hazels Way","grades":["Middle"],"city":"Gardendale","state":"AL","zip":"35071","phone":"(205) 379-2600","low":"6","high":"8","students":"776","cost":"No","url":"http:\/\/bragg.jefcoed.com\/","review":"https:\/\/www.publicschoolreview.com\/bragg-middle-school-profile","virtual":"No"},{"title":"Brantley Elementary School","lat":"32.423873","lon":"-86.960236","type":"Traditional Public School","address":"5585 Water Ave","grades":["Pre-K","Elementary","Middle"],"city":"Selma","state":"AL","zip":"36703","phone":"(334) 874-8185","low":"PK","high":"6","students":"214","cost":"No","url":"https:\/\/www.dallask12.org\/7\/home","review":"https:\/\/www.publicschoolreview.com\/brantley-elementary-school-profile","virtual":"No"},{"title":"Brantley High School","lat":"31.590879","lon":"-86.255571","type":"Traditional Public School","address":"8879 N Main St","grades":["Pre-K","Elementary","Middle","High"],"city":"Brantley","state":"AL","zip":"36009","phone":"(334) 527-8879","low":"PK","high":"12","students":"541","cost":"No","url":"https:\/\/www.crenshaw-schools.org\/Domain\/8","review":"https:\/\/www.publicschoolreview.com\/brantley-high-school-profile","virtual":"No"},{"title":"Brantwood Childrens Home","lat":"32.382333","lon":"-86.294455","type":"Specialized Public School","address":"1309 Upper Wetumpka Rd","grades":[],"city":"Montgomery","state":"AL","zip":"36107","phone":"(334) 265-0784","low":"N","high":"N","students":"See website","cost":"No","url":"http:\/\/www.brantwoodchildrenshome.org\/","review":"https:\/\/www.publicschoolreview.com\/brantwood-childrens-home-profile","virtual":"No"},{"title":"Breakthrough Charter School","lat":"32.624706","lon":"-87.318593","type":"Public Charter School","address":"1101 Washington Street","grades":[],"city":"Marion","state":"AL","zip":"36756","phone":"(559) 696-4461","low":"N","high":"N","students":"See website","cost":"No","url":"","review":"https:\/\/www.publicschoolreview.com\/breakthrough-charter-school-profile","virtual":"No"},{"title":"Breitling Elementary School","lat":"30.515613","lon":"-88.334978","type":"Traditional Public School","address":"8350 Grand Bay Wilmer Rd","grades":["Pre-K","Elementary"],"city":"Grand Bay","state":"AL","zip":"36541","phone":"(251) 865-0900","low":"PK","high":"5","students":"533","cost":"No","url":"https:\/\/breitlingelemmcpssal.schoolinsites.com\/","review":"https:\/\/www.publicschoolreview.com\/breitling-elementary-school-profile","virtual":"No"},{"title":"Brenda Preparatory School & Nt","lat":"31.25603035","lon":"-85.39339134","type":"Private School","address":"1792 Headland Ave","grades":["Elementary"],"city":"Dothan","state":"AL","zip":"36303","phone":"(334) 794-3315","low":"K","high":"4","students":"51","cost":"Yes","url":"","review":"","virtual":"No"},{"title":"Brent Elementary School","lat":"32.941907","lon":"-87.117866","type":"Traditional Public School","address":"160 4th Street","grades":["Pre-K","Elementary"],"city":"Brent","state":"AL","zip":"35034","phone":"(205) 926-4993","low":"PK","high":"4","students":"608","cost":"No","url":"https:\/\/www.bibbed.org\/Domain\/10","review":"https:\/\/www.publicschoolreview.com\/brent-elementary-school-profile","virtual":"No"},{"title":"Brewbaker Intermediate School","lat":"32.317634","lon":"-86.217585","type":"Traditional Public School","address":"4455 Brewbaker Dr","grades":["Elementary"],"city":"Montgomery","state":"AL","zip":"36116","phone":"(334) 284-8006","low":"3","high":"5","students":"585","cost":"No","url":"http:\/\/www.brewint.mps-al.org\/","review":"https:\/\/www.publicschoolreview.com\/brewbaker-intermediate-school-profile","virtual":"No"},{"title":"Brewbaker Middle School","lat":"32.318444","lon":"-86.218364","type":"Traditional Public School","address":"4425 Brewbaker Dr","grades":["Middle"],"city":"Montgomery","state":"AL","zip":"36116","phone":"(334) 284-8008","low":"6","high":"8","students":"1050","cost":"No","url":"https:\/\/www.mps.k12.al.us:443\/","review":"https:\/\/www.publicschoolreview.com\/brewbaker-middle-school-profile","virtual":"No"},{"title":"Brewbaker Primary School","lat":"32.317904","lon":"-86.217844","type":"Traditional Public School","address":"4445 Brewbaker Dr","grades":["Pre-K","Elementary"],"city":"Montgomery","state":"AL","zip":"36116","phone":"(334) 284-8005","low":"PK","high":"2","students":"681","cost":"No","url":"https:\/\/www.mps.k12.al.us\/Domain\/11","review":"https:\/\/www.publicschoolreview.com\/brewbaker-primary-school-profile","virtual":"No"},{"title":"Brewbaker Technology Magnet High School","lat":"32.318965","lon":"-86.21883","type":"Public Magnet School","address":"4405 Brewbaker Dr","grades":["High"],"city":"Montgomery","state":"AL","zip":"36116","phone":"(334) 284-7100","low":"9","high":"12","students":"522","cost":"No","url":"http:\/\/www.brewtech.mps-al.org\/","review":"https:\/\/www.publicschoolreview.com\/brewbaker-technology-magnet-high-school-profile","virtual":"No"},{"title":"Brewerporch Childrens Center","lat":"33.187101","lon":"-87.482202","type":"Specialized Public School","address":"2501 Woodland Rd","grades":[],"city":"Tuscaloosa","state":"AL","zip":"35487","phone":"(205) 348-7236","low":"N","high":"N","students":"See website","cost":"No","url":"","review":"https:\/\/www.publicschoolreview.com\/brewerporch-childrens-center-profile","virtual":"No"},{"title":"Brewton Elementary School","lat":"31.11892","lon":"-87.068858","type":"Traditional Public School","address":"901 Douglas Ave","grades":["Pre-K","Elementary"],"city":"Brewton","state":"AL","zip":"36426","phone":"(251) 867-8410","low":"PK","high":"4","students":"462","cost":"No","url":"https:\/\/www.brewtoncityschools.org\/domain\/26","review":"https:\/\/www.publicschoolreview.com\/brewton-elementary-school-profile","virtual":"No"},{"title":"Brewton Middle School","lat":"31.125466","lon":"-87.063237","type":"Traditional Public School","address":"1384 Old Castleberry Road","grades":["Elementary","Middle"],"city":"Brewton","state":"AL","zip":"36426","phone":"(251) 867-8420","low":"5","high":"8","students":"380","cost":"No","url":"https:\/\/www.brewtoncityschools.org\/domain\/27","review":"https:\/\/www.publicschoolreview.com\/brewton-middle-school-profile","virtual":"No"},{"title":"Briarwood Christian School","lat":"33.4153","lon":"-86.7601","type":"Private School","address":"2204 Briarwood Way","grades":["Pre-K","Elementary","Middle","High"],"city":"Birmingham","state":"AL","zip":"35243","phone":"(205) 776-5812","low":"NS","high":"12","students":"1762","cost":"Yes","url":"https:\/\/www.briarwoodchristianschool.org\/","review":"https:\/\/www.privateschoolreview.com\/briarwood-christian-school-profile","virtual":"No"},{"title":"Bridgeport Elementary School","lat":"34.941963","lon":"-85.718855","type":"Traditional Public School","address":"1014 Jacobs Ave","grades":["Pre-K","Elementary"],"city":"Bridgeport","state":"AL","zip":"35740","phone":"(256) 495-3147","low":"PK","high":"4","students":"202","cost":"No","url":"https:\/\/www.jacksonk12.org\/bes","review":"https:\/\/www.publicschoolreview.com\/bridgeport-elementary-school-profile","virtual":"No"},{"title":"Bridgeport Middle School","lat":"34.945358","lon":"-85.713546","type":"Traditional Public School","address":"620 Jacobs Avenue","grades":["Elementary","Middle"],"city":"Bridgeport","state":"AL","zip":"35740","phone":"(256) 495-2967","low":"5","high":"8","students":"146","cost":"No","url":"https:\/\/www.jacksonk12.org\/Domain\/10","review":"https:\/\/www.publicschoolreview.com\/bridgeport-middle-school-profile","virtual":"No"},{"title":"Bright Beginnings Academy","lat":"30.662226","lon":"-88.135165","type":"Private School","address":"3590 Pleasant Valley Rd","grades":["Elementary","Middle","High"],"city":"Mobile","state":"AL","zip":"36609","phone":"(251) 525-9105","low":"1","high":"10","students":"48","cost":"Yes","url":"https:\/\/www.brightdyslexics.com\/","review":"","virtual":"No"},{"title":"Brighton School","lat":"33.443906","lon":"-86.955067","type":"Traditional Public School","address":"3400 Brown Cir","grades":["Pre-K","Elementary","Middle"],"city":"Bessemer","state":"AL","zip":"35020","phone":"(205) 379-2650","low":"PK","high":"8","students":"383","cost":"No","url":"http:\/\/brighton.jefcoed.com\/","review":"https:\/\/www.publicschoolreview.com\/brighton-school-profile","virtual":"No"},{"title":"Brilliant School","lat":"34.06101","lon":"-87.745681","type":"Traditional Public School","address":"10180 State Highway 129","grades":["Pre-K","Elementary","Middle","High"],"city":"Brilliant","state":"AL","zip":"35548","phone":"(205) 465-2323","low":"PK","high":"12","students":"245","cost":"No","url":"https:\/\/sites.google.com\/site\/brilliantgotigers\/","review":"https:\/\/www.publicschoolreview.com\/brilliant-school-profile","virtual":"No"},{"title":"Brindlee Mountain Elementary School","lat":"34.34446","lon":"-86.44169","type":"Traditional Public School","address":"2233 Shoal Creek Rd","grades":["Elementary"],"city":"Arab","state":"AL","zip":"35016","phone":"(256) 753-2246","low":"3","high":"5","students":"229","cost":"No","url":"http:\/\/bmes.marshallk12.org\/","review":"https:\/\/www.publicschoolreview.com\/brindlee-mountain-elementary-school-profile","virtual":"No"},{"title":"Brindlee Mountain High School","lat":"34.374026","lon":"-86.423267","type":"Traditional Public School","address":"994 Scant City Road","grades":["Middle","High"],"city":"Guntersville","state":"AL","zip":"35976","phone":"(256) 753-2800","low":"6","high":"12","students":"575","cost":"No","url":"http:\/\/brindleemountainhigh.marshallk12.org\/","review":"https:\/\/www.publicschoolreview.com\/brindlee-mountain-high-school-profile","virtual":"No"},{"title":"Brindlee Mountain Primary School","lat":"34.400119","lon":"-86.445789","type":"Traditional Public School","address":"1050 Scant City Road","grades":["Pre-K","Elementary"],"city":"Guntersville","state":"AL","zip":"35976","phone":"(256) 753-2532","low":"PK","high":"2","students":"225","cost":"No","url":"http:\/\/bmps.marshallk12.org\/","review":"https:\/\/www.publicschoolreview.com\/brindlee-mountain-primary-school-profile","virtual":"No"},{"title":"Brocks Gap Intermediate School","lat":"33.3441366","lon":"-86.8891018","type":"Traditional Public School","address":"1730 Lake Cyrus Club Drive","grades":["Elementary"],"city":"Birmingham","state":"AL","zip":"35244","phone":"(205) 439-1600","low":"3","high":"5","students":"438","cost":"No","url":"https:\/\/www.hoovercityschools.net\/brocksgap","review":"https:\/\/www.publicschoolreview.com\/brocks-gap-intermediate-school-profile","virtual":"No"},{"title":"Brookhill Elementary School","lat":"34.782319","lon":"-86.964488","type":"Traditional Public School","address":"320 Brookhill Dr","grades":["Elementary"],"city":"Athens","state":"AL","zip":"35611","phone":"(256) 233-6603","low":"K","high":"3","students":"286","cost":"No","url":"https:\/\/www.acs-k12.org\/bes","review":"https:\/\/www.publicschoolreview.com\/brookhill-elementary-school-profile","virtual":"No"},{"title":"Brooklane Baptist Academy","lat":"33.4474137","lon":"-86.9790609","type":"Private School","address":"160 Brooklane Drive","grades":["Elementary"],"city":"Bessemer","state":"AL","zip":"35023","phone":"(205) 497-0967","low":"5","high":"5","students":"See website","cost":"Yes","url":"","review":"https:\/\/www.privateschoolreview.com\/brooklane-baptist-academy-profile","virtual":"No"},{"title":"Brooks Elementary School","lat":"34.862536","lon":"-87.530233","type":"Traditional Public School","address":"100 School Ln","grades":["Pre-K","Elementary","Middle"],"city":"Killen","state":"AL","zip":"35645","phone":"(256) 757-2171","low":"PK","high":"6","students":"853","cost":"No","url":"https:\/\/www.lcschools.org\/Domain\/10","review":"https:\/\/www.publicschoolreview.com\/brooks-elementary-school-profile","virtual":"No"},{"title":"Brooks High School","lat":"34.859325","lon":"-87.492439","type":"Traditional Public School","address":"4300 Highway 72","grades":["Middle","High"],"city":"Killen","state":"AL","zip":"35645","phone":"(256) 757-2115","low":"7","high":"12","students":"731","cost":"No","url":"https:\/\/www.lcschools.org\/Domain\/11","review":"https:\/\/www.publicschoolreview.com\/brooks-high-school-profile","virtual":"No"},{"title":"Brookville Elementary School","lat":"33.631615","lon":"-86.959152","type":"Traditional Public School","address":"4275 Brookville School Rd","grades":["Pre-K","Elementary"],"city":"Graysville","state":"AL","zip":"35073","phone":"(205) 379-2700","low":"PK","high":"5","students":"169","cost":"No","url":"http:\/\/brookvilleel.jefcoed.com\/","review":"https:\/\/www.publicschoolreview.com\/brookville-elementary-school-profile","virtual":"No"},{"title":"Brookwood Elementary School","lat":"33.270323","lon":"-87.297657","type":"Traditional Public School","address":"16049 Highway 216","grades":["Pre-K","Elementary"],"city":"Brookwood","state":"AL","zip":"35444","phone":"(205) 342-2668","low":"PK","high":"5","students":"555","cost":"No","url":"https:\/\/www.tcss.net\/Domain\/9","review":"https:\/\/www.publicschoolreview.com\/brookwood-elementary-school-profile","virtual":"No"},{"title":"Brookwood Forest Elementary School","lat":"33.479728","lon":"-86.719811","type":"Traditional Public School","address":"3701 S Brookwood Rd","grades":["Pre-K","Elementary","Middle"],"city":"Birmingham","state":"AL","zip":"35223","phone":"(205) 414-3700","low":"PK","high":"6","students":"553","cost":"No","url":"https:\/\/www.mtnbrook.k12.al.us\/bwf","review":"https:\/\/www.publicschoolreview.com\/brookwood-forest-elementary-school-profile","virtual":"No"},{"title":"Brookwood High School","lat":"33.267889","lon":"-87.299624","type":"Traditional Public School","address":"12250 George Richmond Parkway","grades":["High"],"city":"Brookwood","state":"AL","zip":"35444","phone":"(205) 342-2777","low":"9","high":"12","students":"1014","cost":"No","url":"https:\/\/www.tcss.net\/Domain\/10","review":"https:\/\/www.publicschoolreview.com\/brookwood-high-school-profile","virtual":"No"},{"title":"Brookwood Middle School","lat":"33.21206","lon":"-87.28239","type":"Traditional Public School","address":"17021 Brookwood Parkway","grades":["Middle"],"city":"Vance","state":"AL","zip":"35490","phone":"(205) 342-2748","low":"6","high":"8","students":"794","cost":"No","url":"https:\/\/www.tcss.net\/Domain\/11","review":"https:\/\/www.publicschoolreview.com\/brookwood-middle-school-profile\/35490","virtual":"No"},{"title":"Bruce K Craig Elementary School","lat":"32.361921","lon":"-86.988004","type":"Traditional Public School","address":"Building 108 Craig Ind Park","grades":["Elementary"],"city":"Selma","state":"AL","zip":"36701","phone":"(334) 875-7937","low":"3","high":"5","students":"218","cost":"No","url":"https:\/\/www.dallask12.org\/6\/home","review":"https:\/\/www.publicschoolreview.com\/bruce-k-craig-elementary-school-profile","virtual":"No"},{"title":"Bryan Elementary School","lat":"33.762046","lon":"-86.802781","type":"Traditional Public School","address":"600 Kimberly Cut Off Rd","grades":["Pre-K","Elementary"],"city":"Morris","state":"AL","zip":"35116","phone":"(205) 379-2750","low":"PK","high":"5","students":"828","cost":"No","url":"http:\/\/bryanel.jefcoed.com","review":"https:\/\/www.publicschoolreview.com\/bryan-elementary-school-profile","virtual":"No"},{"title":"Bryant Park Elementary School","lat":"33.651328","lon":"-86.65254","type":"Traditional Public School","address":"2020 Bryant Park Drive","grades":["Pre-K","Elementary"],"city":"Birmingham","state":"AL","zip":"35215","phone":"(205) 379-2850","low":"PK","high":"5","students":"559","cost":"No","url":"","review":"https:\/\/www.publicschoolreview.com\/bryant-park-elementary-school-profile","virtual":"No"},{"title":"Bryant School","lat":"34.943486","lon":"-85.631846","type":"Traditional Public School","address":"6645 Al Highway 73","grades":["Pre-K","Elementary","Middle"],"city":"Bryant","state":"AL","zip":"35958","phone":"(256) 597-2203","low":"PK","high":"8","students":"148","cost":"No","url":"https:\/\/www.jacksonk12.org\/bryant","review":"https:\/\/www.publicschoolreview.com\/bryant-school-profile","virtual":"No"},{"title":"Buckhorn High School","lat":"34.871144","lon":"-86.453737","type":"Traditional Public School","address":"4123 Winchester Rd","grades":["High"],"city":"New Market","state":"AL","zip":"35761","phone":"(256) 851-3300","low":"9","high":"12","students":"1298","cost":"No","url":"https:\/\/www.mcssk12.org\/buckhornhighschool","review":"https:\/\/www.publicschoolreview.com\/buckhorn-high-school-profile","virtual":"No"},{"title":"Buckhorn Middle School","lat":"34.8715596","lon":"-86.453547","type":"Traditional Public School","address":"4185 Winchester Road","grades":["Middle"],"city":"New Market","state":"AL","zip":"35761","phone":"(256) 851-3230","low":"7","high":"8","students":"646","cost":"No","url":"https:\/\/www.mcssk12.org\/buckhornmiddleschool","review":"https:\/\/www.publicschoolreview.com\/buckhorn-middle-school-profile","virtual":"No"},{"title":"Buhl Elementary School","lat":"33.256729","lon":"-87.751107","type":"Traditional Public School","address":"11968 Buhl School Rd","grades":["Pre-K","Elementary"],"city":"Buhl","state":"AL","zip":"35446","phone":"(205) 342-2640","low":"PK","high":"4","students":"232","cost":"No","url":"https:\/\/www.tcss.net\/Domain\/12","review":"https:\/\/www.publicschoolreview.com\/buhl-elementary-school-profile","virtual":"No"},{"title":"Bullock County Career Technical Center","lat":"32.14286","lon":"-85.71276","type":"Specialized Public School","address":"304 Blackmon Ave E","grades":["Middle","High"],"city":"Union Springs","state":"AL","zip":"36089","phone":"(334) 625-7306","low":"8","high":"12","students":"See website","cost":"No","url":"http:\/\/bullockcounty.cts.schoolinsites.com\/","review":"https:\/\/www.publicschoolreview.com\/bullock-county-career-technical-center-profile","virtual":"No"},{"title":"Bullock County High School","lat":"32.129788","lon":"-85.72279","type":"Traditional Public School","address":"108 Hardaway Ave","grades":["High"],"city":"Union Springs","state":"AL","zip":"36089","phone":"(334) 651-8264","low":"9","high":"12","students":"384","cost":"No","url":"http:\/\/bullockcounty.bch.schoolinsites.com\/","review":"https:\/\/www.publicschoolreview.com\/bullock-county-high-school-profile","virtual":"No"},{"title":"Burns Middle School","lat":"30.616356","lon":"-88.183587","type":"Traditional Public School","address":"6175 Girby Rd","grades":["Middle"],"city":"Mobile","state":"AL","zip":"36693","phone":"(251) 221-2025","low":"6","high":"8","students":"827","cost":"No","url":"https:\/\/burnsmcpssal.schoolinsites.com\/","review":"https:\/\/www.publicschoolreview.com\/burns-middle-school-profile","virtual":"No"},{"title":"Bush Hills Steam Academy","lat":"33.5130943","lon":"-86.8637631","type":"Traditional Public School","address":"900 16th Street West","grades":["Middle"],"city":"Birmingham","state":"AL","zip":"35208","phone":"(205) 231-6370","low":"6","high":"8","students":"458","cost":"No","url":"https:\/\/www.bhamcityschools.org\/bushhills","review":"https:\/\/www.publicschoolreview.com\/bush-hills-steam-academy-profile","virtual":"No"},{"title":"Butler County Area Vocational School","lat":"31.831567","lon":"-86.639619","type":"Specialized Public School","address":"211 School Highlands Road","grades":["High"],"city":"Greenville","state":"AL","zip":"36037","phone":"(334) 382-2608","low":"10","high":"12","students":"See website","cost":"No","url":"https:\/\/www.butlerco.k12.al.us\/","review":"https:\/\/www.publicschoolreview.com\/butler-county-area-vocational-school-profile","virtual":"No"},{"title":"Byrd First Class Early Learning Center","lat":"32.410831","lon":"-87.030242","type":"Traditional Public School","address":"625 Lapsley St","grades":["Pre-K"],"city":"Selma","state":"AL","zip":"36701","phone":"(334) 874-1620","low":"PK","high":"PK","students":"101","cost":"No","url":"","review":"https:\/\/www.publicschoolreview.com\/byrd-first-class-early-learning-center-profile","virtual":"No"},{"title":"C I T Y Program","lat":"34.005115","lon":"-85.989462","type":"Specialized Public School","address":"435 E Chestnut","grades":["Middle","High"],"city":"Gadsden","state":"AL","zip":"35903","phone":"(256) 543-2489","low":"6","high":"12","students":"See website","cost":"No","url":"https:\/\/www.gcs.k12.al.us\/","review":"https:\/\/www.publicschoolreview.com\/c-i-t-y-program-profile","virtual":"No"},{"title":"C L Salter Elementary School","lat":"33.455975","lon":"-86.083546","type":"Traditional Public School","address":"106 Brecon Access Rd","grades":["Pre-K","Elementary","Middle"],"city":"Talladega","state":"AL","zip":"35160","phone":"(256) 315-5822","low":"PK","high":"6","students":"227","cost":"No","url":"https:\/\/www.salterelem.net\/","review":"https:\/\/www.publicschoolreview.com\/c-l-salter-elementary-school-profile","virtual":"No"},{"title":"C P Carmichael Alternative School","lat":"31.500792","lon":"-87.339996","type":"Specialized Public School","address":"1323 Veterans Drive","grades":["Elementary","Middle","High"],"city":"Monroeville","state":"AL","zip":"36460","phone":"(251) 575-4189","low":"K","high":"12","students":"See website","cost":"No","url":"","review":"https:\/\/www.publicschoolreview.com\/c-p-carmichael-alternative-school-profile","virtual":"No"},{"title":"Cahaba Elementary School","lat":"33.620758","lon":"-86.6078424","type":"Traditional Public School","address":"301 Parkway Drive","grades":["Elementary"],"city":"Trussville","state":"AL","zip":"35173","phone":"(205) 228-3400","low":"K","high":"5","students":"499","cost":"No","url":"","review":"https:\/\/www.publicschoolreview.com\/cahaba-elementary-school-profile","virtual":"No"},{"title":"Cahawba Christian Academy","lat":"32.97057671","lon":"-87.12544795","type":"Private School","address":"2415 Montevallo Road","grades":["Pre-K","Elementary","Middle","High"],"city":"Centreville","state":"AL","zip":"35042","phone":"(205) 926-4676","low":"PK","high":"12","students":"163","cost":"Yes","url":"https:\/\/www.cahawbachristianacademy.com\/","review":"https:\/\/www.privateschoolreview.com\/cahawba-christian-academy-profile","virtual":"No"},{"title":"Calcedeaver Elementary School","lat":"31.113938","lon":"-88.11476","type":"Traditional Public School","address":"20500 Patillo Road","grades":["Pre-K","Elementary","Middle"],"city":"Mount Vernon","state":"AL","zip":"36560","phone":"(251) 221-1092","low":"PK","high":"6","students":"236","cost":"No","url":"https:\/\/calcedeaverelemmcpssal.schoolinsites.com\/","review":"https:\/\/www.publicschoolreview.com\/calcedeaver-elementary-school-profile","virtual":"No"},{"title":"Caldwell Elementary School","lat":"34.660035","lon":"-86.033513","type":"Traditional Public School","address":"905 S Market St","grades":["Elementary"],"city":"Scottsboro","state":"AL","zip":"35768","phone":"(256) 218-2500","low":"1","high":"3","students":"540","cost":"No","url":"https:\/\/caldwell.scottsboroschools.net\/","review":"https:\/\/www.publicschoolreview.com\/caldwell-elementary-school-profile","virtual":"No"},