[{"title":"A Child's Garden","lat":"41.29431654","lon":"-73.0895337","type":"Private School","address":"20 Ivy Brook Rd","grades":["Pre-K","Elementary"],"city":"Shelton","state":"CT","zip":"6484","phone":"(203) 402-0334","low":"PK","high":"K","students":"100","cost":"Yes","url":"https:\/\/achildsgarden.net\/","review":"","virtual":"No"},{"title":"A. Baldwin Middle School","lat":"41.338773","lon":"-72.719403","type":"Traditional Public School","address":"68 Bullard Dr.","grades":["Elementary","Middle"],"city":"Guilford","state":"CT","zip":"6437","phone":"(203) 457-0222","low":"5","high":"6","students":"468","cost":"No","url":"https:\/\/bms.guilfordps.org\/","review":"https:\/\/www.publicschoolreview.com\/a-baldwin-middle-school-profile","virtual":"Yes"},{"title":"A. I. Prince Technical High School","lat":"41.74203","lon":"-72.707779","type":"Specialized Public School","address":"401 Flatbush Ave.","grades":["High"],"city":"Hartford","state":"CT","zip":"6106","phone":"(860) 951-7112","low":"9","high":"12","students":"781","cost":"No","url":"https:\/\/prince.cttech.org\/","review":"https:\/\/www.publicschoolreview.com\/a-i-prince-technical-high-school-profile","virtual":"Yes"},{"title":"A. W. Cox School","lat":"41.28567","lon":"-72.695266","type":"Traditional Public School","address":"143 Three Mile Course","grades":["Elementary"],"city":"Guilford","state":"CT","zip":"6437","phone":"(203) 453-5291","low":"K","high":"4","students":"241","cost":"No","url":"https:\/\/www.guilfordschools.org\/","review":"https:\/\/www.publicschoolreview.com\/a-w-cox-school-profile","virtual":"Yes"},{"title":"A. Ward Spaulding School","lat":"41.990591","lon":"-72.698888","type":"Traditional Public School","address":"945 Mountain Rd.","grades":["Pre-K","Elementary"],"city":"Suffield","state":"CT","zip":"6078","phone":"(860) 668-3826","low":"PK","high":"2","students":"453","cost":"No","url":"https:\/\/www.suffield.org\/page.cfm?p=587","review":"https:\/\/www.publicschoolreview.com\/a-ward-spaulding-school-profile","virtual":"Yes"},{"title":"A.B. Skane Center","lat":"41.213638","lon":"-73.226379","type":"Traditional Public School","address":"2977 North Madison Ave.","grades":["Pre-K"],"city":"Bridgeport","state":"CT","zip":"6606","phone":"(203) 576-7181","low":"PK","high":"PK","students":"205","cost":"No","url":"https:\/\/www.bridgeportedu.net\/Domain\/1678","review":"https:\/\/www.publicschoolreview.com\/a-b-skane-center-profile","virtual":"Yes"},{"title":"Academy Of Aerospace And Engineering","lat":"41.751301","lon":"-72.684123","type":"Public Magnet School","address":"1101 Kennedy Road","grades":["Middle","High"],"city":"Windsor","state":"CT","zip":"6095","phone":"(860) 243-0857","low":"6","high":"12","students":"776","cost":"No","url":"https:\/\/aae.crecschools.org\/","review":"https:\/\/www.publicschoolreview.com\/academy-of-aerospace-and-engineering-profile","virtual":"Yes"},{"title":"Academy Of Aerospace And Engineering Elementary School","lat":"41.64434","lon":"-72.664666","type":"Public Magnet School","address":"7 Gardner Way","grades":["Pre-K","Elementary"],"city":"Rocky Hill","state":"CT","zip":"6067","phone":"(860) 529-1652","low":"PK","high":"5","students":"524","cost":"No","url":"","review":"https:\/\/www.publicschoolreview.com\/academy-of-aerospace-and-engineering-elementary-school-profile","virtual":"Yes"},{"title":"Academy Of Science And Innovation","lat":"41.850633","lon":"-72.666122","type":"Public Magnet School","address":"600 Slater Road","grades":["Middle","High"],"city":"New Britain","state":"CT","zip":"6053","phone":"(860) 223-0726","low":"6","high":"12","students":"777","cost":"No","url":"","review":"https:\/\/www.publicschoolreview.com\/academy-of-science-and-innovation-profile","virtual":"Yes"},{"title":"Academy Of The Holy Family","lat":"41.616825","lon":"-72.084535","type":"Private School","address":"54 W Main St. Box 691,","grades":["High"],"city":"Baltic","state":"CT","zip":"6330","phone":"(860) 822-9272","low":"9","high":"12","students":"41","cost":"Yes","url":"https:\/\/ahfbaltic.com\/","review":"https:\/\/www.privateschoolreview.com\/academy-of-the-holy-family-profile","virtual":"No"},{"title":"Achievement First Bridgeport Academy","lat":"41.186","lon":"-73.186256","type":"Public Charter School","address":"655 Stillman St.","grades":["Elementary","Middle","High"],"city":"Bridgeport","state":"CT","zip":"6608","phone":"(203) 338-0593","low":"K","high":"12","students":"1127","cost":"No","url":"https:\/\/www.achievementfirst.org\/","review":"https:\/\/www.publicschoolreview.com\/achievement-first-bridgeport-academy-profile","virtual":"Yes"},{"title":"Achievement First Hartford Academy","lat":"41.804786","lon":"-72.704285","type":"Public Charter School","address":"305 Greenfield Street","grades":["Elementary","Middle","High"],"city":"Hartford","state":"CT","zip":"6112","phone":"(860) 695-6685","low":"K","high":"12","students":"1163","cost":"No","url":"https:\/\/www.achievementfirst.org\/school\/achievement-first-hartford-academy-middle-school\/","review":"https:\/\/www.publicschoolreview.com\/achievement-first-hartford-academy-profile","virtual":"Yes"},{"title":"Acton Academy Bethel Ct","lat":"41.354328","lon":"-73.422347","type":"Private School","address":"16 Trowbridge Dr","grades":["Elementary","Middle"],"city":"Bethel","state":"CT","zip":"6801","phone":"(703) 986-8449","low":"1","high":"8","students":"See website","cost":"Yes","url":"","review":"https:\/\/www.privateschoolreview.com\/acton-academy-bethel-ct-profile","virtual":"No"},{"title":"Adelbrook","lat":"41.59995607","lon":"-72.66741869","type":"Private School","address":"60 Hicksville Rd","grades":["Pre-K","Elementary","Middle","High"],"city":"Cromwell","state":"CT","zip":"6416","phone":"(860) 635-6010","low":"PK","high":"12","students":"112","cost":"Yes","url":"https:\/\/adelbrook.org\/","review":"https:\/\/www.privateschoolreview.com\/adelbrook-profile","virtual":"No"},{"title":"Adelbrook - The Learning Center Of Manchester","lat":"41.76355","lon":"-72.532191","type":"Private School","address":"42 Prospect St","grades":["Elementary","Middle"],"city":"Manchester","state":"CT","zip":"6040","phone":"(860) 645-1255","low":"1","high":"6","students":"26","cost":"Yes","url":"https:\/\/adelbrook.org\/","review":"","virtual":"No"},{"title":"Aerospace\/Hydrospace Engineering And Physical Sciences Magne","lat":"41.225","lon":"-73.1909","type":"Public Magnet School","address":"840 Old Town Road","grades":["High"],"city":"Bridgeport","state":"CT","zip":"6606","phone":"(203) 275-3343","low":"9","high":"12","students":"314","cost":"No","url":"http:\/\/fairchildwheeler.org\/","review":"https:\/\/www.publicschoolreview.com\/aerospace-hydrospace-engineering-and-physical-sciences-magne-profile","virtual":"Yes"},{"title":"Aiken School","lat":"41.800673","lon":"-72.746628","type":"Traditional Public School","address":"212 King Philip Dr.","grades":["Pre-K","Elementary"],"city":"West Hartford","state":"CT","zip":"6117","phone":"(860) 233-6994","low":"PK","high":"5","students":"403","cost":"No","url":"https:\/\/aiken.whps.org\/","review":"https:\/\/www.publicschoolreview.com\/aiken-school-profile","virtual":"Yes"},{"title":"Albert D. Griswold Middle School","lat":"41.667126","lon":"-72.651332","type":"Traditional Public School","address":"144 Bailey Rd.","grades":["Middle"],"city":"Rocky Hill","state":"CT","zip":"6067","phone":"(860) 258-7741","low":"6","high":"8","students":"610","cost":"No","url":"","review":"https:\/\/www.publicschoolreview.com\/albert-d-griswold-middle-school-profile","virtual":"Yes"},{"title":"Alcott School","lat":"41.624131","lon":"-72.960273","type":"Traditional Public School","address":"1490 Woodtick Rd.","grades":["Pre-K","Elementary"],"city":"Wolcott","state":"CT","zip":"6716","phone":"(203) 879-8160","low":"PK","high":"5","students":"287","cost":"No","url":"","review":"https:\/\/www.publicschoolreview.com\/alcott-school-profile","virtual":"Yes"},{"title":"Alfred W. Hanmer School","lat":"41.715664","lon":"-72.658486","type":"Traditional Public School","address":"50 Francis St.","grades":["Elementary","Middle"],"city":"Wethersfield","state":"CT","zip":"6109","phone":"(860) 571-8370","low":"K","high":"6","students":"303","cost":"No","url":"https:\/\/wps.wethersfield.me\/schools\/alfred-w-hanmer-elementary","review":"https:\/\/www.publicschoolreview.com\/alfred-w-hanmer-school-profile","virtual":"Yes"},{"title":"All Nations Christian Academy","lat":"41.3080468","lon":"-72.8849078","type":"Private School","address":"358 Lenox Street","grades":["Elementary"],"city":"New Haven","state":"CT","zip":"6513","phone":"(203) 467-6083","low":"K","high":"4","students":"22","cost":"Yes","url":"http:\/\/allnationschristianacademy.org\/","review":"https:\/\/www.privateschoolreview.com\/all-nations-christian-academy-profile","virtual":"No"},{"title":"All Saints Catholic Academy","lat":"41.308274","lon":"-72.9278835","type":"Private School","address":"423 Ferry St","grades":["Elementary","Middle"],"city":"New Haven","state":"CT","zip":"6513","phone":"(203) 777-5352","low":"K","high":"8","students":"See website","cost":"Yes","url":"http:\/\/www.allsaintsnewhaven.org","review":"https:\/\/www.privateschoolreview.com\/all-saints-catholic-academy-profile\/06513","virtual":"No"},{"title":"All Saints Catholic School","lat":"41.13788568","lon":"-73.41640052","type":"Private School","address":"139 W Rocks Rd","grades":["Pre-K","Elementary","Middle"],"city":"Norwalk","state":"CT","zip":"6851","phone":"(203) 847-3881","low":"PK","high":"8","students":"560","cost":"Yes","url":"https:\/\/www.allsaintsnorwalk.com\/","review":"https:\/\/www.privateschoolreview.com\/all-saints-catholic-school-profile\/06851","virtual":"No"},{"title":"Allgrove School","lat":"41.944277","lon":"-72.732217","type":"Traditional Public School","address":"33 Turkey Hills Rd.","grades":["Pre-K","Elementary"],"city":"East Granby","state":"CT","zip":"6026","phone":"(860) 653-2505","low":"PK","high":"2","students":"175","cost":"No","url":"https:\/\/www.eastgranby.k12.ct.us\/allgrove\/","review":"https:\/\/www.publicschoolreview.com\/allgrove-school-profile","virtual":"Yes"},{"title":"Alma E. Pagels School","lat":"41.242592","lon":"-72.987806","type":"Traditional Public School","address":"26 Benham Hill Rd.","grades":["Pre-K","Elementary"],"city":"West Haven","state":"CT","zip":"6516","phone":"(203) 931-6840","low":"PK","high":"4","students":"362","cost":"No","url":"https:\/\/pagels.whschools.org\/","review":"https:\/\/www.publicschoolreview.com\/alma-e-pagels-school-profile","virtual":"Yes"},{"title":"Alpha & Omega Christian Academy","lat":"41.558758","lon":"-73.039355","type":"Private School","address":"50 Linden St","grades":["Elementary","Middle","High"],"city":"Waterbury","state":"CT","zip":"6702","phone":"(203) 754-2557","low":"K","high":"12","students":"25","cost":"Yes","url":"","review":"https:\/\/www.privateschoolreview.com\/alpha-omega-christian-academy-profile\/06702","virtual":"No"},{"title":"American School For The Deaf","lat":"41.7714","lon":"-72.744","type":"Private School","address":"139 N Main St","grades":["Pre-K","Elementary","Middle","High"],"city":"West Hartford","state":"CT","zip":"6107","phone":"(860) 570-2300","low":"PK","high":"12","students":"121","cost":"Yes","url":"https:\/\/www.asd-1817.org\/","review":"https:\/\/www.privateschoolreview.com\/american-school-for-the-deaf-profile","virtual":"No"},{"title":"Amistad Academy","lat":"41.313537","lon":"-72.903906","type":"Public Charter School","address":"130 Edgewood Avenue","grades":["Elementary","Middle","High"],"city":"New Haven","state":"CT","zip":"6511","phone":"(203) 772-7000","low":"K","high":"12","students":"1134","cost":"No","url":"https:\/\/www.achievementfirst.org\/school\/amistad-academy-elementary-school\/","review":"https:\/\/www.publicschoolreview.com\/amistad-academy-profile","virtual":"Yes"},{"title":"Amity Middle School: Bethany","lat":"41.416601","lon":"-73.006585","type":"Traditional Public School","address":"190 Luke Hill Rd.","grades":["Middle"],"city":"Bethany","state":"CT","zip":"6524","phone":"(203) 393-3102","low":"7","high":"8","students":"357","cost":"No","url":"https:\/\/www.amityregion5.org\/","review":"https:\/\/www.publicschoolreview.com\/amity-middle-school-bethany-profile","virtual":"Yes"},{"title":"Amity Middle School: Orange","lat":"41.300949","lon":"-73.00515","type":"Traditional Public School","address":"100 Ohman Ave.","grades":["Middle"],"city":"Orange","state":"CT","zip":"6477","phone":"(203) 392-3200","low":"7","high":"8","students":"350","cost":"No","url":"https:\/\/www.amityregion5.org\/amso","review":"https:\/\/www.publicschoolreview.com\/amity-middle-school-orange-profile","virtual":"Yes"},{"title":"Amity Regional High School","lat":"41.358761","lon":"-73.009926","type":"Traditional Public School","address":"25 Newton Rd.","grades":["High"],"city":"Woodbridge","state":"CT","zip":"6525","phone":"(203) 397-4830","low":"9","high":"12","students":"1444","cost":"No","url":"https:\/\/www.amityregion5.org\/","review":"https:\/\/www.publicschoolreview.com\/amity-regional-high-school-profile","virtual":"Yes"},{"title":"Ana Grace Academy Of The Arts Elementary School","lat":"41.817306","lon":"-72.836061","type":"Public Magnet School","address":"20 Security Drive","grades":["Pre-K","Elementary"],"city":"Avon","state":"CT","zip":"6001","phone":"(860) 677-0380","low":"PK","high":"5","students":"483","cost":"No","url":"https:\/\/rmsa.crecschools.org\/","review":"https:\/\/www.publicschoolreview.com\/ana-grace-academy-of-the-arts-elementary-school-profile","virtual":"Yes"},{"title":"Andover Elementary School","lat":"41.727909","lon":"-72.365963","type":"Traditional Public School","address":"35 School Rd.","grades":["Pre-K","Elementary","Middle"],"city":"Andover","state":"CT","zip":"6232","phone":"(860) 742-7339","low":"PK","high":"6","students":"173","cost":"No","url":"https:\/\/www.andoverelementaryct.org\/","review":"https:\/\/www.publicschoolreview.com\/andover-elementary-school-profile","virtual":"Yes"},{"title":"Andrew Avenue School","lat":"41.48422","lon":"-73.065788","type":"Traditional Public School","address":"140 Andrew Ave.","grades":["Elementary"],"city":"Naugatuck","state":"CT","zip":"6770","phone":"(203) 720-5221","low":"K","high":"4","students":"227","cost":"No","url":"https:\/\/andrewave.naugatuck.k12.ct.us\/","review":"https:\/\/www.publicschoolreview.com\/andrew-avenue-school-profile","virtual":"Yes"},{"title":"Ann Antolini School","lat":"41.82758","lon":"-73.015156","type":"Traditional Public School","address":"30 Antolini Road","grades":["Elementary","Middle"],"city":"New Hartford","state":"CT","zip":"6057","phone":"(860) 489-4169","low":"3","high":"6","students":"246","cost":"No","url":"https:\/\/www.newhtfd.org\/site\/default.aspx?domainid=52","review":"https:\/\/www.publicschoolreview.com\/ann-antolini-school-profile","virtual":"Yes"},{"title":"Anna E. Norris School","lat":"41.784925","lon":"-72.631364","type":"Traditional Public School","address":"40 Remington Rd.","grades":["Elementary"],"city":"East Hartford","state":"CT","zip":"6108","phone":"(860) 622-5740","low":"K","high":"5","students":"271","cost":"No","url":"https:\/\/norris.easthartford.org\/","review":"https:\/\/www.publicschoolreview.com\/anna-e-norris-school-profile","virtual":"Yes"},{"title":"Anna H. Rockwell School","lat":"41.382419","lon":"-73.39635","type":"Traditional Public School","address":"400 Whittlesey Dr.","grades":["Elementary"],"city":"Bethel","state":"CT","zip":"6801","phone":"(203) 794-8688","low":"K","high":"2","students":"280","cost":"No","url":"https:\/\/res.bethel.k12.ct.us\/","review":"https:\/\/www.publicschoolreview.com\/anna-h-rockwell-school-profile","virtual":"Yes"},{"title":"Anna Reynolds School","lat":"41.716007","lon":"-72.746004","type":"Traditional Public School","address":"85 Reservoir Rd.","grades":["Pre-K","Elementary"],"city":"Newington","state":"CT","zip":"6111","phone":"(860) 521-7830","low":"PK","high":"4","students":"395","cost":"No","url":"https:\/\/ar.npsct.org\/","review":"https:\/\/www.publicschoolreview.com\/anna-reynolds-school-profile","virtual":"Yes"},{"title":"Annie E. Vinton School","lat":"41.747572","lon":"-72.260558","type":"Traditional Public School","address":"306 Stafford Rd.","grades":["Pre-K","Elementary"],"city":"Mansfield Center","state":"CT","zip":"6250","phone":"(860) 423-3086","low":"PK","high":"4","students":"196","cost":"No","url":"https:\/\/www.mansfieldct.gov\/vinton","review":"https:\/\/www.publicschoolreview.com\/annie-e-vinton-school-profile","virtual":"Yes"},{"title":"Ansonia High School","lat":"41.329793","lon":"-73.06421","type":"Traditional Public School","address":"20 Pulaski Hwy.","grades":["High"],"city":"Ansonia","state":"CT","zip":"6401","phone":"(203) 736-5060","low":"9","high":"12","students":"503","cost":"No","url":"https:\/\/www.ansonia.org\/schools\/ansonia-high-school","review":"https:\/\/www.publicschoolreview.com\/ansonia-high-school-profile","virtual":"Yes"},{"title":"Ansonia Middle School","lat":"41.341031","lon":"-73.083864","type":"Traditional Public School","address":"115 Howard Ave.","grades":["Middle"],"city":"Ansonia","state":"CT","zip":"6401","phone":"(203) 736-5070","low":"7","high":"8","students":"365","cost":"No","url":"https:\/\/www.ansonia.org\/schools\/ansonia-middle-school","review":"https:\/\/www.publicschoolreview.com\/ansonia-middle-school-profile","virtual":"Yes"},{"title":"Apple Blossom School & Family Center","lat":"41.2170286","lon":"-73.427517","type":"Private School","address":"440 Danbury Rd","grades":["Elementary"],"city":"Wilton","state":"CT","zip":"6897","phone":"(203) 834-0344","low":"K","high":"K","students":"14","cost":"Yes","url":"https:\/\/www.appleblossomschool.org\/","review":"https:\/\/www.privateschoolreview.com\/apple-blossom-school-family-center-profile","virtual":"No"},{"title":"Arts At The Capitol Theater Magnet School (Act)","lat":"41.712485","lon":"-72.215649","type":"Public Magnet School","address":"896 Main Street","grades":["High"],"city":"Willimantic","state":"CT","zip":"6226","phone":"(860) 465-5636","low":"9","high":"12","students":"129","cost":"No","url":"https:\/\/www.eastconn.org\/component\/content\/?id=65&Itemid=204","review":"https:\/\/www.publicschoolreview.com\/arts-at-the-capitol-theater-magnet-school-act-profile","virtual":"Yes"},{"title":"Ashford School","lat":"41.89105","lon":"-72.169657","type":"Traditional Public School","address":"440 Westford Rd.","grades":["Pre-K","Elementary","Middle"],"city":"Ashford","state":"CT","zip":"6278","phone":"(860) 429-6419","low":"PK","high":"8","students":"370","cost":"No","url":"https:\/\/ashfordct.org\/","review":"https:\/\/www.publicschoolreview.com\/ashford-school-profile","virtual":"Yes"},{"title":"Assumption Catholic School","lat":"41.1936","lon":"-73.22706351","type":"Private School","address":"605 Stratfield Rd","grades":["Pre-K","Elementary","Middle"],"city":"Fairfield","state":"CT","zip":"6825","phone":"(203) 334-6271","low":"PK","high":"8","students":"176","cost":"Yes","url":"https:\/\/www.assumptionfairfield.org\/","review":"https:\/\/www.privateschoolreview.com\/assumption-catholic-school-profile\/06825","virtual":"No"},{"title":"Assumption School","lat":"41.34846279","lon":"-73.0792801","type":"Private School","address":"51 N Cliff St","grades":["Pre-K","Elementary","Middle"],"city":"Ansonia","state":"CT","zip":"6401","phone":"(203) 734-0855","low":"PK","high":"8","students":"208","cost":"Yes","url":"https:\/\/assumptionansonia.com\/","review":"https:\/\/www.privateschoolreview.com\/assumption-school-profile\/06401","virtual":"No"},{"title":"Atlas - Academic Theatre Lab On Audubon","lat":"41.311471","lon":"-72.921683","type":"Private School","address":"100 Audubon St.","grades":["Middle","High"],"city":"New Haven","state":"CT","zip":"6510","phone":"(203) 624-5189","low":"7","high":"9","students":"30","cost":"Yes","url":"http:\/\/atlasmiddleschool.org","review":"https:\/\/www.privateschoolreview.com\/atlas-academic-theatre-lab-on-audubon-profile","virtual":"No"},{"title":"Augusta Lewis Troup School","lat":"41.312871","lon":"-72.942471","type":"Traditional Public School","address":"259 Edgewood Ave.","grades":["Pre-K","Elementary","Middle"],"city":"New Haven","state":"CT","zip":"6511","phone":"(475) 220-3000","low":"PK","high":"8","students":"397","cost":"No","url":"https:\/\/www.newhavenmagnetschools.com\/index.php\/troup","review":"https:\/\/www.publicschoolreview.com\/augusta-lewis-troup-school-profile","virtual":"Yes"},{"title":"Avon High School","lat":"41.781797","lon":"-72.864164","type":"Traditional Public School","address":"510 West Avon Rd.","grades":["High"],"city":"Avon","state":"CT","zip":"6001","phone":"(860) 404-4740","low":"9","high":"12","students":"957","cost":"No","url":"https:\/\/www.avon.k12.ct.us\/","review":"https:\/\/www.publicschoolreview.com\/avon-high-school-profile","virtual":"Yes"},{"title":"Avon Middle School","lat":"41.791078","lon":"-72.862934","type":"Traditional Public School","address":"375 West Avon Rd.","grades":["Middle"],"city":"Avon","state":"CT","zip":"6001","phone":"(860) 404-4770","low":"7","high":"8","students":"511","cost":"No","url":"https:\/\/www.avon.k12.ct.us\/ams-home","review":"https:\/\/www.publicschoolreview.com\/avon-middle-school-profile","virtual":"Yes"},{"title":"Avon Old Farms School","lat":"41.78028802","lon":"-72.83763197","type":"Private School","address":"500 Old Farms Rd","grades":["High"],"city":"Avon","state":"CT","zip":"6001","phone":"(860) 404-4100","low":"9","high":"12","students":"415","cost":"Yes","url":"https:\/\/www.avonoldfarms.com\/","review":"https:\/\/www.privateschoolreview.com\/avon-old-farms-school-profile","virtual":"No"},{"title":"B. W. Tinker School","lat":"41.535666","lon":"-73.0516","type":"Traditional Public School","address":"809 Highland Ave.","grades":["Pre-K","Elementary"],"city":"Waterbury","state":"CT","zip":"6708","phone":"(203) 574-8186","low":"PK","high":"5","students":"524","cost":"No","url":"http:\/\/www.waterbury.k12.ct.us\/12\/Home","review":"https:\/\/www.publicschoolreview.com\/b-w-tinker-school-profile","virtual":"Yes"},{"title":"Bacon Academy","lat":"41.574709","lon":"-72.30067","type":"Traditional Public School","address":"611 Norwich Ave.","grades":["High"],"city":"Colchester","state":"CT","zip":"6415","phone":"(860) 537-2378","low":"9","high":"12","students":"733","cost":"No","url":"https:\/\/ba.colchesterct.org\/","review":"https:\/\/www.publicschoolreview.com\/bacon-academy-profile","virtual":"Yes"},{"title":"Bais Yaakov Of Waterbury High School","lat":"41.56286","lon":"-73.041131","type":"Private School","address":"66 Buckingham St","grades":["High"],"city":"Waterbury","state":"CT","zip":"6710","phone":"(203) 805-8401","low":"9","high":"12","students":"50","cost":"Yes","url":"https:\/\/www.bywaterbury.org\/","review":"","virtual":"No"},{"title":"Bakerville Consolidated School","lat":"41.833979","lon":"-73.034753","type":"Traditional Public School","address":"51 Cedar Ln.","grades":["Elementary"],"city":"New Hartford","state":"CT","zip":"6057","phone":"(860) 482-0288","low":"K","high":"2","students":"97","cost":"No","url":"https:\/\/www.newhtfd.org\/site\/default.aspx?domainid=109","review":"https:\/\/www.publicschoolreview.com\/bakerville-consolidated-school-profile","virtual":"Yes"},{"title":"Baptist Bible Academy","lat":"41.40709417","lon":"-72.18310275","type":"Private School","address":"1144 Hartford Tpke","grades":["Elementary","Middle","High"],"city":"Waterford","state":"CT","zip":"6385","phone":"(860) 442-0277","low":"K","high":"12","students":"48","cost":"Yes","url":"https:\/\/www.lakespondbaptistchurch.org\/","review":"","virtual":"No"},{"title":"Barkhamsted Elementary School","lat":"41.911196","lon":"-72.991643","type":"Traditional Public School","address":"65 Ripley Hill Rd.","grades":["Elementary","Middle"],"city":"Barkhamsted","state":"CT","zip":"6063","phone":"(860) 379-2729","low":"K","high":"6","students":"183","cost":"No","url":"https:\/\/barkhamstedschool.org\/","review":"https:\/\/www.publicschoolreview.com\/barkhamsted-elementary-school-profile","virtual":"Yes"},{"title":"Barlow Mountain Elementary School","lat":"41.322676","lon":"-73.510663","type":"Traditional Public School","address":"115 Barlow Mountain Rd.","grades":["Pre-K","Elementary"],"city":"Ridgefield","state":"CT","zip":"6877","phone":"(203) 894-5800","low":"PK","high":"5","students":"326","cost":"No","url":"https:\/\/www.ridgefield.org\/","review":"https:\/\/www.publicschoolreview.com\/barlow-mountain-elementary-school-profile","virtual":"Yes"},{"title":"Barnard Environmental Magnet School","lat":"41.310211","lon":"-72.952459","type":"Public Magnet School","address":"170 Derby Ave.","grades":["Pre-K","Elementary","Middle"],"city":"New Haven","state":"CT","zip":"6511","phone":"(475) 220-3500","low":"PK","high":"8","students":"470","cost":"No","url":"https:\/\/sites.google.com\/nhps.net\/barnard\/home","review":"https:\/\/www.publicschoolreview.com\/barnard-environmental-magnet-school-profile","virtual":"Yes"},{"title":"Barnum School","lat":"41.183043","lon":"-73.173965","type":"Traditional Public School","address":"495 Waterview Avenue","grades":["Pre-K","Elementary","Middle"],"city":"Bridgeport","state":"CT","zip":"6608","phone":"(203) 275-2300","low":"PK","high":"8","students":"597","cost":"No","url":"https:\/\/www.bridgeportedu.net\/Barnum","review":"https:\/\/www.publicschoolreview.com\/barnum-school-profile","virtual":"Yes"},{"title":"Bassick High School","lat":"41.173961","lon":"-73.207328","type":"Traditional Public School","address":"1181 Fairfield Ave.","grades":["High"],"city":"Bridgeport","state":"CT","zip":"6605","phone":"(203) 576-7350","low":"9","high":"12","students":"904","cost":"No","url":"https:\/\/www.bridgeportedu.net\/","review":"https:\/\/www.publicschoolreview.com\/bassick-high-school-profile","virtual":"Yes"},{"title":"Batcheller Early Education Center","lat":"41.912753","lon":"-73.074189","type":"Traditional Public School","address":"201 Pratt St.","grades":["Pre-K","Elementary"],"city":"Winsted","state":"CT","zip":"6098","phone":"(860) 379-5423","low":"PK","high":"2","students":"248","cost":"No","url":"https:\/\/www.winchesterschools.org\/","review":"https:\/\/www.publicschoolreview.com\/batcheller-early-education-center-profile","virtual":"Yes"},{"title":"Bear Path School","lat":"41.390152","lon":"-72.926708","type":"Traditional Public School","address":"10 Kirk Rd.","grades":["Elementary","Middle"],"city":"Hamden","state":"CT","zip":"6514","phone":"(203) 407-2015","low":"K","high":"6","students":"367","cost":"No","url":"https:\/\/www.hamden.org\/page.cfm?p=3246","review":"https:\/\/www.publicschoolreview.com\/bear-path-school-profile","virtual":"Yes"},{"title":"Beardsley School","lat":"41.199801","lon":"-73.182017","type":"Traditional Public School","address":"500 Huntington Rd.","grades":["Pre-K","Elementary","Middle"],"city":"Bridgeport","state":"CT","zip":"6610","phone":"(203) 576-7184","low":"PK","high":"6","students":"292","cost":"No","url":"https:\/\/www.bridgeportedu.net\/Domain\/1226","review":"https:\/\/www.publicschoolreview.com\/beardsley-school-profile","virtual":"Yes"},{"title":"Bedford Middle School","lat":"41.157324","lon":"-73.333876","type":"Traditional Public School","address":"88 North Ave.","grades":["Middle"],"city":"Westport","state":"CT","zip":"6880","phone":"(203) 341-1510","low":"6","high":"8","students":"1207","cost":"No","url":"https:\/\/bms.westportps.org\/","review":"https:\/\/www.publicschoolreview.com\/bedford-middle-school-profile","virtual":"Yes"},{"title":"Beecher Road School","lat":"41.335855","lon":"-73.009567","type":"Traditional Public School","address":"40 Beecher Rd.","grades":["Pre-K","Elementary","Middle"],"city":"Woodbridge","state":"CT","zip":"6525","phone":"(203) 389-2195","low":"PK","high":"6","students":"816","cost":"No","url":"https:\/\/www.woodbridge.k12.ct.us\/","review":"https:\/\/www.publicschoolreview.com\/beecher-road-school-profile","virtual":"Yes"},{"title":"Beecher School","lat":"41.32607","lon":"-72.95374","type":"Traditional Public School","address":"100 Jewel Street","grades":["Pre-K","Elementary","Middle"],"city":"New Haven","state":"CT","zip":"6511","phone":"(475) 220-3800","low":"PK","high":"8","students":"511","cost":"No","url":"","review":"https:\/\/www.publicschoolreview.com\/beecher-school-profile","virtual":"Yes"},{"title":"Belden Hill Montessori","lat":"41.1953739","lon":"-73.4378988","type":"Private School","address":"345 Belden Hill Rd","grades":["Pre-K","Elementary"],"city":"Wilton","state":"CT","zip":"6897","phone":"(203) 762-8500","low":"PK","high":"1","students":"22","cost":"Yes","url":"https:\/\/www.beldenhillmontessori.net\/","review":"","virtual":"No"},{"title":"Ben Bronz Academy","lat":"41.7534","lon":"-72.7558","type":"Private School","address":"139 N Main St Boatner Bldg","grades":["Elementary","Middle","High"],"city":"West Hartford","state":"CT","zip":"6107","phone":"(860) 236-5807","low":"4","high":"12","students":"45","cost":"Yes","url":"https:\/\/www.benbronzacademy.org\/","review":"https:\/\/www.privateschoolreview.com\/ben-bronz-academy-profile","virtual":"No"},{"title":"Benhaven Academy","lat":"41.475624","lon":"-72.820052","type":"Private School","address":"50 N Plains Hwy","grades":["Elementary","Middle","High"],"city":"Wallingford","state":"CT","zip":"6492","phone":"(203) 774-0008","low":"1","high":"12","students":"28","cost":"Yes","url":"https:\/\/www.benhaven.org\/Programs\/Benhaven-Academy\/","review":"","virtual":"No"},{"title":"Benhaven School","lat":"41.47925578","lon":"-72.81989572","type":"Private School","address":"125 N Plains Industrial Rd","grades":[],"city":"Wallingford","state":"CT","zip":"6492","phone":"(203) 793-1905","low":"UG","high":"UG","students":"43","cost":"Yes","url":"https:\/\/www.benhaven.org\/","review":"https:\/\/www.privateschoolreview.com\/benhaven-school-profile","virtual":"No"},{"title":"Benjamin Franklin School","lat":"41.539988","lon":"-72.81772","type":"Traditional Public School","address":"426 West Main St.","grades":["Pre-K","Elementary"],"city":"Meriden","state":"CT","zip":"6450","phone":"(203) 235-7997","low":"PK","high":"5","students":"342","cost":"No","url":"http:\/\/benfranklin.meriden.k12.ct.us\/","review":"https:\/\/www.publicschoolreview.com\/benjamin-franklin-school-profile","virtual":"Yes"},{"title":"Benjamin Jepson Magnet School","lat":"41.2987688","lon":"-72.8874528","type":"Public Magnet School","address":"15 Lexington Ave.","grades":["Pre-K","Elementary","Middle"],"city":"New Haven","state":"CT","zip":"6513","phone":"(475) 220-2900","low":"PK","high":"8","students":"501","cost":"No","url":"","review":"https:\/\/www.publicschoolreview.com\/benjamin-jepson-magnet-school-profile","virtual":"Yes"},{"title":"Bennie Dover Jackson Middle School","lat":"41.358518","lon":"-72.106756","type":"Traditional Public School","address":"36 Waller St.","grades":["Middle"],"city":"New London","state":"CT","zip":"6320","phone":"(860) 437-6480","low":"6","high":"8","students":"337","cost":"No","url":"https:\/\/www.newlondon.org\/","review":"https:\/\/www.publicschoolreview.com\/bennie-dover-jackson-middle-school-profile","virtual":"Yes"},{"title":"Berlin High School","lat":"41.622699","lon":"-72.751647","type":"Traditional Public School","address":"139 Patterson Way","grades":["High"],"city":"Berlin","state":"CT","zip":"6037","phone":"(860) 828-6577","low":"9","high":"12","students":"903","cost":"No","url":"https:\/\/bhs.berlinschools.org\/","review":"https:\/\/www.publicschoolreview.com\/berlin-high-school-profile","virtual":"Yes"},{"title":"Betances Learning Lab Magnet School","lat":"41.7593496","lon":"-72.6730995","type":"Public Magnet School","address":"42 Charter Oak Avenue","grades":["Pre-K","Elementary"],"city":"Hartford","state":"CT","zip":"6106","phone":"(860) 695-2840","low":"PK","high":"4","students":"438","cost":"No","url":"https:\/\/www.hartfordschools.org\/enroll\/school-directory-2\/ramon-e-betances-early-reading-lab\/","review":"https:\/\/www.publicschoolreview.com\/betances-learning-lab-magnet-school-profile","virtual":"Yes"},{"title":"Betances Stem Magnet School","lat":"41.7396381","lon":"-72.6723518","type":"Public Magnet School","address":"400 Wethersfield Avenue","grades":["Elementary","Middle"],"city":"Hartford","state":"CT","zip":"6114","phone":"(860) 695-2970","low":"5","high":"8","students":"229","cost":"No","url":"","review":"https:\/\/www.publicschoolreview.com\/betances-stem-magnet-school-profile","virtual":"Yes"},{"title":"Bethany Community School","lat":"41.421907","lon":"-72.999075","type":"Traditional Public School","address":"44 Peck Road","grades":["Pre-K","Elementary","Middle"],"city":"Bethany","state":"CT","zip":"6524","phone":"(203) 393-3350","low":"PK","high":"6","students":"369","cost":"No","url":"https:\/\/www.bethany-ed.org\/index.cfm","review":"https:\/\/www.publicschoolreview.com\/bethany-community-school-profile","virtual":"Yes"},{"title":"Bethel High School","lat":"41.38038","lon":"-73.394492","type":"Traditional Public School","address":"300 Whittlesey Dr.","grades":["High"],"city":"Bethel","state":"CT","zip":"6801","phone":"(203) 794-8600","low":"9","high":"12","students":"935","cost":"No","url":"https:\/\/bhs.bethel.k12.ct.us\/","review":"https:\/\/www.publicschoolreview.com\/bethel-high-school-profile","virtual":"Yes"},{"title":"Bethel Kindercare","lat":"41.41267","lon":"-73.381058","type":"Private School","address":"174 Old Hawleyville Rd","grades":["Pre-K"],"city":"Bethel","state":"CT","zip":"6801","phone":"(203) 792-6991","low":"NS","high":"PK","students":"138","cost":"Yes","url":"https:\/\/www.kindercare.com\/our-centers\/bethel\/ct\/301381?utm_campaign=kc-lg&utm_source=psr&utm_medium=pro","review":"","virtual":"No"},{"title":"Bethel Middle School","lat":"41.385321","lon":"-73.397632","type":"Traditional Public School","address":"600 Whittlesey Dr.","grades":["Middle"],"city":"Bethel","state":"CT","zip":"6801","phone":"(203) 794-8670","low":"6","high":"8","students":"795","cost":"No","url":"https:\/\/bethelms.ss12.sharpschool.com\/","review":"https:\/\/www.publicschoolreview.com\/bethel-middle-school-profile\/06801","virtual":"Yes"},{"title":"Bethlehem Elementary School","lat":"41.639755","lon":"-73.200165","type":"Traditional Public School","address":"92 East St.","grades":["Pre-K","Elementary"],"city":"Bethlehem","state":"CT","zip":"6751","phone":"(203) 266-7506","low":"PK","high":"5","students":"280","cost":"No","url":"https:\/\/www.ctreg14.org\/","review":"https:\/\/www.publicschoolreview.com\/bethlehem-elementary-school-profile","virtual":"Yes"},{"title":"Betsy Ross Arts Magnet School","lat":"41.288294","lon":"-72.93491","type":"Public Magnet School","address":"150 Kimberly Ave.","grades":["Elementary","Middle"],"city":"New Haven","state":"CT","zip":"6519","phone":"(475) 220-5300","low":"5","high":"8","students":"405","cost":"No","url":"https:\/\/www.rossarts.org\/","review":"https:\/\/www.publicschoolreview.com\/betsy-ross-arts-magnet-school-profile","virtual":"Yes"},{"title":"Bi - Cultural Hebrew Academy","lat":"41.14420474","lon":"-73.54730355","type":"Private School","address":"2186 High Ridge Rd","grades":["Pre-K","Elementary","Middle","High"],"city":"Stamford","state":"CT","zip":"6903","phone":"(203) 329-2186","low":"PK","high":"12","students":"335","cost":"Yes","url":"http:\/\/bcha-ct.online","review":"https:\/\/www.privateschoolreview.com\/bi-cultural-hebrew-academy-profile","virtual":"No"},{"title":"Bielefield School","lat":"41.542869","lon":"-72.632859","type":"Traditional Public School","address":"70 Maynard St.","grades":["Elementary"],"city":"Middletown","state":"CT","zip":"6457","phone":"(860) 347-4124","low":"K","high":"5","students":"255","cost":"No","url":"https:\/\/bielefield.middletownschools.org\/","review":"https:\/\/www.publicschoolreview.com\/bielefield-school-profile","virtual":"Yes"},{"title":"Biotechnology Research & Zoological Studies Magnet High School","lat":"41.225","lon":"-73.1909","type":"Public Magnet School","address":"840 Old Town Road","grades":["High"],"city":"Bridgeport","state":"CT","zip":"6606","phone":"(203) 275-3413","low":"9","high":"12","students":"382","cost":"No","url":"","review":"https:\/\/www.publicschoolreview.com\/biotechnology-research-zoological-studies-magnet-high-school-profile","virtual":"Yes"},{"title":"Birch Grove Primary School","lat":"41.859291","lon":"-72.333981","type":"Traditional Public School","address":"247 Rhodes Rd","grades":["Pre-K","Elementary"],"city":"Tolland","state":"CT","zip":"6084","phone":"(860) 870-6750","low":"PK","high":"2","students":"463","cost":"No","url":"https:\/\/www.bgp.tolland.k12.ct.us\/","review":"https:\/\/www.publicschoolreview.com\/birch-grove-primary-school-profile","virtual":"Yes"},{"title":"Birch Mountain Day School","lat":"41.75038344","lon":"-72.466617","type":"Private School","address":"645 Birch Mountain Rd","grades":["Elementary"],"city":"Manchester","state":"CT","zip":"6040","phone":"(860) 649-2067","low":"K","high":"K","students":"33","cost":"Yes","url":"https:\/\/birchmountaindayschoolct.com\/","review":"https:\/\/www.privateschoolreview.com\/birch-mountain-day-school-profile","virtual":"No"},{"title":"Bishop School Early Learning Center","lat":"41.522613","lon":"-72.062829","type":"Traditional Public School","address":"526 East Main St.","grades":["Pre-K"],"city":"Norwich","state":"CT","zip":"6360","phone":"(860) 823-4201","low":"PK","high":"PK","students":"113","cost":"No","url":"https:\/\/www.norwichpublicschools.org\/searchresults.cfm?keywords=bis&fields=name,keywords","review":"https:\/\/www.publicschoolreview.com\/bishop-school-early-learning-center-profile","virtual":"Yes"},{"title":"Bishop Woods Architecture And Design Magnet School","lat":"41.327077","lon":"-72.870085","type":"Public Magnet School","address":"1481 Quinnipiac Avenue","grades":["Elementary","Middle"],"city":"New Haven","state":"CT","zip":"6513","phone":"(475) 220-7300","low":"K","high":"8","students":"444","cost":"No","url":"https:\/\/www.bishopwoodsschool.com\/","review":"https:\/\/www.publicschoolreview.com\/bishop-woods-architecture-and-design-magnet-school-profile","virtual":"Yes"},{"title":"Black Rock School","lat":"41.156699","lon":"-73.225475","type":"Traditional Public School","address":"545 Brewster St.","grades":["Pre-K","Elementary","Middle"],"city":"Bridgeport","state":"CT","zip":"6605","phone":"(203) 576-7500","low":"PK","high":"8","students":"473","cost":"No","url":"https:\/\/www.bridgeportedu.net\/blackrock","review":"https:\/\/www.publicschoolreview.com\/black-rock-school-profile","virtual":"Yes"},{"title":"Black Rock School","lat":"41.657331","lon":"-73.091288","type":"Traditional Public School","address":"57 Branch Rd.","grades":["Pre-K","Elementary"],"city":"Thomaston","state":"CT","zip":"6787","phone":"(860) 283-3040","low":"PK","high":"3","students":"266","cost":"No","url":"http:\/\/brs.thomaston.schooldesk.net\/","review":"https:\/\/www.publicschoolreview.com\/black-rock-school-profile\/06787","virtual":"Yes"},{"title":"Blackham School","lat":"41.205806","lon":"-73.214396","type":"Traditional Public School","address":"425 Thorme St.","grades":["Pre-K","Elementary","Middle"],"city":"Bridgeport","state":"CT","zip":"6606","phone":"(203) 576-7951","low":"PK","high":"8","students":"1030","cost":"No","url":"https:\/\/ct02210097.schoolwires.net\/blackham","review":"https:\/\/www.publicschoolreview.com\/blackham-school-profile","virtual":"Yes"},{"title":"Blessed Sacrament Catholic Day School","lat":"41.5574","lon":"-73.06360741","type":"Private School","address":"386 Robinwood Rd","grades":["Pre-K","Elementary","Middle"],"city":"Waterbury","state":"CT","zip":"6708","phone":"(203) 756-5313","low":"PK","high":"8","students":"189","cost":"Yes","url":"https:\/\/www.catholicacademywaterbury.org\/","review":"https:\/\/www.privateschoolreview.com\/blessed-sacrament-catholic-day-school-profile","virtual":"No"},{"title":"Bloomfield High School","lat":"41.825782","lon":"-72.726155","type":"Traditional Public School","address":"5 Huckleberry Ln.","grades":["High"],"city":"Bloomfield","state":"CT","zip":"6002","phone":"(860) 286-2630","low":"9","high":"12","students":"506","cost":"No","url":"https:\/\/bhs.bloomfieldschools.org\/","review":"https:\/\/www.publicschoolreview.com\/bloomfield-high-school-profile","virtual":"Yes"},{"title":"Bolton Center School","lat":"41.775394","lon":"-72.442618","type":"Traditional Public School","address":"108 Notch Rd.","grades":["Pre-K","Elementary","Middle"],"city":"Bolton","state":"CT","zip":"6043","phone":"(860) 643-2411","low":"PK","high":"8","students":"485","cost":"No","url":"https:\/\/www.boltonpublicschools.com\/","review":"https:\/\/www.publicschoolreview.com\/bolton-center-school-profile","virtual":"Yes"},{"title":"Bolton High School","lat":"41.760061","lon":"-72.422708","type":"Traditional Public School","address":"72 Brandy St.","grades":["High"],"city":"Bolton","state":"CT","zip":"6043","phone":"(860) 643-2768","low":"9","high":"12","students":"262","cost":"No","url":"https:\/\/boltonhs.ss5.sharpschool.com\/","review":"https:\/\/www.publicschoolreview.com\/bolton-high-school-profile","virtual":"Yes"},{"title":"Booker T. Washington Academy","lat":"41.3126544","lon":"-72.9151423","type":"Public Charter School","address":"804 State Street","grades":["Elementary","Middle"],"city":"New Haven","state":"CT","zip":"6511","phone":"(203) 691-6535","low":"K","high":"7","students":"480","cost":"No","url":"","review":"https:\/\/www.publicschoolreview.com\/booker-t-washington-academy-profile","virtual":"Yes"},{"title":"Booth Free School","lat":"41.554739","lon":"-73.308337","type":"Traditional Public School","address":"14 South St.","grades":["Elementary"],"city":"Roxbury","state":"CT","zip":"6783","phone":"(860) 354-9391","low":"K","high":"5","students":"73","cost":"No","url":"http:\/\/bfs.region-12.org\/","review":"https:\/\/www.publicschoolreview.com\/booth-free-school-profile","virtual":"Yes"},{"title":"Booth Hill School","lat":"41.261227","lon":"-73.171071","type":"Traditional Public School","address":"545 Booth Hill Rd.","grades":["Elementary"],"city":"Trumbull","state":"CT","zip":"6611","phone":"(203) 452-4377","low":"K","high":"5","students":"488","cost":"No","url":"https:\/\/www.trumbullps.org\/oops.html","review":"https:\/\/www.publicschoolreview.com\/booth-hill-school-profile\/06611","virtual":"Yes"},{"title":"Booth Hill School","lat":"41.284267","lon":"-73.183699","type":"Traditional Public School","address":"544 Booth Hill Rd.","grades":["Pre-K","Elementary"],"city":"Shelton","state":"CT","zip":"6484","phone":"(203) 929-5625","low":"PK","high":"4","students":"298","cost":"No","url":"http:\/\/www.sheltonpublicschools.org","review":"https:\/\/www.publicschoolreview.com\/booth-hill-school-profile","virtual":"Yes"},{"title":"Botelle Elementary School","lat":"41.988503","lon":"-73.189108","type":"Traditional Public School","address":"128 Greenwoods Rd. East","grades":["Pre-K","Elementary","Middle"],"city":"Norfolk","state":"CT","zip":"6058","phone":"(860) 542-5286","low":"PK","high":"6","students":"80","cost":"No","url":"https:\/\/www.botelleschool.org\/","review":"https:\/\/www.publicschoolreview.com\/botelle-elementary-school-profile","virtual":"Yes"},{"title":"Boulder Knoll Montessori School","lat":"41.4696232","lon":"-72.87154819","type":"Private School","address":"660 Boulder Rd.","grades":["Pre-K","Elementary"],"city":"Cheshire","state":"CT","zip":"6410","phone":"(203) 272-5893","low":"PK","high":"K","students":"20","cost":"Yes","url":"https:\/\/boulderknollmontessoridotcom.wordpress.com\/","review":"https:\/\/www.privateschoolreview.com\/boulder-knoll-montessori-school-profile","virtual":"No"},{"title":"Bowers School","lat":"41.788552","lon":"-72.511343","type":"Traditional Public School","address":"141 Princeton St.","grades":["Elementary"],"city":"Manchester","state":"CT","zip":"6042","phone":"(860) 647-3313","low":"K","high":"4","students":"333","cost":"No","url":"https:\/\/www.mpspride.org\/bowers","review":"https:\/\/www.publicschoolreview.com\/bowers-school-profile","virtual":"Yes"},{"title":"Bradley School","lat":"41.319423","lon":"-73.065155","type":"Traditional Public School","address":"155 David Humphreys Rd.","grades":["Elementary"],"city":"Derby","state":"CT","zip":"6418","phone":"(203) 736-5040","low":"K","high":"5","students":"231","cost":"No","url":"http:\/\/bradley-derbyps.ss18.sharpschool.com\/","review":"https:\/\/www.publicschoolreview.com\/bradley-school-profile","virtual":"Yes"},{"title":"Braeburn School","lat":"41.762791","lon":"-72.76121","type":"Traditional Public School","address":"45 Braeburn Rd.","grades":["Elementary"],"city":"West Hartford","state":"CT","zip":"6107","phone":"(860) 561-2200","low":"K","high":"5","students":"334","cost":"No","url":"http:\/\/www.whps.org\/page.cfm?p=898","review":"https:\/\/www.publicschoolreview.com\/braeburn-school-profile","virtual":"Yes"},{"title":"Branchville Elementary School","lat":"41.269723","lon":"-73.445238","type":"Traditional Public School","address":"40 Florida Rd.","grades":["Elementary"],"city":"Ridgefield","state":"CT","zip":"6877","phone":"(203) 894-5850","low":"K","high":"5","students":"339","cost":"No","url":"https:\/\/www.ridgefield.org\/","review":"https:\/\/www.publicschoolreview.com\/branchville-elementary-school-profile","virtual":"Yes"},{"title":"Branford High School","lat":"41.289541","lon":"-72.800211","type":"Traditional Public School","address":"185 East Main St.","grades":["High"],"city":"Branford","state":"CT","zip":"6405","phone":"(203) 488-7291","low":"9","high":"12","students":"779","cost":"No","url":"https:\/\/branfordhigh.org\/","review":"https:\/\/www.publicschoolreview.com\/branford-high-school-profile","virtual":"Yes"},{"title":"Brass City Charter School","lat":"41.5533","lon":"-73.0265","type":"Public Charter School","address":"289 Willow St.","grades":["Pre-K","Elementary","Middle"],"city":"Waterbury","state":"CT","zip":"6710","phone":"(203) 527-5942","low":"PK","high":"8","students":"361","cost":"No","url":"http:\/\/www.brasscitycharter.org\/","review":"https:\/\/www.publicschoolreview.com\/brass-city-charter-school-profile","virtual":"Yes"},{"title":"Breakthrough Magnet School South","lat":"41.7449604","lon":"-72.7064833","type":"Public Magnet School","address":"290 Brookfield Street","grades":["Pre-K","Elementary","Middle"],"city":"Hartford","state":"CT","zip":"6106","phone":"(860) 695-5700","low":"PK","high":"8","students":"341","cost":"No","url":"","review":"https:\/\/www.publicschoolreview.com\/breakthrough-magnet-school-south-profile","virtual":"Yes"},{"title":"Brennan Rogers School","lat":"41.344451","lon":"-72.958837","type":"Traditional Public School","address":"200 Wilmot Rd.","grades":["Pre-K","Elementary","Middle"],"city":"New Haven","state":"CT","zip":"6515","phone":"(475) 220-2200","low":"PK","high":"8","students":"356","cost":"No","url":"","review":"https:\/\/www.publicschoolreview.com\/brennan-rogers-school-profile","virtual":"Yes"},{"title":"Bridgeport Hope School","lat":"41.16718356","lon":"-73.18826539","type":"Private School","address":"283 Lafayette Street","grades":["Elementary","Middle"],"city":"Bridgeport","state":"CT","zip":"6604","phone":"(203) 576-6773","low":"K","high":"8","students":"54","cost":"Yes","url":"http:\/\/www.bridgeporthopeschool.org","review":"https:\/\/www.privateschoolreview.com\/bridgeport-hope-school-profile","virtual":"No"},{"title":"Bridgeport International Academy","lat":"41.16720422","lon":"-73.18827572","type":"Private School","address":"285 Lafayette Street","grades":["High"],"city":"Bridgeport","state":"CT","zip":"6604","phone":"(203) 334-3434","low":"9","high":"12","students":"62","cost":"Yes","url":"https:\/\/www.bridgeportacademy.org\/","review":"https:\/\/www.privateschoolreview.com\/bridgeport-international-academy-profile","virtual":"No"},{"title":"Bridgeport Military Academy","lat":"41.225","lon":"-73.1909","type":"Traditional Public School","address":"160 Iranistan Avenue","grades":["High"],"city":"Bridgeport","state":"CT","zip":"6605","phone":"(203) 275-3961","low":"9","high":"12","students":"340","cost":"No","url":"https:\/\/www.bridgeportedu.net\/Page\/12939","review":"https:\/\/www.publicschoolreview.com\/bridgeport-military-academy-profile","virtual":"Yes"},{"title":"Brien Mcmahon High School","lat":"41.086141","lon":"-73.435337","type":"Traditional Public School","address":"300 Highland Avenue","grades":["High"],"city":"Norwalk","state":"CT","zip":"6854","phone":"(203) 852-9488","low":"9","high":"12","students":"1710","cost":"No","url":"https:\/\/bmhs.norwalkps.org\/","review":"https:\/\/www.publicschoolreview.com\/brien-mcmahon-high-school-profile","virtual":"Yes"},{"title":"Bright Horizons Childrens Center","lat":"41.2768491","lon":"-73.1308335","type":"Private School","address":"3 Corporate Dr","grades":["Pre-K","Elementary"],"city":"Shelton","state":"CT","zip":"6484","phone":"(203) 926-1398","low":"PK","high":"K","students":"70","cost":"Yes","url":"https:\/\/child-care-preschool.brighthorizons.com\/CT\/Shelton\/ECT","review":"","virtual":"No"},{"title":"Bright Horizons Family Solutions","lat":"41.985352","lon":"-72.658435","type":"Private School","address":"228 Mountain Rd","grades":["Pre-K","Elementary"],"city":"Suffield","state":"CT","zip":"6078","phone":"(860) 668-5653","low":"PK","high":"K","students":"28","cost":"Yes","url":"https:\/\/child-care-preschool.brighthorizons.com\/CT\/Suffield\/suffield","review":"","virtual":"No"},{"title":"Bristol Central High School","lat":"41.660293","lon":"-72.958916","type":"Traditional Public School","address":"480 Wolcott St.","grades":["High"],"city":"Bristol","state":"CT","zip":"6010","phone":"(860) 584-7735","low":"9","high":"12","students":"1201","cost":"No","url":"https:\/\/bchs.bristol.k12.ct.us\/","review":"https:\/\/www.publicschoolreview.com\/bristol-central-high-school-profile","virtual":"Yes"},{"title":"Bristol Early Childhood Center - Becc","lat":"41.684755","lon":"-72.8995474","type":"Specialized Public School","address":"240 Stafford Avenue","grades":["Pre-K"],"city":"Bristol","state":"CT","zip":"6010","phone":"(860) 584-7072","low":"PK","high":"PK","students":"96","cost":"No","url":"","review":"https:\/\/www.publicschoolreview.com\/bristol-early-childhood-center-becc-profile","virtual":"Yes"},{"title":"Bristol Eastern High School","lat":"41.684451","lon":"-72.924838","type":"Traditional Public School","address":"632 King St.","grades":["High"],"city":"Bristol","state":"CT","zip":"6010","phone":"(860) 584-7876","low":"9","high":"12","students":"1108","cost":"No","url":"https:\/\/behs.bristol.k12.ct.us\/","review":"https:\/\/www.publicschoolreview.com\/bristol-eastern-high-school-profile","virtual":"Yes"},{"title":"Bristow Middle School","lat":"41.769173","lon":"-72.71798","type":"Traditional Public School","address":"34 Highland St.","grades":["Middle"],"city":"Hartford","state":"CT","zip":"6102","phone":"(860) 231-2100","low":"6","high":"8","students":"349","cost":"No","url":"https:\/\/bristow.whps.org\/","review":"https:\/\/www.publicschoolreview.com\/bristow-middle-school-profile","virtual":"Yes"},{"title":"Broad Brook Elementary School","lat":"41.910323","lon":"-72.545911","type":"Traditional Public School","address":"14 Rye St.","grades":["Pre-K","Elementary"],"city":"Broad Brook","state":"CT","zip":"6016","phone":"(860) 623-2433","low":"PK","high":"4","students":"467","cost":"No","url":"https:\/\/www.eastwindsork12.org\/broadbrook\/","review":"https:\/\/www.publicschoolreview.com\/broad-brook-elementary-school-profile","virtual":"Yes"},{"title":"Broadview Middle School","lat":"41.407767","lon":"-73.441429","type":"Traditional Public School","address":"72 Hospital Ave.","grades":["Middle"],"city":"Danbury","state":"CT","zip":"6810","phone":"(203) 797-4861","low":"6","high":"8","students":"1023","cost":"No","url":"https:\/\/sites.google.com\/a\/danbury.k12.ct.us\/broadview-middle-school\/","review":"https:\/\/www.publicschoolreview.com\/broadview-middle-school-profile","virtual":"Yes"},{"title":"Brookfield High School","lat":"41.479443","lon":"-73.390977","type":"Traditional Public School","address":"45 Long Meadow Hill Rd.","grades":["High"],"city":"Brookfield","state":"CT","zip":"6804","phone":"(203) 775-7725","low":"9","high":"12","students":"902","cost":"No","url":"https:\/\/www.brookfield.k12.ct.us\/","review":"https:\/\/www.publicschoolreview.com\/brookfield-high-school-profile","virtual":"Yes"},{"title":"Brooklyn Elementary School","lat":"41.785447","lon":"-71.934621","type":"Traditional Public School","address":"119 Gorman Rd.","grades":["Pre-K","Elementary"],"city":"Brooklyn","state":"CT","zip":"6234","phone":"(860) 774-7577","low":"PK","high":"4","students":"482","cost":"No","url":"https:\/\/www.brooklynschools.org\/","review":"https:\/\/www.publicschoolreview.com\/brooklyn-elementary-school-profile","virtual":"Yes"},{"title":"Brooklyn Middle School","lat":"41.785447","lon":"-71.934621","type":"Traditional Public School","address":"119 Gorman Rd.","grades":["Elementary","Middle"],"city":"Brooklyn","state":"CT","zip":"6234","phone":"(860) 774-9153","low":"5","high":"8","students":"334","cost":"No","url":"https:\/\/ms.brooklynschools.org\/","review":"https:\/\/www.publicschoolreview.com\/brooklyn-middle-school-profile","virtual":"Yes"},{"title":"Brookside Elementary School","lat":"41.090115","lon":"-73.437042","type":"Traditional Public School","address":"382 Highland Avenue","grades":["Pre-K","Elementary"],"city":"Norwalk","state":"CT","zip":"6854","phone":"(203) 899-2830","low":"PK","high":"5","students":"425","cost":"No","url":"https:\/\/bes.norwalkps.org\/","review":"https:\/\/www.publicschoolreview.com\/brookside-elementary-school-profile\/06854","virtual":"Yes"},{"title":"Brownstone Intermediate School","lat":"41.577128","lon":"-72.637469","type":"Traditional Public School","address":"314 Main St.","grades":["Elementary","Middle"],"city":"Portland","state":"CT","zip":"6480","phone":"(860) 342-6765","low":"5","high":"6","students":"195","cost":"No","url":"https:\/\/sites.google.com\/a\/bisportlandct.us\/bis\/","review":"https:\/\/www.publicschoolreview.com\/brownstone-intermediate-school-profile","virtual":"Yes"},{"title":"Brunswick School","lat":"41.0394002","lon":"-73.62584008","type":"Private School","address":"100 Maher Avenue","grades":["Pre-K","Elementary","Middle","High"],"city":"Greenwich","state":"CT","zip":"6830","phone":"(203) 625-5800","low":"PK","high":"12","students":"1021","cost":"Yes","url":"https:\/\/brunswickschool.org\/","review":"https:\/\/www.privateschoolreview.com\/brunswick-school-profile","virtual":"No"},{"title":"Bryant School","lat":"41.173739","lon":"-73.214376","type":"Traditional Public School","address":"230 Poplar St.","grades":["Pre-K","Elementary","Middle"],"city":"Bridgeport","state":"CT","zip":"6605","phone":"(203) 576-7303","low":"PK","high":"6","students":"310","cost":"No","url":"https:\/\/www.bridgeportedu.net\/Domain\/1105","review":"https:\/\/www.publicschoolreview.com\/bryant-school-profile\/06605","virtual":"Yes"},{"title":"Buckley School","lat":"41.792883","lon":"-72.492661","type":"Traditional Public School","address":"250 Vernon St.","grades":["Pre-K","Elementary"],"city":"Manchester","state":"CT","zip":"6042","phone":"(860) 647-3302","low":"PK","high":"4","students":"326","cost":"No","url":"https:\/\/www.mpspride.org\/Domain\/12","review":"https:\/\/www.publicschoolreview.com\/buckley-school-profile","virtual":"Yes"},{"title":"Bucks Hill School","lat":"41.600391","lon":"-73.030415","type":"Traditional Public School","address":"330 Bucks Hill Rd.","grades":["Elementary"],"city":"Waterbury","state":"CT","zip":"6704","phone":"(203) 574-8182","low":"K","high":"5","students":"312","cost":"No","url":"https:\/\/www.waterbury.k12.ct.us:443\/school_home.aspx?schoolID=10","review":"https:\/\/www.publicschoolreview.com\/bucks-hill-school-profile","virtual":"Yes"},{"title":"Bugbee School","lat":"41.779062","lon":"-72.753593","type":"Traditional Public School","address":"1943 Asylum Ave.","grades":["Elementary"],"city":"West Hartford","state":"CT","zip":"6117","phone":"(860) 929-5500","low":"K","high":"5","students":"354","cost":"No","url":"https:\/\/bugbee.whps.org\/","review":"https:\/\/www.publicschoolreview.com\/bugbee-school-profile","virtual":"Yes"},{"title":"Building Blocks Learning Center","lat":"41.48404054","lon":"-72.78515334","type":"Private School","address":"911 N Farms Rd","grades":["Pre-K","Elementary"],"city":"Wallingford","state":"CT","zip":"6492","phone":"(203) 269-2266","low":"PK","high":"K","students":"75","cost":"Yes","url":"https:\/\/blockslearning.com\/","review":"","virtual":"No"},{"title":"Building Blocks Of Windsor","lat":"41.865674","lon":"-72.6857789","type":"Private School","address":"842 Marshall Phelps Road","grades":["Pre-K","Elementary"],"city":"Windsor","state":"CT","zip":"6095","phone":"(860) 683-2229","low":"PK","high":"K","students":"58","cost":"Yes","url":"https:\/\/learningcenterct.com\/building-blocks\/","review":"https:\/\/www.privateschoolreview.com\/building-blocks-of-windsor-profile","virtual":"No"},{"title":"Bulkeley High School","lat":"41.7478495","lon":"-72.6729522","type":"Traditional Public School","address":"395 Lyme Street","grades":["High"],"city":"Hartford","state":"CT","zip":"6112","phone":"(860) 695-1011","low":"9","high":"12","students":"592","cost":"No","url":"","review":"https:\/\/www.publicschoolreview.com\/bulkeley-high-school-profile","virtual":"Yes"},{"title":"Bullard - Havens Technical High School","lat":"41.200969","lon":"-73.165234","type":"Specialized Public School","address":"500 Palisade Ave.","grades":["High"],"city":"Bridgeport","state":"CT","zip":"6610","phone":"(203) 579-6333","low":"9","high":"12","students":"828","cost":"No","url":"https:\/\/bullard-havens.cttech.org\/","review":"https:\/\/www.publicschoolreview.com\/bullard-havens-technical-high-school-profile","virtual":"Yes"},{"title":"Bungay School","lat":"41.387509","lon":"-73.084347","type":"Traditional Public School","address":"35 Bungay Rd.","grades":["Elementary"],"city":"Seymour","state":"CT","zip":"6483","phone":"(203) 881-7500","low":"K","high":"5","students":"418","cost":"No","url":"https:\/\/www.seymourschools.org\/bungay-elementary","review":"https:\/\/www.publicschoolreview.com\/bungay-school-profile","virtual":"Yes"},{"title":"Bunker Hill School","lat":"41.567633","lon":"-73.063142","type":"Traditional Public School","address":"170 Bunker Hill Ave.","grades":["Pre-K","Elementary"],"city":"Waterbury","state":"CT","zip":"6708","phone":"(203) 574-8183","low":"PK","high":"5","students":"450","cost":"No","url":"https:\/\/www.waterbury.k12.ct.us:443\/school_home.aspx?schoolID=11","review":"https:\/\/www.publicschoolreview.com\/bunker-hill-school-profile","virtual":"Yes"},{"title":"Bunnell High School","lat":"41.225887","lon":"-73.136235","type":"Traditional Public School","address":"1 Bulldog Blvd.","grades":["High"],"city":"Stratford","state":"CT","zip":"6614","phone":"(203) 385-4250","low":"9","high":"12","students":"1022","cost":"No","url":"https:\/\/www.stratfordk12.org\/o\/bhs","review":"https:\/\/www.publicschoolreview.com\/bunnell-high-school-profile","virtual":"Yes"},{"title":"Burns Latino Studies Academy","lat":"41.761297","lon":"-72.690449","type":"Traditional Public School","address":"195 Putnam Street","grades":["Elementary"],"city":"Hartford","state":"CT","zip":"6106","phone":"(860) 695-2980","low":"K","high":"5","students":"241","cost":"No","url":"https:\/\/www.hartfordschools.org\/","review":"https:\/\/www.publicschoolreview.com\/burns-latino-studies-academy-profile","virtual":"Yes"},{"title":"Burr District Elementary School","lat":"41.444368","lon":"-72.555627","type":"Traditional Public School","address":"792 Killingworth Road","grades":["Elementary"],"city":"Higganum","state":"CT","zip":"6441","phone":"(860) 345-4584","low":"K","high":"3","students":"295","cost":"No","url":"https:\/\/bes.rsd17.org\/","review":"https:\/\/www.publicschoolreview.com\/burr-district-elementary-school-profile","virtual":"Yes"},{"title":"Burr Elementary School","lat":"41.196778","lon":"-73.288096","type":"Traditional Public School","address":"1960 Burr St.","grades":["Elementary"],"city":"Fairfield","state":"CT","zip":"6824","phone":"(203) 255-7385","low":"K","high":"5","students":"350","cost":"No","url":"https:\/\/fairfieldschools.org\/schools\/burr\/","review":"https:\/\/www.publicschoolreview.com\/burr-elementary-school-profile\/06824","virtual":"Yes"},{"title":"Burr Middle School","lat":"41.744941","lon":"-72.673096","type":"Traditional Public School","address":"400 Wethersfield Avenue","grades":["Middle"],"city":"Hartford","state":"CT","zip":"6114","phone":"(860) 695-3080","low":"6","high":"8","students":"324","cost":"No","url":"https:\/\/www.hartfordschools.org\/","review":"https:\/\/www.publicschoolreview.com\/burr-middle-school-profile","virtual":"Yes"},{"title":"Buttonball Lane School","lat":"41.689677","lon":"-72.598059","type":"Traditional Public School","address":"376 Buttonball Ln.","grades":["Elementary"],"city":"Glastonbury","state":"CT","zip":"6033","phone":"(860) 652-7276","low":"K","high":"5","students":"449","cost":"No","url":"https:\/\/www.glastonburyus.org\/","review":"https:\/\/www.publicschoolreview.com\/buttonball-lane-school-profile","virtual":"Yes"},{"title":"C.B. Jennings International Elementary Magnet","lat":"41.356797","lon":"-72.104418","type":"Public Magnet School","address":"50 Mercer Street","grades":["Pre-K","Elementary"],"city":"New London","state":"CT","zip":"6320","phone":"(860) 447-6050","low":"PK","high":"5","students":"444","cost":"No","url":"https:\/\/www.newlondon.org\/","review":"https:\/\/www.publicschoolreview.com\/c-b-jennings-international-elementary-magnet-profile","virtual":"Yes"},{"title":"Calf Pen Meadow School","lat":"41.213516","lon":"-73.028555","type":"Traditional Public School","address":"395 Welch's Point Rd.","grades":["Elementary"],"city":"Milford","state":"CT","zip":"6460","phone":"(203) 783-3521","low":"K","high":"5","students":"258","cost":"No","url":"https:\/\/milfordct.sites.thrillshare.com\/o\/cpm","review":"https:\/\/www.publicschoolreview.com\/calf-pen-meadow-school-profile","virtual":"Yes"},{"title":"Calvin Hill Daycare Center & Klf Kindergarten","lat":"41.32820217","lon":"-72.91974272","type":"Private School","address":"150 Highland St","grades":["Pre-K","Elementary"],"city":"New Haven","state":"CT","zip":"6511","phone":"(203) 764-9350","low":"PK","high":"K","students":"55","cost":"Yes","url":"https:\/\/calvinhilldaycare.org\/","review":"https:\/\/www.privateschoolreview.com\/calvin-hill-daycare-center-klf-kindergarten-profile","virtual":"No"},{"title":"Calvin Leete School","lat":"41.282222","lon":"-72.668959","type":"Traditional Public School","address":"280 South Union St.","grades":["Elementary"],"city":"Guilford","state":"CT","zip":"6437","phone":"(203) 453-2726","low":"K","high":"4","students":"230","cost":"No","url":"https:\/\/cls.guilfordps.org\/","review":"https:\/\/www.publicschoolreview.com\/calvin-leete-school-profile","virtual":"Yes"},{"title":"Canterbury Elementary School","lat":"41.703768","lon":"-71.988203","type":"Traditional Public School","address":"67 Kitt Rd.","grades":["Pre-K","Elementary"],"city":"Canterbury","state":"CT","zip":"6331","phone":"(860) 546-6744","low":"PK","high":"4","students":"246","cost":"No","url":"https:\/\/www.canterburypublicschools.org\/ces\/","review":"https:\/\/www.publicschoolreview.com\/canterbury-elementary-school-profile","virtual":"Yes"},{"title":"Canterbury School","lat":"41.585649","lon":"-73.412634","type":"Private School","address":"101 Aspetuck","grades":["High"],"city":"New Milford","state":"CT","zip":"6776","phone":"(860) 210-3800","low":"9","high":"12","students":"325","cost":"Yes","url":"https:\/\/www.cbury.org\/","review":"https:\/\/www.privateschoolreview.com\/canterbury-school-profile\/06776","virtual":"No"},{"title":"Canton High School","lat":"41.823712","lon":"-72.916743","type":"Traditional Public School","address":"76 Simonds Avenue","grades":["High"],"city":"Canton","state":"CT","zip":"6019","phone":"(860) 693-7707","low":"9","high":"12","students":"479","cost":"No","url":"http:\/\/www.cantonschools.org\/chs\/","review":"https:\/\/www.publicschoolreview.com\/canton-high-school-profile","virtual":"Yes"},{"title":"Canton Intermediate School","lat":"41.823539","lon":"-72.920191","type":"Traditional Public School","address":"39 Dyer Ave.","grades":["Elementary","Middle"],"city":"Canton","state":"CT","zip":"6019","phone":"(860) 693-7717","low":"4","high":"6","students":"341","cost":"No","url":"http:\/\/www.cantonschools.org\/cis\/","review":"https:\/\/www.publicschoolreview.com\/canton-intermediate-school-profile","virtual":"Yes"},{"title":"Canton Middle School","lat":"41.823712","lon":"-72.916743","type":"Traditional Public School","address":"76 Simonds Avenue","grades":["Middle"],"city":"Canton","state":"CT","zip":"6019","phone":"(860) 693-7712","low":"7","high":"8","students":"243","cost":"No","url":"http:\/\/www.cantonschools.org\/cms\/","review":"https:\/\/www.publicschoolreview.com\/canton-middle-school-profile\/06019","virtual":"Yes"},{"title":"Capital Preparatory Harbor School","lat":"41.175263","lon":"-73.1885227","type":"Public Charter School","address":"777 Main Street","grades":["Elementary","Middle","High"],"city":"Bridgeport","state":"CT","zip":"6604","phone":"(475) 422-5900","low":"K","high":"12","students":"785","cost":"No","url":"","review":"https:\/\/www.publicschoolreview.com\/capital-preparatory-harbor-school-profile","virtual":"Yes"},{"title":"Capital Preparatory Magnet School","lat":"41.768424","lon":"-72.672926","type":"Public Magnet School","address":"1304 Main Street","grades":["Pre-K","Elementary","Middle","High"],"city":"Hartford","state":"CT","zip":"6103","phone":"(860) 695-9800","low":"PK","high":"12","students":"660","cost":"No","url":"https:\/\/capitalprep.org\/","review":"https:\/\/www.publicschoolreview.com\/capital-preparatory-magnet-school-profile","virtual":"Yes"},{"title":"Capt. Nathan Hale School","lat":"41.780646","lon":"-72.313236","type":"Traditional Public School","address":"1776 Main Street","grades":["Middle"],"city":"Coventry","state":"CT","zip":"6238","phone":"(860) 742-7334","low":"6","high":"8","students":"387","cost":"No","url":"https:\/\/www.coventrypublicschools.org\/schools\/cnh","review":"https:\/\/www.publicschoolreview.com\/capt-nathan-hale-school-profile","virtual":"Yes"},{"title":"Carbone School\/East Haven Academy","lat":"41.275355","lon":"-72.87612","type":"Traditional Public School","address":"200 Tyler St.","grades":["Elementary","Middle"],"city":"East Haven","state":"CT","zip":"6512","phone":"(203) 468-3219","low":"1","high":"8","students":"303","cost":"No","url":"https:\/\/www.east-haven.k12.ct.us\/","review":"https:\/\/www.publicschoolreview.com\/carbone-school-east-haven-academy-profile","virtual":"Yes"},{"title":"Carmel Academy","lat":"41.03881139","lon":"-73.63444795","type":"Private School","address":"270 Lake Ave","grades":["Pre-K","Elementary","Middle"],"city":"Greenwich","state":"CT","zip":"6830","phone":"(203) 863-9663","low":"NS","high":"8","students":"217","cost":"Yes","url":"https:\/\/www.carmelacademy.com\/page","review":"https:\/\/www.privateschoolreview.com\/carmel-academy-profile","virtual":"No"},{"title":"Carmen Arace Intermediate School","lat":"41.822338","lon":"-72.715768","type":"Traditional Public School","address":"390 Park Avenue","grades":["Elementary","Middle"],"city":"Bloomfield","state":"CT","zip":"6002","phone":"(860) 286-2626","low":"5","high":"6","students":"234","cost":"No","url":"https:\/\/cais.bloomfieldschools.org\/","review":"https:\/\/www.publicschoolreview.com\/carmen-arace-intermediate-school-profile","virtual":"Yes"},{"title":"Carmen Arace Middle School","lat":"41.822338","lon":"-72.715768","type":"Traditional Public School","address":"390 Park Avenue","grades":["Middle"],"city":"Bloomfield","state":"CT","zip":"6002","phone":"(860) 286-2622","low":"7","high":"8","students":"270","cost":"No","url":"https:\/\/cams.bloomfieldschools.org\/","review":"https:\/\/www.publicschoolreview.com\/carmen-arace-middle-school-profile","virtual":"Yes"},{"title":"Carrigan 5\/6 Intermediate School","lat":"41.291105","lon":"-72.971254","type":"Traditional Public School","address":"2 Tetlow St.","grades":["Elementary","Middle"],"city":"West Haven","state":"CT","zip":"6516","phone":"(203) 937-4390","low":"5","high":"6","students":"823","cost":"No","url":"https:\/\/carrigan.whschools.org\/","review":"https:\/\/www.publicschoolreview.com\/carrigan-5-6-intermediate-school-profile","virtual":"Yes"},{"title":"Carrington School","lat":"41.571523","lon":"-73.083251","type":"Traditional Public School","address":"24 Kenmore Ave.","grades":["Pre-K","Elementary","Middle"],"city":"Waterbury","state":"CT","zip":"6708","phone":"(203) 574-8184","low":"PK","high":"8","students":"469","cost":"No","url":"https:\/\/www.waterbury.k12.ct.us:443\/school_home.aspx?schoolID=13","review":"https:\/\/www.publicschoolreview.com\/carrington-school-profile","virtual":"Yes"},{"title":"Carver Academy","lat":"41.49755","lon":"-72.751731","type":"Private School","address":"350 High Hill Rd","grades":["Pre-K","Elementary"],"city":"Wallingford","state":"CT","zip":"6492","phone":"(203) 626-9794","low":"","high":"","students":"83","cost":"Yes","url":"\r\n\r","review":"","virtual":"No"},{"title":"Casimir Pulaski School","lat":"41.523359","lon":"-72.804523","type":"Traditional Public School","address":"100 Clearview Ave.","grades":["Elementary"],"city":"Meriden","state":"CT","zip":"6450","phone":"(203) 238-1273","low":"K","high":"5","students":"600","cost":"No","url":"http:\/\/pulaski.meriden.k12.ct.us\/","review":"https:\/\/www.publicschoolreview.com\/casimir-pulaski-school-profile","virtual":"Yes"},{"title":"Catherine Kolnaski Magnet School","lat":"41.343123","lon":"-72.062205","type":"Public Magnet School","address":"500 Poquonnock Rd.","grades":["Pre-K","Elementary"],"city":"Groton","state":"CT","zip":"6340","phone":"(860) 449-5608","low":"PK","high":"5","students":"380","cost":"No","url":"","review":"https:\/\/www.publicschoolreview.com\/catherine-kolnaski-magnet-school-profile","virtual":"Yes"},{"title":"Catherine M. Mcgee Middle School","lat":"41.615037","lon":"-72.762137","type":"Traditional Public School","address":"899 Norton Rd.","grades":["Middle"],"city":"Berlin","state":"CT","zip":"6037","phone":"(860) 828-0323","low":"6","high":"8","students":"632","cost":"No","url":"http:\/\/mcgee.berlinschools.org\/","review":"https:\/\/www.publicschoolreview.com\/catherine-m-mcgee-middle-school-profile","virtual":"Yes"},{"title":"Catholic Academy Of Bridgeport - St. Augustine Academy","lat":"41.18029574","lon":"-73.1961844","type":"Private School","address":"63 Pequonnock St","grades":["Elementary","Middle"],"city":"Bridgeport","state":"CT","zip":"6604","phone":"(203) 366-6500","low":"4","high":"8","students":"235","cost":"Yes","url":"https:\/\/staugustine.catholicacademybridgeport.org\/","review":"https:\/\/www.privateschoolreview.com\/catholic-academy-of-bridgeport-st-augustine-academy-profile","virtual":"No"},{"title":"Catholic Academy Of Bridgeport - St. Raphael Academy","lat":"41.18622591","lon":"-73.19967888","type":"Private School","address":"324 Frank St","grades":["Pre-K","Elementary"],"city":"Bridgeport","state":"CT","zip":"6604","phone":"(203) 333-6818","low":"PK","high":"3","students":"210","cost":"Yes","url":"https:\/\/straphael.catholicacademybridgeport.org\/","review":"https:\/\/www.privateschoolreview.com\/catholic-academy-of-bridgeport-st-raphael-academy-profile","virtual":"No"},{"title":"Cedarhurst School","lat":"41.33547575","lon":"-72.91932491","type":"Private School","address":"871 Prospect St","grades":["Middle","High"],"city":"Hamden","state":"CT","zip":"6517","phone":"(203) 764-9314","low":"7","high":"12","students":"59","cost":"Yes","url":"https:\/\/medicine.yale.edu\/psychiatry\/cedarhurst\/","review":"https:\/\/www.privateschoolreview.com\/cedarhurst-school-profile","virtual":"No"},{"title":"Celc Middle School","lat":"41.272478","lon":"-72.750933","type":"Private School","address":"28 School Street","grades":["Elementary","Middle"],"city":"Branford","state":"CT","zip":"6405","phone":"(203) 433-4658","low":"4","high":"8","students":"25","cost":"Yes","url":"https:\/\/ctexperiential.org\/","review":"https:\/\/www.privateschoolreview.com\/celc-middle-school-profile","virtual":"No"},{"title":"Celentano Biotech Health And Medical Magnet School","lat":"41.3247377","lon":"-72.9222786","type":"Public Magnet School","address":"400 Canner Street","grades":["Pre-K","Elementary","Middle"],"city":"New Haven","state":"CT","zip":"6511","phone":"(475) 220-3400","low":"PK","high":"8","students":"359","cost":"No","url":"","review":"https:\/\/www.publicschoolreview.com\/celentano-biotech-health-and-medical-magnet-school-profile","virtual":"Yes"},{"title":"Center Elementary School","lat":"41.46691","lon":"-73.385653","type":"Traditional Public School","address":"8 Obtuse Hill Road","grades":["Pre-K","Elementary"],"city":"Brookfield","state":"CT","zip":"6804","phone":"(203) 775-7650","low":"PK","high":"1","students":"346","cost":"No","url":"https:\/\/www.brookfield.k12.ct.us\/","review":"https:\/\/www.publicschoolreview.com\/center-elementary-school-profile\/06804","virtual":"Yes"},{"title":"Center For Global Studies","lat":"41.085192","lon":"-73.433016","type":"Traditional Public School","address":"300 Highland Avenue","grades":["High"],"city":"Norwalk","state":"CT","zip":"6854","phone":"(203) 852-9488","low":"9","high":"12","students":"276","cost":"No","url":"","review":"https:\/\/www.publicschoolreview.com\/center-for-global-studies-profile","virtual":"Yes"},{"title":"Center For Specialized Learning Services","lat":"41.0397872","lon":"-73.5957789","type":"Private School","address":"399 East Putnam Ave, 2nd Floor","grades":["Pre-K","Elementary","Middle","High"],"city":"Cos Cob","state":"CT","zip":"6807","phone":"(203) 340-2914","low":"NS","high":"12","students":"See website","cost":"Yes","url":"","review":"https:\/\/www.privateschoolreview.com\/center-for-specialized-learning-services-profile","virtual":"No"},{"title":"Center Road School","lat":"41.838948","lon":"-72.466816","type":"Traditional Public School","address":"20 Center Rd.","grades":["Pre-K","Elementary"],"city":"Vernon Rockville","state":"CT","zip":"6066","phone":"(860) 870-6300","low":"PK","high":"5","students":"436","cost":"No","url":"https:\/\/www.vernonpublicschools.org\/center-road-school-home","review":"https:\/\/www.publicschoolreview.com\/center-road-school-profile","virtual":"Yes"},{"title":"Center School","lat":"41.568498","lon":"-72.487792","type":"Traditional Public School","address":"7 Summit St.","grades":["Elementary"],"city":"East Hampton","state":"CT","zip":"6424","phone":"(860) 365-4050","low":"4","high":"5","students":"301","cost":"No","url":"https:\/\/www.easthamptonps.org\/o\/center-school","review":"https:\/\/www.publicschoolreview.com\/center-school-profile","virtual":"Yes"},{"title":"Center School","lat":"41.873133","lon":"-72.262447","type":"Traditional Public School","address":"12 Old Farms Rd.","grades":["Pre-K","Elementary"],"city":"Willington","state":"CT","zip":"6279","phone":"(860) 429-9367","low":"PK","high":"4","students":"202","cost":"No","url":"https:\/\/ces.willingtonpublicschools.org\/","review":"https:\/\/www.publicschoolreview.com\/center-school-profile\/06279","virtual":"Yes"},{"title":"Center School","lat":"41.31869","lon":"-72.3274041","type":"Specialized Public School","address":"49 Lyme St.","grades":["Pre-K"],"city":"Old Lyme","state":"CT","zip":"6371","phone":"(860) 434-7238","low":"PK","high":"PK","students":"95","cost":"No","url":"https:\/\/www.region18.org\/page.cfm?p=269","review":"https:\/\/www.publicschoolreview.com\/center-school-profile\/06371","virtual":"Yes"},{"title":"Center School","lat":"41.746619","lon":"-73.194885","type":"Traditional Public School","address":"125 West St.","grades":["Pre-K","Elementary"],"city":"Litchfield","state":"CT","zip":"6759","phone":"(860) 567-7510","low":"PK","high":"3","students":"254","cost":"No","url":"https:\/\/www.lisd.net\/timbercreek","review":"https:\/\/www.publicschoolreview.com\/center-school-profile\/06759","virtual":"Yes"},{"title":"Center School","lat":"41.90339","lon":"-72.466632","type":"Traditional Public School","address":"49 Main St.","grades":["Elementary","Middle"],"city":"Ellington","state":"CT","zip":"6029","phone":"(860) 896-2315","low":"K","high":"6","students":"449","cost":"No","url":"https:\/\/www.ellingtonpublicschools.org\/","review":"https:\/\/www.publicschoolreview.com\/center-school-profile\/06029","virtual":"Yes"},{"title":"Central Christian Academy","lat":"41.63284697","lon":"-72.9","type":"Private School","address":"1505 West St","grades":["Elementary","Middle","High"],"city":"Southington","state":"CT","zip":"6489","phone":"(860) 621-6701","low":"K","high":"12","students":"125","cost":"Yes","url":"https:\/\/centralchristianonline.org\/","review":"https:\/\/www.privateschoolreview.com\/central-christian-academy-profile\/06489","virtual":"No"},{"title":"Central High School","lat":"41.18927","lon":"-73.207216","type":"Traditional Public School","address":"1 Lincoln Blvd.","grades":["High"],"city":"Bridgeport","state":"CT","zip":"6606","phone":"(203) 576-7377","low":"9","high":"12","students":"1545","cost":"No","url":"https:\/\/sites.google.com\/a\/bridgeportps.net\/central\/","review":"https:\/\/www.publicschoolreview.com\/central-high-school-profile\/06606","virtual":"Yes"},{"title":"Central Middle School","lat":"41.035266","lon":"-73.605576","type":"Traditional Public School","address":"9 Indian Rock Ln.","grades":["Middle"],"city":"Greenwich","state":"CT","zip":"6830","phone":"(203) 661-8500","low":"6","high":"8","students":"577","cost":"No","url":"https:\/\/www.greenwichschools.org\/page.cfm?p=17","review":"https:\/\/www.publicschoolreview.com\/central-middle-school-profile\/06830","virtual":"Yes"},{"title":"Central School","lat":"41.881628","lon":"-72.80361","type":"Traditional Public School","address":"29 Massaco St.","grades":["Elementary","Middle"],"city":"Simsbury","state":"CT","zip":"6070","phone":"(860) 658-4732","low":"K","high":"6","students":"374","cost":"No","url":"https:\/\/www.simsbury.k12.ct.us\/schools\/central-school","review":"https:\/\/www.publicschoolreview.com\/central-school-profile\/06070","virtual":"Yes"},{"title":"Cesar Batalla School","lat":"41.170647","lon":"-73.208771","type":"Traditional Public School","address":"606 Howard Ave.","grades":["Pre-K","Elementary","Middle"],"city":"Bridgeport","state":"CT","zip":"6605","phone":"(203) 579-8501","low":"PK","high":"8","students":"1052","cost":"No","url":"https:\/\/www.bridgeportedu.net\/Batalla","review":"https:\/\/www.publicschoolreview.com\/cesar-batalla-school-profile","virtual":"Yes"},{"title":"Chamberlain Elementary School","lat":"41.671567","lon":"-72.759664","type":"Traditional Public School","address":"120 Newington Ave.","grades":["Elementary"],"city":"New Britain","state":"CT","zip":"6051","phone":"(860) 832-5691","low":"K","high":"5","students":"412","cost":"No","url":"https:\/\/www.sites.google.com\/a\/csdnbstaff.org\/csdnb\/schools\/chamberlain-staff-directory","review":"https:\/\/www.publicschoolreview.com\/chamberlain-elementary-school-profile\/06051","virtual":"Yes"},{"title":"Chapel Haven Schleifer Center","lat":"41.328228","lon":"-72.964386","type":"Private School","address":"1040 Whalley Avenue","grades":["High"],"city":"New Haven","state":"CT","zip":"6515","phone":"(203) 397-1714","low":"12","high":"12","students":"205","cost":"Yes","url":"https:\/\/www.chapelhaven.org\/","review":"https:\/\/www.privateschoolreview.com\/chapel-haven-schleifer-center-profile","virtual":"No"},{"title":"Chapel School","lat":"41.238261","lon":"-73.117928","type":"Traditional Public School","address":"380 Chapel St.","grades":["Elementary","Middle"],"city":"Stratford","state":"CT","zip":"6614","phone":"(203) 385-4192","low":"K","high":"6","students":"278","cost":"No","url":"https:\/\/www.stratfordk12.org\/o\/cses","review":"https:\/\/www.publicschoolreview.com\/chapel-school-profile","virtual":"Yes"},{"title":"Chaplin Elementary School","lat":"41.788487","lon":"-72.146892","type":"Traditional Public School","address":"240 Palmer Rd.","grades":["Pre-K","Elementary","Middle"],"city":"Chaplin","state":"CT","zip":"6235","phone":"(860) 455-9593","low":"PK","high":"6","students":"130","cost":"No","url":"https:\/\/chaplinschool.org\/","review":"https:\/\/www.publicschoolreview.com\/chaplin-elementary-school-profile","virtual":"Yes"},{"title":"Chapman School","lat":"41.519742","lon":"-72.895666","type":"Traditional Public School","address":"38 Country Club Rd.","grades":["Elementary","Middle"],"city":"Cheshire","state":"CT","zip":"6410","phone":"(203) 272-3591","low":"K","high":"6","students":"320","cost":"No","url":"https:\/\/www.cheshire.k12.ct.us\/schools\/chapman-school\/","review":"https:\/\/www.publicschoolreview.com\/chapman-school-profile\/06410","virtual":"Yes"},{"title":"Chapter 126 Classroom","lat":"41.668655","lon":"-72.947197","type":"Private School","address":"47 Upson St","grades":["Elementary","Middle","High"],"city":"Bristol","state":"CT","zip":"6010","phone":"(860) 769-7054","low":"K","high":"12","students":"90","cost":"Yes","url":"https:\/\/oakhillschool.oakhillct.org\/chapter-126-bristol\/","review":"","virtual":"No"},{"title":"Charles Barnum School","lat":"41.384688","lon":"-72.068693","type":"Traditional Public School","address":"68 Briar Hill Rd.","grades":["Elementary"],"city":"Groton","state":"CT","zip":"6340","phone":"(860) 449-5640","low":"K","high":"5","students":"351","cost":"No","url":"https:\/\/www.groton.k12.ct.us\/Domain\/628","review":"https:\/\/www.publicschoolreview.com\/charles-barnum-school-profile","virtual":"Yes"},{"title":"Charles F Hayden School - Boys & Girls Village","lat":"41.24834665","lon":"-73.07566933","type":"Private School","address":"528 Wheelers Farms Rd","grades":["Elementary","Middle","High"],"city":"Milford","state":"CT","zip":"6461","phone":"(203) 877-0300","low":"K","high":"12","students":"62","cost":"Yes","url":"https:\/\/www.bgvillage.org\/programs\/education-and-vocational\/","review":"https:\/\/www.privateschoolreview.com\/charles-f-hayden-school-boys-girls-village-profile","virtual":"No"},{"title":"Charles H. Barrows Stem Academy","lat":"41.7197323","lon":"-72.1734446","type":"Public Magnet School","address":"141 Tuckie Road","grades":["Elementary","Middle"],"city":"North Windham","state":"CT","zip":"6256","phone":"(860) 465-2610","low":"K","high":"8","students":"543","cost":"No","url":"","review":"https:\/\/www.publicschoolreview.com\/charles-h-barrows-stem-academy-profile","virtual":"Yes"},{"title":"Charles Wright School","lat":"41.716238","lon":"-72.668142","type":"Traditional Public School","address":"186 Nott St.","grades":["Pre-K","Elementary","Middle"],"city":"Wethersfield","state":"CT","zip":"6109","phone":"(860) 571-8350","low":"PK","high":"6","students":"282","cost":"No","url":"https:\/\/cwpto.wordpress.com\/?fbclid=IwAR0GJvEkAC46dXOjFK6hssRgmsnvl_hvIdDc7lUAo6MqaAx2zsi8ivnMRIw","review":"https:\/\/www.publicschoolreview.com\/charles-wright-school-profile","virtual":"Yes"},{"title":"Charter Oak International Academy","lat":"41.743209","lon":"-72.720625","type":"Public Charter School","address":"425 Oakwood Ave.","grades":["Pre-K","Elementary"],"city":"West Hartford","state":"CT","zip":"6110","phone":"(860) 233-8506","low":"PK","high":"5","students":"516","cost":"No","url":"https:\/\/charteroak.whps.org\/","review":"https:\/\/www.publicschoolreview.com\/charter-oak-international-academy-profile","virtual":"Yes"},{"title":"Chase Collegiate School","lat":"41.5478153","lon":"-73.06747687","type":"Private School","address":"565 Chase Parkway","grades":["Pre-K","Elementary","Middle","High"],"city":"Waterbury","state":"CT","zip":"6708","phone":"(203) 236-9560","low":"PK","high":"12","students":"185","cost":"Yes","url":"https:\/\/www.chasecollegiate.org\/index.cfm","review":"https:\/\/www.privateschoolreview.com\/chase-collegiate-school-profile","virtual":"No"},{"title":"Chatfield - Lopresti School","lat":"41.402094","lon":"-73.055464","type":"Traditional Public School","address":"51 Skokorat St.","grades":["Pre-K","Elementary"],"city":"Seymour","state":"CT","zip":"6483","phone":"(203) 888-4640","low":"PK","high":"5","students":"503","cost":"No","url":"https:\/\/www.seymourschools.org\/chatfield-lopresti-elementary","review":"https:\/\/www.publicschoolreview.com\/chatfield-lopresti-school-profile","virtual":"Yes"},{"title":"Cherry Brook Primary School","lat":"41.858746","lon":"-72.91342","type":"Traditional Public School","address":"4 Barbourtown Rd.","grades":["Pre-K","Elementary"],"city":"Canton","state":"CT","zip":"6019","phone":"(860) 693-7721","low":"PK","high":"3","students":"435","cost":"No","url":"http:\/\/www.cantonschools.org\/cbps\/","review":"https:\/\/www.publicschoolreview.com\/cherry-brook-primary-school-profile","virtual":"Yes"},{"title":"Cheshire Academy","lat":"41.49897174","lon":"-72.90117847","type":"Private School","address":"10 Main St","grades":["High"],"city":"Cheshire","state":"CT","zip":"6410","phone":"(203) 439-7250","low":"9","high":"12","students":"344","cost":"Yes","url":"https:\/\/cheshireacademy.org\/","review":"https:\/\/www.privateschoolreview.com\/cheshire-academy-profile","virtual":"No"},{"title":"Cheshire High School","lat":"41.489616","lon":"-72.904685","type":"Traditional Public School","address":"525 South Main St.","grades":["High"],"city":"Cheshire","state":"CT","zip":"6410","phone":"(203) 250-2511","low":"9","high":"12","students":"1367","cost":"No","url":"https:\/\/sites.google.com\/a\/cheshire.k12.ct.us\/chs\/","review":"https:\/\/www.publicschoolreview.com\/cheshire-high-school-profile","virtual":"Yes"},{"title":"Cheshire Kindercare","lat":"41.548107","lon":"-72.958008","type":"Private School","address":"1544 Byam Rd","grades":["Pre-K"],"city":"Cheshire","state":"CT","zip":"6410","phone":"(203) 574-2892","low":"NS","high":"PK","students":"See website","cost":"Yes","url":"https:\/\/www.kindercare.com\/our-centers\/cheshire\/ct\/070220?utm_campaign=kc-lg&utm_source=psr&utm_medium=pro","review":"","virtual":"No"},{"title":"Chester Elementary School","lat":"41.404939","lon":"-72.457788","type":"Traditional Public School","address":"23 Ridge Rd.","grades":["Elementary","Middle"],"city":"Chester","state":"CT","zip":"6412","phone":"(860) 526-5797","low":"K","high":"6","students":"200","cost":"No","url":"https:\/\/chesterelementary.ss3.sharpschool.com\/","review":"https:\/\/www.publicschoolreview.com\/chester-elementary-school-profile\/06412","virtual":"Yes"},{"title":"Child Dev Center At Bristol - Myers Squibb","lat":"41.4842607","lon":"-72.7636606","type":"Private School","address":"7 Research Parkway","grades":["Pre-K"],"city":"Wallingford","state":"CT","zip":"6492","phone":"(203) 677-7027","low":"NS","high":"PK","students":"53","cost":"Yes","url":"https:\/\/www.brighthorizons.com\/child-care-locator?zip=06492&radius=20","review":"https:\/\/www.privateschoolreview.com\/child-dev-center-at-bristol-myers-squibb-profile","virtual":"No"},{"title":"Children's Community Programs Of Ct","lat":"41.3238","lon":"-72.9517","type":"Private School","address":"446a Blake St Ste 100","grades":["Middle","High"],"city":"New Haven","state":"CT","zip":"6515","phone":"(203) 468-5316","low":"6","high":"12","students":"44","cost":"Yes","url":"https:\/\/www.ccp-ct.org\/","review":"https:\/\/www.privateschoolreview.com\/children-s-community-programs-of-ct-profile","virtual":"No"},{"title":"Children's Community School","lat":"41.5536569","lon":"-73.0265754","type":"Private School","address":"31 Wolcott Street","grades":["Pre-K","Elementary","Middle"],"city":"Waterbury","state":"CT","zip":"6702","phone":"(203) 575-0659","low":"PK","high":"8","students":"180","cost":"Yes","url":"https:\/\/ccswaterbury.org\/","review":"","virtual":"No"},{"title":"Children's House Of Montessori","lat":"41.341","lon":"-72.9776","type":"Private School","address":"1666 Litchfield Tpke","grades":["Pre-K","Elementary"],"city":"Woodbridge","state":"CT","zip":"6525","phone":"(203) 397-8178","low":"PK","high":"K","students":"49","cost":"Yes","url":"https:\/\/www.thechildrenshouseofmontessori.com\/","review":"","virtual":"No"},{"title":"Chippens Hill Middle School","lat":"41.700363","lon":"-72.967228","type":"Traditional Public School","address":"551 Peacedale St.","grades":["Middle"],"city":"Bristol","state":"CT","zip":"6010","phone":"(860) 584-3881","low":"6","high":"8","students":"694","cost":"No","url":"https:\/\/chms.bristol.k12.ct.us\/","review":"https:\/\/www.publicschoolreview.com\/chippens-hill-middle-school-profile","virtual":"Yes"},{"title":"Choate Rosemary Hall","lat":"41.45748098","lon":"-72.80977539","type":"Private School","address":"333 Christian Street","grades":["High"],"city":"Wallingford","state":"CT","zip":"6492","phone":"(203) 697-2339","low":"9","high":"12","students":"865","cost":"Yes","url":"https:\/\/www.choate.edu\/","review":"https:\/\/www.privateschoolreview.com\/choate-rosemary-hall-profile","virtual":"No"},{"title":"Christ Lutheran School","lat":"41.6578767","lon":"-72.3659161","type":"Private School","address":"330 Church St","grades":["Pre-K","Elementary"],"city":"Amston","state":"CT","zip":"6231","phone":"(860) 228-5134","low":"PK","high":"1","students":"79","cost":"Yes","url":"https:\/\/www.clecchebron.org\/","review":"https:\/\/www.privateschoolreview.com\/christ-lutheran-school-profile\/06231","virtual":"No"},{"title":"Christian Heritage School","lat":"41.2381","lon":"-73.18423952","type":"Private School","address":"575 White Plains Rd","grades":["Elementary","Middle","High"],"city":"Trumbull","state":"CT","zip":"6611","phone":"(203) 261-6230","low":"K","high":"12","students":"450","cost":"Yes","url":"https:\/\/www.kingsmen.org\/","review":"https:\/\/www.privateschoolreview.com\/christian-heritage-school-profile","virtual":"No"},{"title":"Christian Life Academy","lat":"41.45523018","lon":"-73.40080235","type":"Private School","address":"133 Junction Rd","grades":["Pre-K","Elementary","Middle"],"city":"Brookfield","state":"CT","zip":"6804","phone":"(203) 775-5191","low":"PK","high":"8","students":"146","cost":"Yes","url":"https:\/\/brookfieldcla.org\/","review":"https:\/\/www.privateschoolreview.com\/christian-life-academy-profile","virtual":"No"},{"title":"Church Street School","lat":"41.354051","lon":"-72.933933","type":"Traditional Public School","address":"95 Church St.","grades":["Pre-K","Elementary","Middle"],"city":"Hamden","state":"CT","zip":"6514","phone":"(203) 407-2020","low":"PK","high":"6","students":"259","cost":"No","url":"https:\/\/www.hamden.org\/churchstreetschool","review":"https:\/\/www.publicschoolreview.com\/church-street-school-profile","virtual":"Yes"},{"title":"Cider Mill School","lat":"41.205238","lon":"-73.431764","type":"Traditional Public School","address":"240 School Rd.","grades":["Elementary"],"city":"Wilton","state":"CT","zip":"6897","phone":"(203) 762-3351","low":"3","high":"5","students":"774","cost":"No","url":"https:\/\/www.wiltonps.org\/cider-mill","review":"https:\/\/www.publicschoolreview.com\/cider-mill-school-profile","virtual":"Yes"},{"title":"City Hill Middle School","lat":"41.493703","lon":"-73.034253","type":"Traditional Public School","address":"441 City Hill St.","grades":["Middle"],"city":"Naugatuck","state":"CT","zip":"6770","phone":"(203) 720-5246","low":"7","high":"8","students":"698","cost":"No","url":"http:\/\/www.cityhill.naugatuck.k12.ct.us\/","review":"https:\/\/www.publicschoolreview.com\/city-hill-middle-school-profile","virtual":"Yes"},{"title":"Civic Leadership High School","lat":"42.022075","lon":"-72.562554","type":"Traditional Public School","address":"1617 King Street","grades":["High"],"city":"Enfield","state":"CT","zip":"6082","phone":"(860) 253-0274","low":"9","high":"12","students":"410","cost":"No","url":"https:\/\/psa.crecschools.org\/","review":"https:\/\/www.publicschoolreview.com\/civic-leadership-high-school-profile","virtual":"Yes"},{"title":"Clark Lane Middle School","lat":"41.351281","lon":"-72.127983","type":"Traditional Public School","address":"105 Clark Ln.","grades":["Middle"],"city":"Waterford","state":"CT","zip":"6385","phone":"(860) 443-2837","low":"6","high":"8","students":"581","cost":"No","url":"https:\/\/clms.waterfordschools.org\/","review":"https:\/\/www.publicschoolreview.com\/clark-lane-middle-school-profile","virtual":"Yes"},{"title":"Classical Magnet School","lat":"41.7730933","lon":"-72.7014031","type":"Public Magnet School","address":"85 Woodland Street","grades":["Middle","High"],"city":"Hartford","state":"CT","zip":"6105","phone":"(860) 695-9100","low":"6","high":"12","students":"451","cost":"No","url":"","review":"https:\/\/www.publicschoolreview.com\/classical-magnet-school-profile","virtual":"Yes"},{"title":"Classical Studies Academy","lat":"41.178883","lon":"-73.209649","type":"Traditional Public School","address":"240 Linwood Ave.","grades":["Pre-K","Elementary","Middle"],"city":"Bridgeport","state":"CT","zip":"6604","phone":"(203) 576-7188","low":"PK","high":"8","students":"425","cost":"No","url":"https:\/\/www.bridgeportedu.net\/Domain\/1392","review":"https:\/\/www.publicschoolreview.com\/classical-studies-academy-profile","virtual":"Yes"},{"title":"Claude Chester School","lat":"41.347795","lon":"-72.027447","type":"Traditional Public School","address":"1 Harry Day Drive","grades":["Pre-K","Elementary"],"city":"Groton","state":"CT","zip":"6340","phone":"(860) 449-5636","low":"PK","high":"5","students":"316","cost":"No","url":"https:\/\/www.groton.k12.ct.us\/Domain\/701","review":"https:\/\/www.publicschoolreview.com\/claude-chester-school-profile","virtual":"Yes"},{"title":"Clinical Day School - Manchester Memorial Hospital","lat":"41.78136276","lon":"-72.52461039","type":"Private School","address":"71 Haynes St","grades":["Middle","High"],"city":"Manchester","state":"CT","zip":"6040","phone":"(860) 646-1222","low":"8","high":"12","students":"21","cost":"Yes","url":"https:\/\/www.echn.org\/index.php?q=locations\/manchester-memorial-hospital.aspx","review":"","virtual":"No"},{"title":"Clinton Avenue School","lat":"41.318594","lon":"-72.892649","type":"Traditional Public School","address":"293 Clinton Ave.","grades":["Elementary","Middle"],"city":"New Haven","state":"CT","zip":"6513","phone":"(475) 220-3300","low":"K","high":"8","students":"427","cost":"No","url":"https:\/\/www.newhavenmagnetschools.com\/index.php\/clinton-ave","review":"https:\/\/www.publicschoolreview.com\/clinton-avenue-school-profile","virtual":"Yes"},{"title":"Clintonville Elementary School","lat":"41.392126","lon":"-72.831777","type":"Traditional Public School","address":"456 Clintonville Rd.","grades":["Elementary"],"city":"North Haven","state":"CT","zip":"6473","phone":"(203) 239-5865","low":"K","high":"5","students":"335","cost":"No","url":"https:\/\/clintonville.northhavenschools.org\/","review":"https:\/\/www.publicschoolreview.com\/clintonville-elementary-school-profile","virtual":"Yes"},{"title":"Cloonan School","lat":"41.058811","lon":"-73.548268","type":"Traditional Public School","address":"11 West North St.","grades":["Middle"],"city":"Stamford","state":"CT","zip":"6902","phone":"(203) 977-4544","low":"6","high":"8","students":"694","cost":"No","url":"https:\/\/www.stamfordpublicschools.org\/cloonan-middle-school","review":"https:\/\/www.publicschoolreview.com\/cloonan-school-profile","virtual":"Yes"},{"title":"Clover Street School","lat":"41.83136","lon":"-72.662613","type":"Traditional Public School","address":"57 Clover St.","grades":["Elementary"],"city":"Windsor","state":"CT","zip":"6095","phone":"(860) 687-2050","low":"3","high":"5","students":"272","cost":"No","url":"https:\/\/www.windsorct.org\/o\/clover\/","review":"https:\/\/www.publicschoolreview.com\/clover-street-school-profile","virtual":"Yes"},{"title":"Coginchaug Regional High School","lat":"41.475733","lon":"-72.672777","type":"Traditional Public School","address":"135 Pickett Ln.","grades":["Middle","High"],"city":"Durham","state":"CT","zip":"6422","phone":"(860) 349-7215","low":"8","high":"12","students":"447","cost":"No","url":"https:\/\/crhs.rsd13ct.org\/","review":"https:\/\/www.publicschoolreview.com\/coginchaug-regional-high-school-profile","virtual":"Yes"},{"title":"Colchester Elementary School","lat":"41.575438","lon":"-72.317926","type":"Traditional Public School","address":"315 Halls Hill Rd.","grades":["Pre-K","Elementary"],"city":"Colchester","state":"CT","zip":"6415","phone":"(860) 537-0717","low":"PK","high":"2","students":"498","cost":"No","url":"https:\/\/ces.colchesterct.org\/","review":"https:\/\/www.publicschoolreview.com\/colchester-elementary-school-profile","virtual":"Yes"},{"title":"Cold Spring School","lat":"41.3037","lon":"-72.9025","type":"Private School","address":"263 Chapel Street","grades":["Pre-K","Elementary","Middle"],"city":"New Haven","state":"CT","zip":"6513","phone":"(203) 787-1584","low":"PK","high":"6","students":"140","cost":"Yes","url":"https:\/\/www.coldspringschool.org\/","review":"https:\/\/www.privateschoolreview.com\/cold-spring-school-profile","virtual":"No"},{"title":"Colebrook Consolidated School","lat":"41.987854","lon":"-73.092347","type":"Traditional Public School","address":"452 Smith Hill Road","grades":["Elementary","Middle"],"city":"Colebrook","state":"CT","zip":"6021","phone":"(860) 379-2179","low":"K","high":"6","students":"75","cost":"No","url":"https:\/\/www.colebrookschool.org\/","review":"https:\/\/www.publicschoolreview.com\/colebrook-consolidated-school-profile","virtual":"Yes"},{"title":"Coleytown Elementary School","lat":"41.173564","lon":"-73.349414","type":"Traditional Public School","address":"65 Easton Rd.","grades":["Elementary"],"city":"Westport","state":"CT","zip":"6880","phone":"(203) 341-1710","low":"K","high":"5","students":"423","cost":"No","url":"https:\/\/ces.westportps.org\/","review":"https:\/\/www.publicschoolreview.com\/coleytown-elementary-school-profile","virtual":"Yes"},{"title":"Columbus Family Academy","lat":"41.309154","lon":"-72.899302","type":"Traditional Public School","address":"255 Blatchley Ave.","grades":["Pre-K","Elementary","Middle"],"city":"New Haven","state":"CT","zip":"6513","phone":"(475) 220-2500","low":"PK","high":"8","students":"456","cost":"No","url":"","review":"https:\/\/www.publicschoolreview.com\/columbus-family-academy-profile","virtual":"Yes"},{"title":"Columbus Magnet School","lat":"41.093477","lon":"-73.419399","type":"Public Magnet School","address":"46 Concord Street","grades":["Elementary","Middle"],"city":"Norwalk","state":"CT","zip":"6854","phone":"(203) 899-2840","low":"K","high":"8","students":"312","cost":"No","url":"https:\/\/cms.norwalkps.org\/","review":"https:\/\/www.publicschoolreview.com\/columbus-magnet-school-profile","virtual":"Yes"},