[{"title":"Academia Antonia Alonso","lat":"39.1579104","lon":"-75.5221407","type":"Public Charter School","address":"4403 Lancaster Pike","grades":["Elementary"],"city":"Wilmington","state":"DE","zip":"19805","phone":"(302) 351-8200","low":"K","high":"5","students":"612","cost":"No","url":"http:\/\/www.academiacharter.org\/","review":"https:\/\/www.publicschoolreview.com\/academia-antonia-alonso-profile","virtual":"No"},{"title":"Academy Of Dover Charter School","lat":"39.161902","lon":"-75.543816","type":"Public Charter School","address":"104 Saulsbury Road","grades":["Elementary","Middle"],"city":"Dover","state":"DE","zip":"19904","phone":"(302) 674-0684","low":"K","high":"6","students":"329","cost":"No","url":"https:\/\/aodcharter.org\/","review":"https:\/\/www.publicschoolreview.com\/academy-of-dover-charter-school-profile","virtual":"No"},{"title":"Albert Einstein Academy","lat":"39.80971443","lon":"-75.5533649","type":"Private School","address":"101 Garden Of Eden Rd","grades":["Elementary"],"city":"Wilmington","state":"DE","zip":"19803","phone":"(302) 478-5026","low":"K","high":"5","students":"36","cost":"Yes","url":"https:\/\/www.einsteinday.org\/","review":"https:\/\/www.privateschoolreview.com\/albert-einstein-academy-profile","virtual":"No"},{"title":"Allen Frear Elementary School","lat":"39.10247","lon":"-75.512698","type":"Traditional Public School","address":"238 Sorghum Mill Road","grades":["Elementary"],"city":"Camden Wyoming","state":"DE","zip":"19934","phone":"(302) 697-3279","low":"1","high":"5","students":"663","cost":"No","url":"https:\/\/www.crk12.org\/afes","review":"https:\/\/www.publicschoolreview.com\/allen-frear-elementary-school-profile","virtual":"No"},{"title":"Apple Grove School","lat":"39.13269744","lon":"-75.60724013","type":"Private School","address":"2391 Hazlettville Rd","grades":["Elementary","Middle"],"city":"Dover","state":"DE","zip":"19904","phone":"(302) 730-1495","low":"1","high":"8","students":"24","cost":"Yes","url":"https:\/\/schools.pgcps.org\/applegrove\/","review":"","virtual":"No"},{"title":"Appoquinimink High School","lat":"39.45683","lon":"-75.74205","type":"Traditional Public School","address":"1080 Bunker Hill Road","grades":["High"],"city":"Middletown","state":"DE","zip":"19709","phone":"(302) 449-3840","low":"9","high":"12","students":"1613","cost":"No","url":"https:\/\/www.appohigh.org\/","review":"https:\/\/www.publicschoolreview.com\/appoquinimink-high-school-profile","virtual":"No"},{"title":"Appoquinimink Preschool Center","lat":"39.444482","lon":"-75.715386","type":"Specialized Public School","address":"502 South Broad Street","grades":["Pre-K"],"city":"Middletown","state":"DE","zip":"19709","phone":"(302) 376-4400","low":"PK","high":"PK","students":"177","cost":"No","url":"https:\/\/www.appopreschool.org\/","review":"https:\/\/www.publicschoolreview.com\/appoquinimink-preschool-center-profile","virtual":"No"},{"title":"Aquinas Academy Inc","lat":"39.572159","lon":"-75.695475","type":"Private School","address":"2370 Red Lion Rd","grades":["Elementary","Middle","High"],"city":"Bear","state":"DE","zip":"19701","phone":"(302) 838-9601","low":"K","high":"12","students":"85","cost":"Yes","url":"https:\/\/www.aquinasacademy.net\/","review":"https:\/\/www.privateschoolreview.com\/aquinas-academy-inc-profile","virtual":"No"},{"title":"Archmere Academy","lat":"39.802734","lon":"-75.454564","type":"Private School","address":"3600 Philadelphia Pike","grades":["High"],"city":"Wilmington","state":"DE","zip":"19703","phone":"(302) 798-6632","low":"9","high":"12","students":"514","cost":"Yes","url":"https:\/\/www.archmereacademy.com\/page","review":"https:\/\/www.privateschoolreview.com\/archmere-academy-profile","virtual":"No"},{"title":"Astra Zeneca Child Development Center","lat":"39.777658","lon":"-75.550346","type":"Private School","address":"1920 Rockland Rd","grades":["Elementary"],"city":"Wilmington","state":"DE","zip":"19803","phone":"(302) 654-9120","low":"K","high":"K","students":"90","cost":"Yes","url":"https:\/\/www.brighthorizons.com\/","review":"","virtual":"No"},{"title":"Baltz (Austin D.) Elementary School","lat":"39.743429","lon":"-75.60043","type":"Traditional Public School","address":"1500 Spruce Avenue","grades":["Elementary"],"city":"Wilmington","state":"DE","zip":"19805","phone":"(302) 992-5560","low":"K","high":"5","students":"532","cost":"No","url":"https:\/\/www.redclayschools.com\/baltz","review":"https:\/\/www.publicschoolreview.com\/baltz-austin-d-elementary-school-profile","virtual":"No"},{"title":"Bancroft School","lat":"39.740803","lon":"-75.544535","type":"Traditional Public School","address":"700 North Lombard Street","grades":["Elementary","Middle"],"city":"Wilmington","state":"DE","zip":"19801","phone":"(302) 429-4102","low":"1","high":"7","students":"373","cost":"No","url":"http:\/\/www.christina.k12.de.us\/bancroft\/","review":"https:\/\/www.publicschoolreview.com\/bancroft-school-profile","virtual":"No"},{"title":"Bank Of America Child Developmental Ctr Wilmington","lat":"39.744794","lon":"-75.54546","type":"Private School","address":"1000 N French St","grades":["Pre-K","Elementary"],"city":"Wilmington","state":"DE","zip":"19801","phone":"(302) 432-3660","low":"PK","high":"K","students":"32","cost":"Yes","url":"","review":"","virtual":"No"},{"title":"Banneker (Benjamin) Elementary School","lat":"38.917497","lon":"-75.430941","type":"Traditional Public School","address":"449 North Street","grades":["Elementary"],"city":"Milford","state":"DE","zip":"19963","phone":"(302) 422-1630","low":"1","high":"5","students":"464","cost":"No","url":"https:\/\/be.milfordschooldistrict.org\/","review":"https:\/\/www.publicschoolreview.com\/banneker-benjamin-elementary-school-profile","virtual":"No"},{"title":"Bayard School","lat":"39.737291","lon":"-75.588259","type":"Traditional Public School","address":"200 South Dupont Street","grades":["Elementary","Middle"],"city":"Wilmington","state":"DE","zip":"19805","phone":"(302) 429-4118","low":"1","high":"8","students":"538","cost":"No","url":"http:\/\/www.christina.k12.de.us\/bayard\/","review":"https:\/\/www.publicschoolreview.com\/bayard-school-profile","virtual":"No"},{"title":"Beacon Middle School","lat":"38.715037","lon":"-75.150962","type":"Traditional Public School","address":"19483 John J. Williams Highway","grades":["Middle"],"city":"Lewes","state":"DE","zip":"19958","phone":"(302) 645-6288","low":"6","high":"8","students":"679","cost":"No","url":"http:\/\/www.beacon.cape.k12.de.us\/","review":"https:\/\/www.publicschoolreview.com\/beacon-middle-school-profile","virtual":"No"},{"title":"Bedford (Gunning) Middle School","lat":"39.561944","lon":"-75.630721","type":"Traditional Public School","address":"801 Cox Neck Road","grades":["Middle"],"city":"New Castle","state":"DE","zip":"19720","phone":"(302) 832-6280","low":"6","high":"8","students":"1069","cost":"No","url":"http:\/\/www.colonialschooldistrict.org\/gunningbedford\/","review":"https:\/\/www.publicschoolreview.com\/bedford-gunning-middle-school-profile","virtual":"No"},{"title":"Blades Elementary School","lat":"38.630697","lon":"-75.606867","type":"Traditional Public School","address":"900 South Arch Street","grades":["Elementary"],"city":"Seaford","state":"DE","zip":"19973","phone":"(302) 629-4587","low":"K","high":"2","students":"390","cost":"No","url":"https:\/\/bes.seafordbluejays.org\/","review":"https:\/\/www.publicschoolreview.com\/blades-elementary-school-profile","virtual":"No"},{"title":"Booker T. Washington Elementary School","lat":"39.159011","lon":"-75.540385","type":"Traditional Public School","address":"901 Forest Street","grades":["Elementary"],"city":"Dover","state":"DE","zip":"19904","phone":"(302) 672-1900","low":"K","high":"4","students":"280","cost":"No","url":"http:\/\/www.btw.capital.k12.de.us","review":"https:\/\/www.publicschoolreview.com\/booker-t-washington-elementary-school-profile","virtual":"No"},{"title":"Brader (Henry M.) Elementary School","lat":"39.626874","lon":"-75.756129","type":"Traditional Public School","address":"350 Four Seasons Parkway","grades":["Elementary"],"city":"Newark","state":"DE","zip":"19702","phone":"(302) 454-5959","low":"K","high":"5","students":"373","cost":"No","url":"http:\/\/www.christina.k12.de.us\/brader\/","review":"https:\/\/www.publicschoolreview.com\/brader-henry-m-elementary-school-profile","virtual":"No"},{"title":"Brandywine High School","lat":"39.799713","lon":"-75.52301","type":"Traditional Public School","address":"1400 Foulk Road","grades":["High"],"city":"Wilmington","state":"DE","zip":"19803","phone":"(302) 479-1600","low":"9","high":"12","students":"940","cost":"No","url":"https:\/\/www.brandywineschools.org\/Domain\/1115","review":"https:\/\/www.publicschoolreview.com\/brandywine-high-school-profile","virtual":"No"},{"title":"Brandywine Site","lat":"39.802092","lon":"-75.465516","type":"Traditional Public School","address":"3301 Green St","grades":["High"],"city":"Claymont","state":"DE","zip":"19703","phone":"(302) 792-7535","low":"12","high":"12","students":"25","cost":"No","url":"https:\/\/www.brandywineschools.org\/site","review":"https:\/\/www.publicschoolreview.com\/brandywine-site-profile","virtual":"No"},{"title":"Brandywine Springs School","lat":"39.743971","lon":"-75.65063","type":"Traditional Public School","address":"2916 Duncan Road","grades":["Elementary","Middle"],"city":"Wilmington","state":"DE","zip":"19808","phone":"(302) 636-5681","low":"K","high":"8","students":"973","cost":"No","url":"https:\/\/www.redclayschools.com\/bss","review":"https:\/\/www.publicschoolreview.com\/brandywine-springs-school-profile","virtual":"No"},{"title":"Brandywine Valley Christian Presch","lat":"39.806456","lon":"-75.552377","type":"Private School","address":"7 Mount Lebanon Rd","grades":["Pre-K","Elementary"],"city":"Wilmington","state":"DE","zip":"19803","phone":"(302) 478-4255","low":"PK","high":"K","students":"88","cost":"Yes","url":"https:\/\/brandywine.church\/connect\/preschool\/","review":"https:\/\/www.privateschoolreview.com\/brandywine-valley-christian-presch-profile","virtual":"No"},{"title":"Brennen School","lat":"39.672444","lon":"-75.711911","type":"Specialized Public School","address":"144 Brennen Drive","grades":["Pre-K","Elementary","Middle","High"],"city":"Newark","state":"DE","zip":"19713","phone":"(302) 292-6021","low":"PK","high":"12","students":"413","cost":"No","url":"https:\/\/www.christinak12.org\/Domain\/11","review":"https:\/\/www.publicschoolreview.com\/brennen-school-profile","virtual":"No"},{"title":"Brick Mill Early Childhood Center","lat":"39.458916","lon":"-75.686634","type":"Traditional Public School","address":"378 Brick Mill Road","grades":[],"city":"Middletown","state":"DE","zip":"19709","phone":"(302) 378-5288","low":"N","high":"N","students":"See website","cost":"No","url":"","review":"https:\/\/www.publicschoolreview.com\/brick-mill-early-childhood-center-profile","virtual":"No"},{"title":"Brick Mill Elementary School","lat":"39.458742","lon":"-75.68781","type":"Traditional Public School","address":"378 Brick Mill Road","grades":["Elementary"],"city":"Middletown","state":"DE","zip":"19709","phone":"(302) 378-5288","low":"1","high":"5","students":"386","cost":"No","url":"https:\/\/www.brickmilldolphins.org\/","review":"https:\/\/www.publicschoolreview.com\/brick-mill-elementary-school-profile","virtual":"No"},{"title":"Brookside Elementary School","lat":"39.668179","lon":"-75.727333","type":"Traditional Public School","address":"800 Marrows Road","grades":["Elementary"],"city":"Newark","state":"DE","zip":"19713","phone":"(302) 454-5454","low":"K","high":"5","students":"288","cost":"No","url":"http:\/\/www.christina.k12.de.us","review":"https:\/\/www.publicschoolreview.com\/brookside-elementary-school-profile\/19713","virtual":"No"},{"title":"Bunker Hill Elementary School","lat":"39.455632","lon":"-75.740192","type":"Traditional Public School","address":"1070 Bunker Hill Road","grades":["Elementary"],"city":"Middletown","state":"DE","zip":"19709","phone":"(302) 378-5135","low":"1","high":"5","students":"620","cost":"No","url":"https:\/\/www.bunkerhillelem.org\/","review":"https:\/\/www.publicschoolreview.com\/bunker-hill-elementary-school-profile\/19709","virtual":"No"},{"title":"Bush (Charles W.) Pre - School","lat":"39.802491","lon":"-75.549409","type":"Specialized Public School","address":"2523 Berwyn Road","grades":["Pre-K"],"city":"Wilmington","state":"DE","zip":"19810","phone":"(302) 479-1617","low":"PK","high":"PK","students":"188","cost":"No","url":"https:\/\/www.brandywineschools.org\/site\/default.aspx?domainid=313","review":"https:\/\/www.publicschoolreview.com\/bush-charles-w-pre-school-profile","virtual":"No"},{"title":"Cacc Montessori School","lat":"39.77","lon":"-75.6614","type":"Private School","address":"1313 Little Baltimore Rd.","grades":["Pre-K","Elementary"],"city":"Hockessin","state":"DE","zip":"19707","phone":"(302) 239-2917","low":"PK","high":"K","students":"66","cost":"Yes","url":"http:\/\/caccmont.org\/","review":"https:\/\/www.privateschoolreview.com\/cacc-montessori-school-profile","virtual":"No"},{"title":"Caesar Rodney High School","lat":"39.118387","lon":"-75.543057","type":"Traditional Public School","address":"239 Old North Road","grades":["High"],"city":"Camden Wyoming","state":"DE","zip":"19934","phone":"(302) 697-2161","low":"9","high":"12","students":"2116","cost":"No","url":"https:\/\/www.crk12.org\/crhs","review":"https:\/\/www.publicschoolreview.com\/caesar-rodney-high-school-profile","virtual":"No"},{"title":"Calloway (Cab) School Of The Arts","lat":"39.754533","lon":"-75.588105","type":"Public Magnet School","address":"100 North Dupont Road","grades":["Middle","High"],"city":"Wilmington","state":"DE","zip":"19807","phone":"(302) 651-2700","low":"6","high":"12","students":"941","cost":"No","url":"https:\/\/cabcallowayschool.org\/","review":"https:\/\/www.publicschoolreview.com\/calloway-cab-school-of-the-arts-profile","virtual":"No"},{"title":"Calvary Christian Academy","lat":"39.1184","lon":"-75.51383404","type":"Private School","address":"1143 E Lebanon Road","grades":["Pre-K","Elementary","Middle","High"],"city":"Dover","state":"DE","zip":"19901","phone":"(302) 697-7860","low":"PK","high":"12","students":"388","cost":"Yes","url":"http:\/\/www.wearecca.com","review":"https:\/\/www.privateschoolreview.com\/calvary-christian-academy-profile\/19901","virtual":"No"},{"title":"Campus Community School","lat":"39.161671","lon":"-75.527075","type":"Public Charter School","address":"350 Pear Street","grades":["Elementary","Middle"],"city":"Dover","state":"DE","zip":"19904","phone":"(302) 736-0403","low":"K","high":"8","students":"413","cost":"No","url":"http:\/\/www.campuscommunityschool.com\/","review":"https:\/\/www.publicschoolreview.com\/campus-community-school-profile","virtual":"No"},{"title":"Cantwell Bridge Middle School","lat":"39.43816","lon":"-75.649942","type":"Traditional Public School","address":"550 Tony Marchio Drive","grades":[],"city":"Townsend","state":"DE","zip":"19734","phone":"(302) 376-4128","low":"N","high":"N","students":"See website","cost":"No","url":"","review":"https:\/\/www.publicschoolreview.com\/cantwell-bridge-middle-school-profile","virtual":"No"},{"title":"Cape Henlopen High School","lat":"38.756283","lon":"-75.14799","type":"Traditional Public School","address":"1250 Kings Highway","grades":["High"],"city":"Lewes","state":"DE","zip":"19958","phone":"(302) 645-7711","low":"9","high":"12","students":"1637","cost":"No","url":"https:\/\/www.capehenlopenschools.com\/chhs","review":"https:\/\/www.publicschoolreview.com\/cape-henlopen-high-school-profile","virtual":"No"},{"title":"Capital Early Childhood Center","lat":"39.151613","lon":"-75.551561","type":"Traditional Public School","address":"198 Commerce Way","grades":["Pre-K"],"city":"Dover","state":"DE","zip":"19904","phone":"(302) 672-1500","low":"PK","high":"PK","students":"113","cost":"No","url":"","review":"https:\/\/www.publicschoolreview.com\/capital-early-childhood-center-profile","virtual":"No"},{"title":"Capitol Baptist School","lat":"39.1359","lon":"-75.5397","type":"Private School","address":"401 Kesselring Ave","grades":["Pre-K","Elementary","Middle","High"],"city":"Dover","state":"DE","zip":"19904","phone":"(302) 678-9190","low":"PK","high":"12","students":"31","cost":"Yes","url":"http:\/\/www.cbcofdover.com\/capitol-baptist-school.html","review":"https:\/\/www.privateschoolreview.com\/capitol-baptist-school-profile","virtual":"No"},{"title":"Caravel Academy","lat":"39.59764846","lon":"-75.71753346","type":"Private School","address":"2801 Del Laws Rd","grades":["Pre-K","Elementary","Middle","High"],"city":"Bear","state":"DE","zip":"19701","phone":"(302) 834-8938","low":"PK","high":"12","students":"1117","cost":"Yes","url":"https:\/\/www.caravel.org\/","review":"https:\/\/www.privateschoolreview.com\/caravel-academy-profile","virtual":"No"},{"title":"Carrcroft Elementary School","lat":"39.787398","lon":"-75.501785","type":"Traditional Public School","address":"503 Crest Road","grades":["Elementary"],"city":"Wilmington","state":"DE","zip":"19803","phone":"(302) 762-7165","low":"K","high":"5","students":"444","cost":"No","url":"https:\/\/www.brandywineschools.org\/carrcroft","review":"https:\/\/www.publicschoolreview.com\/carrcroft-elementary-school-profile","virtual":"No"},{"title":"Carver (G.W.) Educational Center","lat":"38.689679","lon":"-75.37541","type":"Specialized Public School","address":"30207 Frankford School Road","grades":["Elementary","Middle","High"],"city":"Frankford","state":"DE","zip":"19945","phone":"(302) 732-3800","low":"1","high":"12","students":"See website","cost":"No","url":"http:\/\/www.cc.irsd.k12.de.us","review":"https:\/\/www.publicschoolreview.com\/carver-g-w-educational-center-profile","virtual":"No"},{"title":"Casho Mill Kindercare","lat":"39.671654","lon":"-75.770912","type":"Private School","address":"1520 Casho Mill Rd","grades":["Pre-K"],"city":"Newark","state":"DE","zip":"19711","phone":"(302) 738-5953","low":"NS","high":"PK","students":"33","cost":"Yes","url":"https:\/\/www.kindercare.com\/our-centers\/newark\/de\/301157?utm_campaign=kc-lg&utm_source=psr&utm_medium=pro","review":"https:\/\/www.privateschoolreview.com\/casho-mill-kindercare-profile","virtual":"No"},{"title":"Castle Hills Elementary School","lat":"39.681132","lon":"-75.566471","type":"Traditional Public School","address":"502 Moores Lane","grades":["Elementary"],"city":"New Castle","state":"DE","zip":"19720","phone":"(302) 323-2915","low":"K","high":"5","students":"562","cost":"No","url":"http:\/\/www.colonialschooldistrict.org\/castlehills\/","review":"https:\/\/www.publicschoolreview.com\/castle-hills-elementary-school-profile","virtual":"No"},{"title":"Cedar Lane Early Childhood Center","lat":"39.502544","lon":"-75.685181","type":"Traditional Public School","address":"1221 Cedar Lane Road","grades":["Elementary"],"city":"Middletown","state":"DE","zip":"19709","phone":"(302) 449-5873","low":"K","high":"K","students":"262","cost":"No","url":"https:\/\/www.clecc.org\/","review":"https:\/\/www.publicschoolreview.com\/cedar-lane-early-childhood-center-profile","virtual":"No"},{"title":"Cedar Lane Elementary School","lat":"39.501522","lon":"-75.685576","type":"Traditional Public School","address":"1259 Cedar Lane Road","grades":["Elementary"],"city":"Middletown","state":"DE","zip":"19709","phone":"(302) 378-5045","low":"1","high":"5","students":"554","cost":"No","url":"https:\/\/www.cedarlaneschool.org\/","review":"https:\/\/www.publicschoolreview.com\/cedar-lane-elementary-school-profile\/19709","virtual":"No"},{"title":"Central Christian School","lat":"39.17269991","lon":"-75.64639937","type":"Private School","address":"220 W Denneys Rd","grades":["Elementary","Middle","High"],"city":"Dover","state":"DE","zip":"19904","phone":"(302) 492-8772","low":"1","high":"12","students":"65","cost":"Yes","url":"","review":"https:\/\/www.privateschoolreview.com\/central-christian-school-profile\/19904","virtual":"No"},{"title":"Central De Christian Academy","lat":"39.09436325","lon":"-75.54658974","type":"Private School","address":"4698 S Dupont Hwy","grades":["Pre-K","Elementary","Middle"],"city":"Dover","state":"DE","zip":"19901","phone":"(302) 697-8407","low":"PK","high":"8","students":"71","cost":"Yes","url":"http:\/\/cdcacademy.org\/","review":"https:\/\/www.privateschoolreview.com\/central-de-christian-academy-profile","virtual":"No"},{"title":"Central Middle School","lat":"39.163933","lon":"-75.521617","type":"Traditional Public School","address":"211 Delaware Avenue","grades":["Middle"],"city":"Dover","state":"DE","zip":"19901","phone":"(302) 672-1772","low":"7","high":"8","students":"936","cost":"No","url":"http:\/\/www.central.capital.k12.de.us","review":"https:\/\/www.publicschoolreview.com\/central-middle-school-profile\/19901","virtual":"No"},{"title":"Centreville Layton School","lat":"39.82855721","lon":"-75.62297328","type":"Private School","address":"6201 Kennett Pike","grades":["Pre-K","Elementary","Middle","High"],"city":"Wilmington","state":"DE","zip":"19807","phone":"(302) 571-0230","low":"PK","high":"12","students":"102","cost":"Yes","url":"https:\/\/centrevillelayton.org\/","review":"https:\/\/www.privateschoolreview.com\/centreville-layton-school-profile","virtual":"No"},{"title":"Charter School Of New Castle","lat":"39.663944","lon":"-75.574696","type":"Public Charter School","address":"170 Lukens Drive","grades":["Elementary","Middle"],"city":"New Castle","state":"DE","zip":"19720","phone":"(302) 324-8901","low":"K","high":"8","students":"762","cost":"No","url":"https:\/\/www.charterschoolnewcastle.org\/","review":"https:\/\/www.publicschoolreview.com\/charter-school-of-new-castle-profile","virtual":"No"},{"title":"Charter School Of Wilmington","lat":"39.754533","lon":"-75.588105","type":"Public Charter School","address":"100 North Dupont Road","grades":["High"],"city":"Wilmington","state":"DE","zip":"19807","phone":"(302) 651-2727","low":"9","high":"12","students":"965","cost":"No","url":"https:\/\/charterschool.org\/","review":"https:\/\/www.publicschoolreview.com\/charter-school-of-wilmington-profile","virtual":"No"},{"title":"Child Craft Company","lat":"38.6102726","lon":"-75.5965357","type":"Private School","address":"26396 Seaford Rd","grades":["Elementary"],"city":"Seaford","state":"DE","zip":"19973","phone":"(302) 628-1231","low":"K","high":"5","students":"108","cost":"Yes","url":"","review":"https:\/\/www.privateschoolreview.com\/child-craft-company-profile","virtual":"No"},{"title":"Children S House Montessori","lat":"39.82763284","lon":"-75.52729559","type":"Private School","address":"2848 Grubb Rd","grades":["Pre-K","Elementary"],"city":"Wilmington","state":"DE","zip":"19810","phone":"(302) 529-9259","low":"PK","high":"K","students":"102","cost":"Yes","url":"https:\/\/www.childrenshouse-de.org\/","review":"https:\/\/www.privateschoolreview.com\/children-s-house-montessori-profile","virtual":"No"},{"title":"Chipman (W.T.) Middle School","lat":"38.928341","lon":"-75.580901","type":"Traditional Public School","address":"101 West Center Street","grades":["Middle"],"city":"Harrington","state":"DE","zip":"19952","phone":"(302) 398-8197","low":"6","high":"8","students":"903","cost":"No","url":"http:\/\/www.lf.k12.de.us\/chipman","review":"https:\/\/www.publicschoolreview.com\/chipman-w-t-middle-school-profile","virtual":"No"},{"title":"Christ Church Episcopal Preschool","lat":"39.777213","lon":"-75.578516","type":"Private School","address":"505 East Buck Rd","grades":["Pre-K"],"city":"Wilmington","state":"DE","zip":"19807","phone":"(302) 472-0021","low":"NS","high":"NS","students":"69","cost":"Yes","url":"https:\/\/www.ccepde.org","review":"https:\/\/www.privateschoolreview.com\/christ-church-episcopal-preschool-profile\/19807","virtual":"No"},{"title":"Christ The Teacher Catholic School","lat":"39.6043","lon":"-75.7745","type":"Private School","address":"2451 Frazer Rd","grades":["Pre-K","Elementary","Middle"],"city":"Newark","state":"DE","zip":"19702","phone":"(302) 838-8850","low":"PK","high":"8","students":"635","cost":"Yes","url":"https:\/\/www.cttcs.org\/","review":"https:\/\/www.privateschoolreview.com\/christ-the-teacher-catholic-school-profile\/19702","virtual":"No"},{"title":"Christian Tabernacle Academy","lat":"38.8698352","lon":"-75.4229746","type":"Private School","address":"18940 Johnson Rd","grades":["Pre-K","Elementary","Middle","High"],"city":"Lincoln","state":"DE","zip":"19960","phone":"","low":"PK","high":"12","students":"85","cost":"Yes","url":"http:\/\/www.achurch4u.net\/","review":"https:\/\/www.privateschoolreview.com\/christian-tabernacle-academy-profile","virtual":"No"},{"title":"Christiana High School","lat":"39.66403","lon":"-75.696345","type":"Traditional Public School","address":"190 Salem Church Road","grades":["Middle","High"],"city":"Newark","state":"DE","zip":"19713","phone":"(302) 631-2400","low":"6","high":"12","students":"1080","cost":"No","url":"http:\/\/www.christina.k12.de.us\/christiana\/","review":"https:\/\/www.publicschoolreview.com\/christiana-high-school-profile","virtual":"No"},{"title":"Christina Early Education Center","lat":"39.67233","lon":"-75.708632","type":"Specialized Public School","address":"620 East Chestnut Hill Rd","grades":["Pre-K"],"city":"Newark","state":"DE","zip":"19713","phone":"(302) 454-2720","low":"PK","high":"PK","students":"278","cost":"No","url":"https:\/\/www.christinak12.org\/ChristinaEEC","review":"https:\/\/www.publicschoolreview.com\/christina-early-education-center-profile","virtual":"No"},{"title":"Claymont Elementary School","lat":"39.80237","lon":"-75.464469","type":"Traditional Public School","address":"3401 Green Street","grades":["Elementary"],"city":"Claymont","state":"DE","zip":"19703","phone":"(302) 792-3880","low":"K","high":"5","students":"822","cost":"No","url":"https:\/\/www.brandywineschools.org\/Domain\/274","review":"https:\/\/www.publicschoolreview.com\/claymont-elementary-school-profile","virtual":"No"},{"title":"Clayton (John M.) Elementary School","lat":"38.52022","lon":"-75.22335","type":"Traditional Public School","address":"252 Clayton Ave","grades":["Elementary"],"city":"Frankford","state":"DE","zip":"19945","phone":"(302) 732-3808","low":"K","high":"5","students":"525","cost":"No","url":"https:\/\/jce.irsd.net\/","review":"https:\/\/www.publicschoolreview.com\/clayton-john-m-elementary-school-profile","virtual":"No"},{"title":"Clayton Elementary School","lat":"39.288993","lon":"-75.636258","type":"Traditional Public School","address":"510 West Main Street","grades":["Elementary"],"city":"Clayton","state":"DE","zip":"19938","phone":"(302) 653-8587","low":"K","high":"4","students":"506","cost":"No","url":"https:\/\/ces.smyrna.k12.de.us\/","review":"https:\/\/www.publicschoolreview.com\/clayton-elementary-school-profile\/19938","virtual":"No"},{"title":"Clayton Intermediate School","lat":"39.2732924","lon":"-75.6463359","type":"Traditional Public School","address":"86 Sorrento Drive","grades":["Elementary","Middle"],"city":"Clayton","state":"DE","zip":"19938","phone":"(302) 653-4512","low":"5","high":"6","students":"495","cost":"No","url":"https:\/\/cis.smyrna.k12.de.us\/","review":"https:\/\/www.publicschoolreview.com\/clayton-intermediate-school-profile","virtual":"No"},{"title":"Concord Christian Academy","lat":"39.82297314","lon":"-75.48718704","type":"Private School","address":"2510 Marsh Road","grades":["Pre-K","Elementary","Middle","High"],"city":"Wilmington","state":"DE","zip":"19810","phone":"(302) 475-3247","low":"PK","high":"12","students":"210","cost":"Yes","url":"http:\/\/www.concordchristian.com","review":"https:\/\/www.privateschoolreview.com\/concord-christian-academy-profile","virtual":"No"},{"title":"Concord High School","lat":"39.829589","lon":"-75.523797","type":"Traditional Public School","address":"2501 Ebright Road","grades":["High"],"city":"Wilmington","state":"DE","zip":"19810","phone":"(302) 475-3951","low":"9","high":"12","students":"1052","cost":"No","url":"https:\/\/www.brandywineschools.org\/concord","review":"https:\/\/www.publicschoolreview.com\/concord-high-school-profile\/19810","virtual":"No"},{"title":"Concord Preschool And Childcare","lat":"39.79","lon":"-75.5336","type":"Private School","address":"1800 Fairfax Blvd","grades":["Pre-K","Elementary"],"city":"Wilmington","state":"DE","zip":"19803","phone":"(302) 654-9629","low":"PK","high":"K","students":"155","cost":"Yes","url":"http:\/\/concordpreschoolandchildcare.com","review":"https:\/\/www.privateschoolreview.com\/concord-preschool-and-childcare-profile","virtual":"No"},{"title":"Conrad Schools Of Science","lat":"39.722795","lon":"-75.600486","type":"Public Magnet School","address":"201 Jackson Avenue","grades":["Middle","High"],"city":"Wilmington","state":"DE","zip":"19804","phone":"(302) 992-5545","low":"6","high":"12","students":"1178","cost":"No","url":"https:\/\/de01903704.schoolwires.net\/conrad","review":"https:\/\/www.publicschoolreview.com\/conrad-schools-of-science-profile","virtual":"No"},{"title":"Cornerstone Early Ed & Youth Center","lat":"39.57318443","lon":"-75.73857111","type":"Private School","address":"3135 Summit Bridge Rd","grades":["Pre-K"],"city":"Bear","state":"DE","zip":"19701","phone":"(302) 836-6445","low":"NS","high":"NS","students":"92","cost":"Yes","url":"https:\/\/www.cornerstonedelaware.com\/","review":"https:\/\/www.privateschoolreview.com\/cornerstone-early-ed-youth-center-profile","virtual":"No"},{"title":"Corprate Kids Learning Center","lat":"39.151942","lon":"-75.505602","type":"Private School","address":"605 S Bay Road","grades":["Pre-K"],"city":"Dover","state":"DE","zip":"19901","phone":"(302) 678-0688","low":"NS","high":"PK","students":"146","cost":"Yes","url":"","review":"https:\/\/www.privateschoolreview.com\/corprate-kids-learning-center-profile","virtual":"No"},{"title":"Creative Learning Academy","lat":"39.616931","lon":"-75.664554","type":"Private School","address":"1458 Bear Corbitt Road","grades":["Pre-K","Elementary"],"city":"Bear","state":"DE","zip":"19701","phone":"(302) 834-5259","low":"PK","high":"1","students":"19","cost":"Yes","url":"https:\/\/www.creativelearningacademy.org\/","review":"https:\/\/www.privateschoolreview.com\/creative-learning-academy-profile","virtual":"No"},{"title":"David E. Robinson Elementary School","lat":"39.080744","lon":"-75.505753","type":"Traditional Public School","address":"1038 Briarbush Road","grades":[],"city":"Magnolia","state":"DE","zip":"19962","phone":"(302) 698-4800","low":"N","high":"N","students":"See website","cost":"No","url":"https:\/\/reportcard.doe.k12.de.us\/detail.html","review":"https:\/\/www.publicschoolreview.com\/david-e-robinson-elementary-school-profile","virtual":"No"},{"title":"Delaware Early Childhood Center","lat":"38.922667","lon":"-75.582956","type":"Specialized Public School","address":"100 West Mispillion Street","grades":["Pre-K"],"city":"Harrington","state":"DE","zip":"19952","phone":"(302) 398-8945","low":"PK","high":"PK","students":"35","cost":"No","url":"","review":"https:\/\/www.publicschoolreview.com\/delaware-early-childhood-center-profile","virtual":"No"},{"title":"Delaware Military Academy","lat":"39.721828","lon":"-75.584823","type":"Public Charter School","address":"112 Middleboro Road","grades":["High"],"city":"Wilmington","state":"DE","zip":"19804","phone":"(302) 998-0745","low":"9","high":"12","students":"579","cost":"No","url":"https:\/\/demilacad.org\/","review":"https:\/\/www.publicschoolreview.com\/delaware-military-academy-profile","virtual":"No"},{"title":"Delaware School For The Deaf","lat":"39.672034","lon":"-75.708419","type":"Specialized Public School","address":"630 East Chestnut Hill Road","grades":["Pre-K","Elementary","Middle","High"],"city":"Newark","state":"DE","zip":"19713","phone":"(302) 454-2301","low":"PK","high":"12","students":"103","cost":"No","url":"https:\/\/www.dsdeaf.org\/","review":"https:\/\/www.publicschoolreview.com\/delaware-school-for-the-deaf-profile","virtual":"No"},{"title":"Delaware Tarbiyah School","lat":"39.64535","lon":"-75.715781","type":"Private School","address":"698 Old Baltimore Pike","grades":["Pre-K","Elementary","Middle"],"city":"Newark","state":"DE","zip":"19702","phone":"(302) 533-8114","low":"PK","high":"8","students":"188","cost":"Yes","url":"http:\/\/tarbiyahschool.org\/","review":"","virtual":"No"},{"title":"Delaware Valley Classical School","lat":"39.664833","lon":"-75.58068","type":"Private School","address":"903 East Basin Road","grades":["Elementary","Middle","High"],"city":"New Castle","state":"DE","zip":"19720","phone":"(302) 455-8740","low":"K","high":"12","students":"159","cost":"Yes","url":"https:\/\/www.delawarevalleyclassicalschool.org\/","review":"https:\/\/www.privateschoolreview.com\/delaware-valley-classical-school-profile","virtual":"No"},{"title":"Delcastle Technical High School","lat":"39.726127","lon":"-75.628687","type":"Specialized Public School","address":"1417 Newport Road","grades":["High"],"city":"Wilmington","state":"DE","zip":"19804","phone":"(302) 995-8100","low":"9","high":"12","students":"1576","cost":"No","url":"https:\/\/delcastle.nccvt.k12.de.us\/","review":"https:\/\/www.publicschoolreview.com\/delcastle-technical-high-school-profile","virtual":"No"},{"title":"Delmar High School","lat":"38.457848","lon":"-75.56824","type":"Traditional Public School","address":"200 North Eighth Street","grades":["High"],"city":"Delmar","state":"DE","zip":"19940","phone":"(302) 846-9544","low":"9","high":"12","students":"627","cost":"No","url":"https:\/\/www.delmar.k12.de.us\/apps\/pages\/index.jsp?uREC_ID=285102&type=d&termREC_ID=&pREC_ID=537737","review":"https:\/\/www.publicschoolreview.com\/delmar-high-school-profile","virtual":"No"},{"title":"Delmar Middle Level Ilc","lat":"38.458431","lon":"-75.567086","type":"Specialized Public School","address":"200 North Eighth Street","grades":["Elementary","Middle"],"city":"Delmar","state":"DE","zip":"19940","phone":"(302) 846-9544","low":"5","high":"8","students":"See website","cost":"No","url":"https:\/\/www.delmar.k12.de.us\/","review":"https:\/\/www.publicschoolreview.com\/delmar-middle-level-ilc-profile","virtual":"No"},{"title":"Delmar Middle School","lat":"38.457848","lon":"-75.56824","type":"Traditional Public School","address":"200 North Eighth Street","grades":["Elementary","Middle"],"city":"Delmar","state":"DE","zip":"19940","phone":"(302) 846-9544","low":"5","high":"8","students":"728","cost":"No","url":"https:\/\/delmar.k12.de.us\/apps\/pages\/index.jsp?uREC_ID=285099&type=d","review":"https:\/\/www.publicschoolreview.com\/delmar-middle-school-profile","virtual":"No"},{"title":"Delmarva Christian High School","lat":"38.667752","lon":"-75.3648428","type":"Private School","address":"21777 Sussex Pines Road","grades":["Pre-K","Elementary","Middle","High"],"city":"Georgetown","state":"DE","zip":"19947","phone":"(302) 856-4040","low":"PK","high":"12","students":"401","cost":"Yes","url":"https:\/\/www.delmarvachristian.org\/","review":"https:\/\/www.privateschoolreview.com\/delmarva-christian-high-school-profile","virtual":"No"},{"title":"Delmarva Christian Schools Milton Campus","lat":"38.7895","lon":"-75.3247","type":"Private School","address":"26631 Zion Church Rd","grades":["Pre-K","Elementary","Middle"],"city":"Milton","state":"DE","zip":"19968","phone":"(302) 684-4983","low":"PK","high":"8","students":"237","cost":"Yes","url":"https:\/\/www.delmarvachristian.org\/","review":"https:\/\/www.privateschoolreview.com\/delmarva-christian-schools-milton-campus-profile","virtual":"No"},{"title":"Destiny Calling Academy","lat":"39.7129361","lon":"-75.6758093","type":"Private School","address":"5810-C Kirkwood Highway","grades":["Elementary","Middle","High"],"city":"Wilmington","state":"DE","zip":"19808","phone":"(800) 677-7904","low":"K","high":"12","students":"See website","cost":"Yes","url":"https:\/\/www.destinycallingacademy.com\/","review":"https:\/\/www.privateschoolreview.com\/destiny-calling-academy-profile","virtual":"No"},{"title":"Developing Minds Preschool And Learning Center","lat":"39.717771","lon":"-75.660454","type":"Private School","address":"2106 Saint James Church Rd","grades":["Pre-K","Elementary"],"city":"Wilmington","state":"DE","zip":"19808","phone":"(302) 995-9611","low":"PK","high":"K","students":"32","cost":"Yes","url":"https:\/\/developingmindspreschool.com\/","review":"","virtual":"No"},{"title":"Dickinson (John) School","lat":"39.72605","lon":"-75.671341","type":"Traditional Public School","address":"1801 Milltown Road","grades":["Middle","High"],"city":"Wilmington","state":"DE","zip":"19808","phone":"(302) 992-5500","low":"6","high":"12","students":"920","cost":"No","url":"https:\/\/www.redclayschools.com\/dickinson","review":"https:\/\/www.publicschoolreview.com\/dickinson-john-school-profile","virtual":"No"},{"title":"Douglass School","lat":"39.738876","lon":"-75.580747","type":"Specialized Public School","address":"1800 Prospect Road","grades":["Elementary","Middle","High"],"city":"Wilmington","state":"DE","zip":"19805","phone":"(302) 429-4146","low":"1","high":"12","students":"73","cost":"No","url":"http:\/\/www.christina.k12.de.us\/douglass\/","review":"https:\/\/www.publicschoolreview.com\/douglass-school-profile","virtual":"No"},{"title":"Dover Air Force Base Middle School","lat":"39.11774","lon":"-75.48788","type":"Traditional Public School","address":"3100 Hawthorne Drive","grades":["Middle"],"city":"Dover","state":"DE","zip":"19901","phone":"(302) 674-3284","low":"6","high":"8","students":"177","cost":"No","url":"https:\/\/www.crk12.org\/abms","review":"https:\/\/www.publicschoolreview.com\/dover-air-force-base-middle-school-profile","virtual":"No"},{"title":"Dover First Christian School","lat":"39.1442469","lon":"-75.5336449","type":"Private School","address":"655 Wyoming Ave ","grades":["Pre-K","Elementary","Middle"],"city":"Dover","state":"DE","zip":"19904","phone":"(302) 526-4998","low":"PK","high":"8","students":"36","cost":"Yes","url":"http:\/\/doverfcs.org\/","review":"https:\/\/www.privateschoolreview.com\/dover-first-christian-school-profile","virtual":"No"},{"title":"Dover High School","lat":"39.176146","lon":"-75.539677","type":"Traditional Public School","address":"One Dover High Drive","grades":["High"],"city":"Dover","state":"DE","zip":"19904","phone":"(302) 241-2400","low":"9","high":"12","students":"1768","cost":"No","url":"http:\/\/www.doverhigh.capital.k12.de.us\/","review":"https:\/\/www.publicschoolreview.com\/dover-high-school-profile\/19904","virtual":"No"},{"title":"Dover Montessori Country Day Academy","lat":"39.1279233","lon":"-75.4908414","type":"Private School","address":"88 Carpenter st.","grades":["Pre-K","Elementary"],"city":"Dover","state":"DE","zip":"19901","phone":"(302) 678-8394","low":"PK","high":"1","students":"39","cost":"Yes","url":"","review":"https:\/\/www.privateschoolreview.com\/dover-montessori-country-day-academy-profile","virtual":"No"},{"title":"Downes (John R.) Elementary School","lat":"39.683245","lon":"-75.775504","type":"Traditional Public School","address":"220 Casho Mill Road","grades":["Elementary"],"city":"Newark","state":"DE","zip":"19711","phone":"(302) 454-2133","low":"K","high":"5","students":"413","cost":"No","url":"http:\/\/www.christina.k12.de.us\/downes\/","review":"https:\/\/www.publicschoolreview.com\/downes-john-r-elementary-school-profile","virtual":"No"},{"title":"Downie (Carrie) Elementary School","lat":"39.664087","lon":"-75.577226","type":"Traditional Public School","address":"1201 Delaware Street","grades":["Elementary"],"city":"New Castle","state":"DE","zip":"19720","phone":"(302) 323-2926","low":"K","high":"5","students":"372","cost":"No","url":"http:\/\/www.colonialschooldistrict.org\/carriedownie\/","review":"https:\/\/www.publicschoolreview.com\/downie-carrie-elementary-school-profile","virtual":"No"},{"title":"Dupont (Alexis I.) High School","lat":"39.778765","lon":"-75.600025","type":"Traditional Public School","address":"50 Hillside Road","grades":["High"],"city":"Wilmington","state":"DE","zip":"19807","phone":"(302) 651-2626","low":"9","high":"12","students":"717","cost":"No","url":"https:\/\/de01903704.schoolwires.net\/Domain\/132","review":"https:\/\/www.publicschoolreview.com\/dupont-alexis-i-high-school-profile","virtual":"No"},{"title":"Dupont (Alexis I.) Middle School","lat":"39.767069","lon":"-75.584765","type":"Traditional Public School","address":"3130 Kennett Pike","grades":["Middle"],"city":"Wilmington","state":"DE","zip":"19807","phone":"(302) 651-2690","low":"6","high":"8","students":"471","cost":"No","url":"https:\/\/www.redclayschools.com\/aims","review":"https:\/\/www.publicschoolreview.com\/dupont-alexis-i-middle-school-profile","virtual":"No"},{"title":"Dupont (H.B.) Middle School","lat":"39.799437","lon":"-75.692924","type":"Traditional Public School","address":"735 Meeting House Road","grades":["Middle"],"city":"Hockessin","state":"DE","zip":"19707","phone":"(302) 239-3420","low":"6","high":"8","students":"759","cost":"No","url":"https:\/\/www.redclayschools.com\/hb","review":"https:\/\/www.publicschoolreview.com\/dupont-h-b-middle-school-profile","virtual":"No"},{"title":"Dupont (Pierre S.) Middle School","lat":"39.76532","lon":"-75.535234","type":"Traditional Public School","address":"701 West 34th Street","grades":["Middle"],"city":"Wilmington","state":"DE","zip":"19802","phone":"(302) 762-7146","low":"6","high":"8","students":"932","cost":"No","url":"https:\/\/www.brandywineschools.org\/psdupont","review":"https:\/\/www.publicschoolreview.com\/dupont-pierre-s-middle-school-profile","virtual":"No"},{"title":"Early Childhood Lab School","lat":"39.158168","lon":"-75.5243682","type":"Private School","address":"1200 N Dupont Hwy EH 116","grades":["Pre-K","Elementary"],"city":"Dover","state":"DE","zip":"19901","phone":"(302) 857-6731","low":"NS","high":"K","students":"54","cost":"Yes","url":"https:\/\/www.desu.edu\/","review":"https:\/\/www.privateschoolreview.com\/early-childhood-lab-school-profile","virtual":"No"},{"title":"Early College High School At Del State","lat":"39.1579104","lon":"-75.5221407","type":"Public Charter School","address":"1570 North Dupont Highway","grades":["High"],"city":"Dover","state":"DE","zip":"19901","phone":"(302) 678-3247","low":"9","high":"12","students":"399","cost":"No","url":"https:\/\/www.echs.desu.edu\/","review":"https:\/\/www.publicschoolreview.com\/early-college-high-school-at-del-state-profile","virtual":"No"},{"title":"East Dover Elementary School","lat":"39.157117","lon":"-75.503841","type":"Traditional Public School","address":"852 South Little Creek Road","grades":["Elementary"],"city":"Dover","state":"DE","zip":"19901","phone":"(302) 672-1655","low":"K","high":"4","students":"327","cost":"No","url":"http:\/\/www.east.capital.k12.de.us","review":"https:\/\/www.publicschoolreview.com\/east-dover-elementary-school-profile","virtual":"No"},{"title":"East Millsboro Elementary School","lat":"38.585241","lon":"-75.277733","type":"Traditional Public School","address":"29346 Iron Branch Road","grades":["Elementary"],"city":"Millsboro","state":"DE","zip":"19966","phone":"(302) 934-3222","low":"K","high":"5","students":"809","cost":"No","url":"https:\/\/eme.irsd.net\/","review":"https:\/\/www.publicschoolreview.com\/east-millsboro-elementary-school-profile","virtual":"No"},{"title":"East Side Charter School","lat":"39.752155","lon":"-75.523191","type":"Public Charter School","address":"3000 North Claymont Street","grades":["Elementary","Middle"],"city":"Wilmington","state":"DE","zip":"19802","phone":"(302) 762-5834","low":"K","high":"8","students":"449","cost":"No","url":"https:\/\/www.eastsidecharterschool.org\/","review":"https:\/\/www.publicschoolreview.com\/east-side-charter-school-profile","virtual":"No"},{"title":"Edison (Thomas A.) Charter School","lat":"39.748369","lon":"-75.533074","type":"Public Charter School","address":"2200 North Locust Street","grades":["Elementary","Middle"],"city":"Wilmington","state":"DE","zip":"19802","phone":"(302) 778-1101","low":"K","high":"8","students":"701","cost":"No","url":"http:\/\/thomasedison.charter.k12.de.us\/","review":"https:\/\/www.publicschoolreview.com\/edison-thomas-a-charter-school-profile","virtual":"No"},{"title":"Educational Enrichment Center","lat":"39.79968627","lon":"-75.54966307","type":"Private School","address":"730 Halstead Rd","grades":["Pre-K","Elementary"],"city":"Wilmington","state":"DE","zip":"19803","phone":"(302) 478-8697","low":"PK","high":"K","students":"44","cost":"Yes","url":"https:\/\/www.eecde.org\/","review":"","virtual":"No"},{"title":"Eisenberg (Harry O.) Elementary School","lat":"39.688852","lon":"-75.559075","type":"Traditional Public School","address":"27 Landers Lane","grades":["Elementary"],"city":"New Castle","state":"DE","zip":"19720","phone":"(302) 429-4074","low":"K","high":"5","students":"467","cost":"No","url":"http:\/\/www.colonialschooldistrict.org\/eisenberg","review":"https:\/\/www.publicschoolreview.com\/eisenberg-harry-o-elementary-school-profile","virtual":"No"},{"title":"Ennis (Howard T.) School","lat":"38.693041","lon":"-75.409447","type":"Specialized Public School","address":"20346 Ennis Road","grades":["Pre-K","Elementary","Middle","High"],"city":"Georgetown","state":"DE","zip":"19947","phone":"(302) 856-1930","low":"PK","high":"12","students":"141","cost":"No","url":"https:\/\/he.irsd.net\/","review":"https:\/\/www.publicschoolreview.com\/ennis-howard-t-school-profile","virtual":"No"},{"title":"Epworth Christian School","lat":"38.5634","lon":"-75.5646","type":"Private School","address":"14511 Sycamore Road","grades":["Pre-K","Elementary","Middle"],"city":"Laurel","state":"DE","zip":"19956","phone":"(302) 875-4488","low":"PK","high":"8","students":"158","cost":"Yes","url":"https:\/\/epworthcs.com\/","review":"https:\/\/www.privateschoolreview.com\/epworth-christian-school-profile","virtual":"No"},{"title":"F. Niel Postlethwait Middle School","lat":"39.099054","lon":"-75.512557","type":"Traditional Public School","address":"2841 South State Street","grades":["Middle"],"city":"Camden Wyoming","state":"DE","zip":"19934","phone":"(302) 698-8410","low":"6","high":"8","students":"855","cost":"No","url":"https:\/\/www.crk12.org\/pms","review":"https:\/\/www.publicschoolreview.com\/f-niel-postlethwait-middle-school-profile","virtual":"No"},{"title":"Fairview Elementary School","lat":"39.171117","lon":"-75.538642","type":"Traditional Public School","address":"700 Walker Road","grades":["Elementary"],"city":"Dover","state":"DE","zip":"19904","phone":"(302) 672-1645","low":"K","high":"4","students":"277","cost":"No","url":"http:\/\/www.fairview.capital.k12.de.us","review":"https:\/\/www.publicschoolreview.com\/fairview-elementary-school-profile\/19904","virtual":"No"},{"title":"Fairwinds Christian School","lat":"39.6416","lon":"-75.648","type":"Private School","address":"801 Seymour Rd","grades":["Pre-K","Elementary","Middle","High"],"city":"Bear","state":"DE","zip":"19701","phone":"(302) 328-7404","low":"NS","high":"12","students":"262","cost":"Yes","url":"https:\/\/www.Fairwindschristianschool.com\/","review":"https:\/\/www.privateschoolreview.com\/fairwinds-christian-school-profile","virtual":"No"},{"title":"Faith Preschool & Child Care","lat":"39.78292041","lon":"-75.5063","type":"Private School","address":"720 Marsh Rd","grades":["Pre-K","Elementary"],"city":"Wilmington","state":"DE","zip":"19803","phone":"(302) 764-8624","low":"PK","high":"K","students":"54","cost":"Yes","url":"https:\/\/faithwilmington.com\/","review":"https:\/\/www.privateschoolreview.com\/faith-preschool-child-care-profile","virtual":"No"},{"title":"First State Military Academy","lat":"39.158","lon":"-75.5219","type":"Public Charter School","address":"355 West Duck Creek Road, P.o.","grades":["High"],"city":"Clayton","state":"DE","zip":"19938","phone":"(302) 223-2150","low":"9","high":"12","students":"458","cost":"No","url":"https:\/\/www.fsmilitary.org\/","review":"https:\/\/www.publicschoolreview.com\/first-state-military-academy-profile","virtual":"No"},{"title":"First State Montessori Academy","lat":"39.1579104","lon":"-75.5221407","type":"Public Charter School","address":"Null, Null","grades":["Elementary","Middle"],"city":"Wilmington","state":"DE","zip":"19801","phone":"(302) 576-1500","low":"K","high":"8","students":"604","cost":"No","url":"https:\/\/firststatemontessori.org\/","review":"https:\/\/www.publicschoolreview.com\/first-state-montessori-academy-profile","virtual":"No"},{"title":"First State School","lat":"39.750981","lon":"-75.549947","type":"Specialized Public School","address":"501 West 14th Street","grades":["Elementary","Middle","High"],"city":"Wilmington","state":"DE","zip":"19899","phone":"(302) 320-5848","low":"2","high":"12","students":"20","cost":"No","url":"https:\/\/christianacare.org\/services\/firststateschool\/","review":"https:\/\/www.publicschoolreview.com\/first-state-school-profile","virtual":"No"},{"title":"Forest Oak Elementary School","lat":"39.706152","lon":"-75.683145","type":"Traditional Public School","address":"55 South Meadowood Drive","grades":["Elementary"],"city":"Newark","state":"DE","zip":"19711","phone":"(302) 454-3420","low":"K","high":"5","students":"462","cost":"No","url":"https:\/\/www.redclayschools.com\/forestoak","review":"https:\/\/www.publicschoolreview.com\/forest-oak-elementary-school-profile","virtual":"No"},{"title":"Forwood Elementary School","lat":"39.807899","lon":"-75.503942","type":"Traditional Public School","address":"1900 Westminster Drive","grades":["Elementary"],"city":"Wilmington","state":"DE","zip":"19810","phone":"(302) 475-3956","low":"K","high":"5","students":"359","cost":"No","url":"https:\/\/www.brandywineschools.org\/forwood","review":"https:\/\/www.publicschoolreview.com\/forwood-elementary-school-profile","virtual":"No"},{"title":"Foulk Pre - School(Bellefonte)","lat":"39.7662509","lon":"-75.499305","type":"Private School","address":"901 Rosedale Avenue Bellefonte","grades":["Pre-K","Elementary"],"city":"Wilmington","state":"DE","zip":"19809","phone":"(302) 764-3131","low":"PK","high":"K","students":"37","cost":"Yes","url":"","review":"https:\/\/www.privateschoolreview.com\/foulk-pre-school-bellefonte-profile","virtual":"No"},{"title":"Fred Fifer Iii Middle School","lat":"39.115219","lon":"-75.549996","type":"Traditional Public School","address":"109 East Camden-wyoming Avenue","grades":["Middle"],"city":"Camden Wyoming","state":"DE","zip":"19934","phone":"(302) 698-8400","low":"6","high":"8","students":"955","cost":"No","url":"https:\/\/www.crk12.org\/fms","review":"https:\/\/www.publicschoolreview.com\/fred-fifer-iii-middle-school-profile","virtual":"No"},{"title":"Frederick Douglass Elementary School","lat":"38.6754","lon":"-75.59292","type":"Traditional Public School","address":"1 Swain Road","grades":["Elementary"],"city":"Seaford","state":"DE","zip":"19973","phone":"(302) 629-4587","low":"3","high":"5","students":"415","cost":"No","url":"https:\/\/fdes.seafordbluejays.org\/","review":"https:\/\/www.publicschoolreview.com\/frederick-douglass-elementary-school-profile","virtual":"No"},{"title":"Freire Charter School","lat":"39.7498807","lon":"-75.54673","type":"Public Charter School","address":"Null, Null","grades":["Middle","High"],"city":"Wilmington","state":"DE","zip":"19801","phone":"(302) 407-4800","low":"8","high":"12","students":"501","cost":"No","url":"https:\/\/www.freirewilmington.org\/","review":"https:\/\/www.publicschoolreview.com\/freire-charter-school-profile\/19801","virtual":"No"},{"title":"Gallaher (Robert S.) Elementary School","lat":"39.680426","lon":"-75.67784","type":"Traditional Public School","address":"800 North Brownleaf Road","grades":["Elementary"],"city":"Newark","state":"DE","zip":"19713","phone":"(302) 454-2464","low":"K","high":"5","students":"470","cost":"No","url":"https:\/\/www.christinak12.org\/GallaherES","review":"https:\/\/www.publicschoolreview.com\/gallaher-robert-s-elementary-school-profile","virtual":"No"},{"title":"Gateway Lab School","lat":"39.749789","lon":"-75.625603","type":"Public Charter School","address":"2501 Centerville Road","grades":["Elementary","Middle"],"city":"Wilmington","state":"DE","zip":"19808","phone":"(302) 633-4091","low":"3","high":"8","students":"158","cost":"No","url":"https:\/\/www.gatewaylabschool.org\/","review":"https:\/\/www.publicschoolreview.com\/gateway-lab-school-profile","virtual":"No"},{"title":"Gauger - Cobbs Middle School","lat":"39.659107","lon":"-75.716632","type":"Traditional Public School","address":"50 Gender Road","grades":["Middle"],"city":"Newark","state":"DE","zip":"19713","phone":"(302) 454-2358","low":"6","high":"8","students":"862","cost":"No","url":"http:\/\/www.christina.k12.de.us\/gaugercobbs\/","review":"https:\/\/www.publicschoolreview.com\/gauger-cobbs-middle-school-profile","virtual":"No"},{"title":"Geneva Academy","lat":"38.835184","lon":"-75.395873","type":"Private School","address":"11146 Ponder Rd","grades":["Pre-K","Elementary","Middle","High"],"city":"Lincoln","state":"DE","zip":"19960","phone":"(302) 422-2130","low":"PK","high":"12","students":"23","cost":"Yes","url":"","review":"https:\/\/www.privateschoolreview.com\/geneva-academy-profile\/19960","virtual":"No"},{"title":"Georgetown Elementary School","lat":"38.685978","lon":"-75.390843","type":"Traditional Public School","address":"301-a West Market Street","grades":["Pre-K","Elementary"],"city":"Georgetown","state":"DE","zip":"19947","phone":"(302) 856-1940","low":"PK","high":"5","students":"916","cost":"No","url":"https:\/\/ge.irsd.net\/","review":"https:\/\/www.publicschoolreview.com\/georgetown-elementary-school-profile\/19947","virtual":"No"},{"title":"Georgetown Middle School","lat":"38.685978","lon":"-75.390843","type":"Traditional Public School","address":"301 West Market Street","grades":["Middle"],"city":"Georgetown","state":"DE","zip":"19947","phone":"(302) 856-1900","low":"6","high":"8","students":"874","cost":"No","url":"https:\/\/gm.irsd.net\/","review":"https:\/\/www.publicschoolreview.com\/georgetown-middle-school-profile","virtual":"No"},{"title":"Glasgow Christian Academy","lat":"39.58338765","lon":"-75.73999846","type":"Private School","address":"2880 Summit Bridge Rd","grades":["Pre-K","Elementary","Middle","High"],"city":"Bear","state":"DE","zip":"19701","phone":"(302) 392-1090","low":"NS","high":"12","students":"199","cost":"Yes","url":"https:\/\/www.reachschools.online\/our-schools\/glasgow-christian-academy\/","review":"https:\/\/www.privateschoolreview.com\/glasgow-christian-academy-profile\/19701","virtual":"No"},{"title":"Glasgow High School","lat":"39.628369","lon":"-75.7393","type":"Traditional Public School","address":"1901 South College Avenue","grades":["High"],"city":"Newark","state":"DE","zip":"19702","phone":"(302) 631-5600","low":"9","high":"12","students":"734","cost":"No","url":"http:\/\/www.christina.k12.de.us\/glasgow\/","review":"https:\/\/www.publicschoolreview.com\/glasgow-high-school-profile","virtual":"No"},{"title":"Grace Church Preschool","lat":"39.7464627","lon":"-75.5516613","type":"Private School","address":"900 N Washington Street","grades":["Pre-K"],"city":"Wilmington","state":"DE","zip":"19801","phone":"(302) 655-8847","low":"NS","high":"PK","students":"80","cost":"Yes","url":"","review":"https:\/\/www.privateschoolreview.com\/grace-church-preschool-profile","virtual":"No"},{"title":"Great New Beginnings","lat":"39.6092644","lon":"-75.6965932","type":"Private School","address":"14 St. Andrews Road","grades":["Pre-K","Elementary"],"city":"Bear","state":"DE","zip":"19701","phone":"(302) 838-1000","low":"NS","high":"4","students":"160","cost":"Yes","url":"https:\/\/gnbkids.com\/","review":"https:\/\/www.privateschoolreview.com\/great-new-beginnings-profile","virtual":"No"},{"title":"Great Oaks Charter School","lat":"39.7468311","lon":"-75.5441372","type":"Public Charter School","address":"1200 North French St","grades":["Middle","High"],"city":"Wilmington","state":"DE","zip":"19801","phone":"(302) 332-6110","low":"6","high":"11","students":"318","cost":"No","url":"https:\/\/wilmington.greatoakscharter.org\/","review":"https:\/\/www.publicschoolreview.com\/great-oaks-charter-school-profile\/19801","virtual":"No"},{"title":"Greenwood Mennonite School","lat":"38.8122","lon":"-75.5647","type":"Private School","address":"12802 Mennonite School Road","grades":["Pre-K","Elementary","Middle","High"],"city":"Greenwood","state":"DE","zip":"19950","phone":"(302) 349-4131","low":"PK","high":"12","students":"289","cost":"Yes","url":"https:\/\/www.gms-flames.org\/","review":"https:\/\/www.privateschoolreview.com\/greenwood-mennonite-school-profile","virtual":"No"},{"title":"H. O. Brittingham Elementary School","lat":"38.78117","lon":"-75.315253","type":"Traditional Public School","address":"400 Mulberry Street","grades":["Elementary"],"city":"Milton","state":"DE","zip":"19968","phone":"(302) 684-8522","low":"K","high":"5","students":"428","cost":"No","url":"https:\/\/www.capehenlopenschools.com\/Domain\/11","review":"https:\/\/www.publicschoolreview.com\/h-o-brittingham-elementary-school-profile","virtual":"No"},{"title":"Hanby Elementary School","lat":"39.82376","lon":"-75.519494","type":"Traditional Public School","address":"2523 Berwyn Road","grades":["Elementary"],"city":"Wilmington","state":"DE","zip":"19810","phone":"(302) 479-2220","low":"K","high":"5","students":"494","cost":"No","url":"https:\/\/www.brandywineschools.org\/hanby","review":"https:\/\/www.publicschoolreview.com\/hanby-elementary-school-profile","virtual":"No"},{"title":"Harlan (David W. ) Elementary School","lat":"39.762743","lon":"-75.529495","type":"Traditional Public School","address":"3601 Jefferson Street","grades":["Elementary"],"city":"Wilmington","state":"DE","zip":"19802","phone":"(302) 762-7156","low":"K","high":"5","students":"357","cost":"No","url":"https:\/\/www.brandywineschools.org\/Domain\/416","review":"https:\/\/www.publicschoolreview.com\/harlan-david-w-elementary-school-profile","virtual":"No"},{"title":"Hartly Elementary School","lat":"39.165853","lon":"-75.716075","type":"Traditional Public School","address":"2617 Arthursville Road, 2617 A","grades":["Elementary"],"city":"Hartly","state":"DE","zip":"19953","phone":"(302) 492-1870","low":"K","high":"4","students":"280","cost":"No","url":"http:\/\/www.hartly.capital.k12.de.us","review":"https:\/\/www.publicschoolreview.com\/hartly-elementary-school-profile","virtual":"No"},{"title":"Harvest Christian Academy - Wilmington","lat":"39.74910087","lon":"-75.58020175","type":"Private School","address":"2205 Lancaster Ave","grades":["Pre-K","Elementary","Middle"],"city":"Wilmington","state":"DE","zip":"19805","phone":"(302) 654-2613","low":"PK","high":"6","students":"94","cost":"Yes","url":"https:\/\/www.hcade.org:443\/","review":"https:\/\/www.privateschoolreview.com\/harvest-christian-academy-wilmington-profile","virtual":"No"},{"title":"Heritage Elementary School","lat":"39.722282","lon":"-75.684359","type":"Traditional Public School","address":"2815 Highlands Lane","grades":["Elementary"],"city":"Wilmington","state":"DE","zip":"19808","phone":"(302) 454-3424","low":"K","high":"5","students":"492","cost":"No","url":"https:\/\/www.redclayschools.com\/heritage","review":"https:\/\/www.publicschoolreview.com\/heritage-elementary-school-profile\/19808","virtual":"No"},{"title":"High Road School Of Delaware","lat":"39.06968","lon":"-75.554451","type":"Private School","address":"7012 S Dupont Hwy","grades":["Elementary","Middle","High"],"city":"Felton","state":"DE","zip":"19943","phone":"(302) 538-6345","low":"5","high":"12","students":"23","cost":"Yes","url":"https:\/\/sesischools.com\/locations\/delaware\/high-road-school-of-southern-delaware\/","review":"","virtual":"No"},{"title":"High Road School Of Delaware","lat":"39.74096942","lon":"-75.58425226","type":"Private School","address":"2002 Rodman Rd","grades":["Elementary","Middle","High"],"city":"Wilmington","state":"DE","zip":"19805","phone":"(302) 575-1266","low":"4","high":"12","students":"23","cost":"Yes","url":"https:\/\/sesischools.com\/locations\/delaware\/high-road-school-of-delaware\/","review":"","virtual":"No"},{"title":"Highland Mennonite School","lat":"39.6531257","lon":"-75.6468129","type":"Private School","address":"180 School Bell Road","grades":["Elementary","Middle","High"],"city":"Bear","state":"DE","zip":"19701","phone":"(302) 328-9025","low":"1","high":"10","students":"22","cost":"Yes","url":"","review":"https:\/\/www.privateschoolreview.com\/highland-mennonite-school-profile","virtual":"No"},{"title":"Highlands Elementary School","lat":"39.762404","lon":"-75.56563","type":"Traditional Public School","address":"2100 Gilpin Avenue","grades":["Elementary"],"city":"Wilmington","state":"DE","zip":"19806","phone":"(302) 651-2715","low":"K","high":"5","students":"292","cost":"No","url":"https:\/\/www.redclayschools.com\/highlands","review":"https:\/\/www.publicschoolreview.com\/highlands-elementary-school-profile\/19806","virtual":"No"},{"title":"Hockessin Kindercare","lat":"39.771496","lon":"-75.669464","type":"Private School","address":"6696 Lancaster Pike","grades":["Pre-K"],"city":"Hockessin","state":"DE","zip":"19707","phone":"(302) 234-8680","low":"NS","high":"PK","students":"30","cost":"Yes","url":"https:\/\/www.kindercare.com\/our-centers\/hockessin\/de\/301633?utm_campaign=kc-lg&utm_source=psr&utm_medium=pro","review":"https:\/\/www.privateschoolreview.com\/hockessin-kindercare-profile","virtual":"No"},{"title":"Hodgson (Paul M.) Vocational Technical High School","lat":"39.599737","lon":"-75.743237","type":"Specialized Public School","address":"2575 Glasgow Avenue","grades":["High"],"city":"Newark","state":"DE","zip":"19702","phone":"(302) 834-0990","low":"9","high":"12","students":"1103","cost":"No","url":"https:\/\/hodgson.nccvt.k12.de.us\/","review":"https:\/\/www.publicschoolreview.com\/hodgson-paul-m-vocational-technical-high-school-profile","virtual":"No"},{"title":"Holy Angels Elementary School","lat":"39.7014","lon":"-75.72692083","type":"Private School","address":"82 Possum Park Rd","grades":["Pre-K","Elementary","Middle"],"city":"Newark","state":"DE","zip":"19711","phone":"(302) 731-2211","low":"PK","high":"8","students":"403","cost":"Yes","url":"https:\/\/www.holyangelsschool.org\/","review":"https:\/\/www.privateschoolreview.com\/holy-angels-elementary-school-profile","virtual":"No"},{"title":"Holy Cross School","lat":"39.15188333","lon":"-75.5225","type":"Private School","address":"631 S State St","grades":["Pre-K","Elementary","Middle"],"city":"Dover","state":"DE","zip":"19901","phone":"(302) 674-5784","low":"NS","high":"8","students":"328","cost":"Yes","url":"https:\/\/holycrossdover.org\/school","review":"https:\/\/www.privateschoolreview.com\/holy-cross-school-profile\/19901","virtual":"No"},{"title":"Howard High School Of Technology","lat":"39.745729","lon":"-75.542537","type":"Specialized Public School","address":"401 East 12th Street","grades":["High"],"city":"Wilmington","state":"DE","zip":"19801","phone":"(302) 571-5400","low":"9","high":"12","students":"875","cost":"No","url":"https:\/\/howard.nccvt.k12.de.us\/","review":"https:\/\/www.publicschoolreview.com\/howard-high-school-of-technology-profile","virtual":"No"},{"title":"Immaculate Heart Of Mary","lat":"39.7815","lon":"-75.5184","type":"Private School","address":"1000 Shipley Road","grades":["Pre-K","Elementary","Middle"],"city":"Wilmington","state":"DE","zip":"19803","phone":"(302) 764-0977","low":"PK","high":"8","students":"506","cost":"Yes","url":"http:\/\/ihm.org\/IHM_School\/","review":"https:\/\/www.privateschoolreview.com\/immaculate-heart-of-mary-profile\/19803","virtual":"No"},{"title":"Indian River High School","lat":"38.544818","lon":"-75.229543","type":"Traditional Public School","address":"29772 Armory Road","grades":["High"],"city":"Frankford","state":"DE","zip":"19945","phone":"(302) 732-1500","low":"9","high":"12","students":"968","cost":"No","url":"https:\/\/irhs.irsd.net\/","review":"https:\/\/www.publicschoolreview.com\/indian-river-high-school-profile","virtual":"No"},{"title":"Indian River Intensive Learning Center","lat":"38.461197","lon":"-75.226304","type":"Specialized Public School","address":"31 Hosier Street","grades":["Elementary","Middle","High"],"city":"Selbyville","state":"DE","zip":"19975","phone":"(302) 732-3800","low":"3","high":"12","students":"123","cost":"No","url":"","review":"https:\/\/www.publicschoolreview.com\/indian-river-intensive-learning-center-profile","virtual":"No"},{"title":"Islamic Academy Of Delaware","lat":"39.6656194","lon":"-75.7203874","type":"Private School","address":"22 Prestbury Sq","grades":["Pre-K","Elementary","Middle"],"city":"Newark","state":"DE","zip":"19713","phone":"(302) 455-9988","low":"PK","high":"8","students":"130","cost":"Yes","url":"https:\/\/www.iadonline.org\/","review":"","virtual":"No"},{"title":"J. Ralph Mcilvaine Early Childhood Center","lat":"39.072359","lon":"-75.475067","type":"Traditional Public School","address":"11 East Walnut, 11 East Walnut","grades":["Elementary"],"city":"Magnolia","state":"DE","zip":"19962","phone":"(302) 335-5039","low":"K","high":"K","students":"476","cost":"No","url":"https:\/\/www.crk12.org\/mecc","review":"https:\/\/www.publicschoolreview.com\/j-ralph-mcilvaine-early-childhood-center-profile","virtual":"No"},{"title":"John S. Charlton School","lat":"39.10321","lon":"-75.511605","type":"Specialized Public School","address":"278 Sorghum Mill Road","grades":["Pre-K","Elementary","Middle","High"],"city":"Dover","state":"DE","zip":"19901","phone":"(302) 697-3103","low":"PK","high":"12","students":"234","cost":"No","url":"https:\/\/www.crk12.org\/charlton","review":"https:\/\/www.publicschoolreview.com\/john-s-charlton-school-profile","virtual":"No"},{"title":"Jones (Albert H.) Elementary School","lat":"39.666708","lon":"-75.663415","type":"Traditional Public School","address":"35 West Main Street","grades":["Elementary"],"city":"Newark","state":"DE","zip":"19702","phone":"(302) 454-2131","low":"K","high":"5","students":"340","cost":"No","url":"http:\/\/www.christina.k12.de.us\/jones\/","review":"https:\/\/www.publicschoolreview.com\/jones-albert-h-elementary-school-profile","virtual":"No"},{"title":"Keene (William B.) Elementary School","lat":"39.602832","lon":"-75.727774","type":"Traditional Public School","address":"200 Lagrange Avenue","grades":["Elementary"],"city":"Newark","state":"DE","zip":"19702","phone":"(302) 454-2018","low":"K","high":"5","students":"508","cost":"No","url":"http:\/\/www.christina.k12.de.us\/keene\/","review":"https:\/\/www.publicschoolreview.com\/keene-william-b-elementary-school-profile","virtual":"No"},{"title":"Kent County Community School","lat":"39.16133","lon":"-75.54006","type":"Specialized Public School","address":"65-1 Carver Road","grades":["Pre-K","Elementary","Middle","High"],"city":"Dover","state":"DE","zip":"19904","phone":"(302) 672-1960","low":"PK","high":"12","students":"256","cost":"No","url":"http:\/\/www.kccs.capital.k12.de.us\/","review":"https:\/\/www.publicschoolreview.com\/kent-county-community-school-profile","virtual":"No"},{"title":"Kent County Secondary Ilc","lat":"39.163603","lon":"-75.538013","type":"Specialized Public School","address":"631 Ridgley Street- Suite 19","grades":["Middle","High"],"city":"Dover","state":"DE","zip":"19904","phone":"(302) 736-5355","low":"6","high":"12","students":"87","cost":"No","url":"http:\/\/www.kcilc.capital.k12.de.us\/","review":"https:\/\/www.publicschoolreview.com\/kent-county-secondary-ilc-profile","virtual":"No"},{"title":"Kent Elementary Intensive Learning Center","lat":"39.119068","lon":"-75.551184","type":"Specialized Public School","address":"5 Old North Road","grades":["Elementary"],"city":"Camden Wyoming","state":"DE","zip":"19934","phone":"(302) 697-3504","low":"1","high":"5","students":"32","cost":"No","url":"","review":"https:\/\/www.publicschoolreview.com\/kent-elementary-intensive-learning-center-profile","virtual":"No"},{"title":"Kids First Academy","lat":"38.869945","lon":"-75.421754","type":"Private School","address":"18883 Washington St.","grades":["Pre-K","Elementary","Middle","High"],"city":"Lincoln","state":"DE","zip":"19960","phone":"(302) 725-5073","low":"PK","high":"12","students":"34","cost":"Yes","url":"","review":"","virtual":"No"},{"title":"Kirk (George V.) Middle School","lat":"39.672315","lon":"-75.711867","type":"Traditional Public School","address":"140 Brennen Drive","grades":["Middle"],"city":"Newark","state":"DE","zip":"19713","phone":"(302) 451-7021","low":"6","high":"8","students":"739","cost":"No","url":"http:\/\/www.christina.k12.de.us\/kirk\/","review":"https:\/\/www.publicschoolreview.com\/kirk-george-v-middle-school-profile","virtual":"No"},{"title":"Kuumba Academy Charter School","lat":"39.731069","lon":"-75.556207","type":"Public Charter School","address":"1200 North French Street","grades":["Elementary","Middle"],"city":"Wilmington","state":"DE","zip":"19801","phone":"(302) 472-6450","low":"K","high":"8","students":"644","cost":"No","url":"https:\/\/www.kuumbaacademy.org\/","review":"https:\/\/www.publicschoolreview.com\/kuumba-academy-charter-school-profile","virtual":"No"},{"title":"Lake Forest Central Elementary School","lat":"38.989309","lon":"-75.552072","type":"Traditional Public School","address":"5424 Killens Pond Road","grades":["Elementary"],"city":"Felton","state":"DE","zip":"19943","phone":"(302) 284-5810","low":"4","high":"5","students":"621","cost":"No","url":"http:\/\/www.lf.k12.de.us\/central","review":"https:\/\/www.publicschoolreview.com\/lake-forest-central-elementary-school-profile","virtual":"No"},{"title":"Lake Forest East Elementary School","lat":"39.049204","lon":"-75.459623","type":"Traditional Public School","address":"124 West Front Street","grades":["Elementary"],"city":"Frederica","state":"DE","zip":"19946","phone":"(302) 335-5261","low":"K","high":"3","students":"282","cost":"No","url":"http:\/\/www.lf.k12.de.us\/east","review":"https:\/\/www.publicschoolreview.com\/lake-forest-east-elementary-school-profile","virtual":"No"},{"title":"Lake Forest High School","lat":"38.989334","lon":"-75.551904","type":"Traditional Public School","address":"5407 Killens Pond Road","grades":["High"],"city":"Felton","state":"DE","zip":"19943","phone":"(302) 284-9291","low":"9","high":"12","students":"814","cost":"No","url":"https:\/\/www.lf.k12.de.us\/o\/lfhs","review":"https:\/\/www.publicschoolreview.com\/lake-forest-high-school-profile","virtual":"No"},{"title":"Lake Forest North Elementary School","lat":"39.007202","lon":"-75.570635","type":"Traditional Public School","address":"319 East Main Street","grades":["Pre-K","Elementary"],"city":"Felton","state":"DE","zip":"19943","phone":"(302) 284-9611","low":"PK","high":"3","students":"462","cost":"No","url":"http:\/\/www.lf.k12.de.us\/north","review":"https:\/\/www.publicschoolreview.com\/lake-forest-north-elementary-school-profile","virtual":"No"},{"title":"Lake Forest South Elementary School","lat":"38.928318","lon":"-75.580901","type":"Traditional Public School","address":"301 Dorman Street","grades":["Elementary"],"city":"Harrington","state":"DE","zip":"19952","phone":"(302) 398-8011","low":"K","high":"3","students":"388","cost":"No","url":"http:\/\/www.lf.k12.de.us\/south","review":"https:\/\/www.publicschoolreview.com\/lake-forest-south-elementary-school-profile","virtual":"No"},{"title":"Lancashire Elementary School","lat":"39.823608","lon":"-75.493101","type":"Traditional Public School","address":"2000 Naamans Road","grades":["Elementary"],"city":"Wilmington","state":"DE","zip":"19810","phone":"(302) 475-3990","low":"K","high":"5","students":"520","cost":"No","url":"https:\/\/www.brandywineschools.org\/lancashire","review":"https:\/\/www.publicschoolreview.com\/lancashire-elementary-school-profile","virtual":"No"},{"title":"Las Americas Aspira Academy","lat":"39.7457735","lon":"-75.5487001","type":"Public Charter School","address":"326 Ruthar Drive","grades":["Elementary","Middle","High"],"city":"Newark","state":"DE","zip":"19711","phone":"(302) 292-1463","low":"K","high":"9","students":"1060","cost":"No","url":"https:\/\/aspiraacademy.org\/","review":"https:\/\/www.publicschoolreview.com\/las-americas-aspira-academy-profile","virtual":"No"},{"title":"Laurel Elementary School","lat":"38.5524","lon":"-75.5702","type":"Traditional Public School","address":"801 South Central Avenue","grades":["Elementary"],"city":"Laurel","state":"DE","zip":"19956","phone":"(302) 875-6110","low":"1","high":"5","students":"980","cost":"No","url":"https:\/\/www.laurelschooldistrict.org\/les","review":"https:\/\/www.publicschoolreview.com\/laurel-elementary-school-profile\/19956","virtual":"No"},{"title":"Laurel Middle School","lat":"38.5524","lon":"-75.5702","type":"Traditional Public School","address":"1133 S Central Ave","grades":["Middle"],"city":"Laurel","state":"DE","zip":"19956","phone":"(302) 875-6110","low":"6","high":"8","students":"701","cost":"No","url":"https:\/\/www.laurelschooldistrict.org\/lms","review":"https:\/\/www.publicschoolreview.com\/laurel-middle-school-profile\/19956","virtual":"No"},{"title":"Laurel Senior High School","lat":"38.549641","lon":"-75.569403","type":"Traditional Public School","address":"1133 South Central Avenue","grades":["High"],"city":"Laurel","state":"DE","zip":"19956","phone":"(302) 875-6120","low":"9","high":"12","students":"671","cost":"No","url":"https:\/\/www.laurelschooldistrict.org\/lhs","review":"https:\/\/www.publicschoolreview.com\/laurel-senior-high-school-profile","virtual":"No"},{"title":"Leach (John G.) School","lat":"39.688184","lon":"-75.557806","type":"Specialized Public School","address":"10 Landers Lane","grades":["Pre-K","Elementary","Middle","High"],"city":"New Castle","state":"DE","zip":"19720","phone":"(302) 429-4055","low":"PK","high":"12","students":"82","cost":"No","url":"http:\/\/www.colonialschooldistrict.org\/leach\/","review":"https:\/\/www.publicschoolreview.com\/leach-john-g-school-profile","virtual":"No"},{"title":"Learning Express Academy","lat":"39.6374","lon":"-75.6865","type":"Private School","address":"302 Darling St","grades":["Elementary","Middle"],"city":"Newark","state":"DE","zip":"19702","phone":"(302) 737-8260","low":"K","high":"8","students":"73","cost":"Yes","url":"http:\/\/www.learningexpressschool.org","review":"https:\/\/www.privateschoolreview.com\/learning-express-academy-profile","virtual":"No"},{"title":"Leasure (May B.) Elementary School","lat":"39.620401","lon":"-75.68147","type":"Traditional Public School","address":"1015 Church Road","grades":["Elementary"],"city":"Newark","state":"DE","zip":"19702","phone":"(302) 454-2103","low":"K","high":"5","students":"398","cost":"No","url":"http:\/\/www.christina.k12.de.us\/leasure\/","review":"https:\/\/www.publicschoolreview.com\/leasure-may-b-elementary-school-profile","virtual":"No"},{"title":"Legal Name Bethel Preschool Of Lewes Inc.","lat":"38.77290617","lon":"-75.14233756","type":"Private School","address":"129 W 4th St","grades":["Pre-K","Elementary"],"city":"Lewes","state":"DE","zip":"19958","phone":"(302) 645-5132","low":"PK","high":"K","students":"95","cost":"Yes","url":"https:\/\/www.bethellewes.org\/","review":"","virtual":"No"},{"title":"Lela Day School","lat":"39.606526","lon":"-75.70819","type":"Private School","address":"234 Rickey Blvd","grades":["Elementary"],"city":"Bear","state":"DE","zip":"19701","phone":"(302) 832-1833","low":"K","high":"1","students":"108","cost":"Yes","url":"https:\/\/www.lelaonline.com\/","review":"","virtual":"No"},{"title":"Lewis (William C.) Dual Language Elementary School","lat":"39.749146","lon":"-75.558792","type":"Traditional Public School","address":"920 North Van Buren Street","grades":["Elementary"],"city":"Wilmington","state":"DE","zip":"19806","phone":"(302) 651-2695","low":"K","high":"5","students":"409","cost":"No","url":"https:\/\/www.redclayschools.com\/lewis","review":"https:\/\/www.publicschoolreview.com\/lewis-william-c-dual-language-elementary-school-profile","virtual":"No"},{"title":"Liberty Christian Academy","lat":"39.6813118","lon":"-75.5897717","type":"Private School","address":"219 N Dupont Highway","grades":["Pre-K","Elementary","Middle"],"city":"New Castle","state":"DE","zip":"19720","phone":"(302) 325-9400","low":"PK","high":"8","students":"111","cost":"Yes","url":"https:\/\/www.libertychristianacademy.org\/","review":"https:\/\/www.privateschoolreview.com\/liberty-christian-academy-profile\/19720","virtual":"No"},{"title":"Lighthouse Christian School","lat":"38.562","lon":"-75.1934","type":"Private School","address":"28157 Lighthouse Xing","grades":["Pre-K","Elementary","Middle"],"city":"Dagsboro","state":"DE","zip":"19939","phone":"(302) 732-3309","low":"PK","high":"8","students":"134","cost":"Yes","url":"https:\/\/www.lighthousechristianschool.com\/","review":"https:\/\/www.privateschoolreview.com\/lighthouse-christian-school-profile\/19939","virtual":"No"},{"title":"Lil' Red Hen Kindergarten","lat":"38.46173158","lon":"-75.5741","type":"Private School","address":"400 N Bi State Blvd","grades":["Pre-K"],"city":"Delmar","state":"DE","zip":"19940","phone":"(302) 846-2777","low":"NS","high":"PK","students":"98","cost":"Yes","url":"https:\/\/lilredhen.com\/","review":"","virtual":"No"},{"title":"Limestone Hills Day School","lat":"39.7492","lon":"-75.6995","type":"Private School","address":"5671 Ocheltree Ln","grades":["Pre-K","Elementary"],"city":"Wilmington","state":"DE","zip":"19808","phone":"(302) 239-9041","low":"PK","high":"K","students":"63","cost":"Yes","url":"https:\/\/www.limestonehillsdayschool.com\/","review":"https:\/\/www.privateschoolreview.com\/limestone-hills-day-school-profile","virtual":"No"},{"title":"Linden Hill Elementary School","lat":"39.734097","lon":"-75.694441","type":"Traditional Public School","address":"3415 Skyline Drive","grades":["Elementary"],"city":"Wilmington","state":"DE","zip":"19808","phone":"(302) 454-3406","low":"K","high":"5","students":"634","cost":"No","url":"https:\/\/www.redclayschools.com\/lindenhill","review":"https:\/\/www.publicschoolreview.com\/linden-hill-elementary-school-profile","virtual":"No"},{"title":"Lombardy Elementary School","lat":"39.785366","lon":"-75.536906","type":"Traditional Public School","address":"412 Foulk Road","grades":["Elementary"],"city":"Wilmington","state":"DE","zip":"19803","phone":"(302) 762-7190","low":"K","high":"5","students":"451","cost":"No","url":"https:\/\/www.brandywineschools.org\/lombardy","review":"https:\/\/www.publicschoolreview.com\/lombardy-elementary-school-profile","virtual":"No"},{"title":"Long Neck Elementary School","lat":"38.629914","lon":"-75.184683","type":"Traditional Public School","address":"26064 School Lane","grades":["Elementary"],"city":"Millsboro","state":"DE","zip":"19966","phone":"(302) 945-6200","low":"K","high":"5","students":"680","cost":"No","url":"https:\/\/lne.irsd.net\/","review":"https:\/\/www.publicschoolreview.com\/long-neck-elementary-school-profile","virtual":"No"},{"title":"Lord Baltimore Elementary School","lat":"38.545333","lon":"-75.098138","type":"Traditional Public School","address":"120 Atlantic Avenue","grades":["Elementary"],"city":"Ocean View","state":"DE","zip":"19970","phone":"(302) 537-2700","low":"K","high":"5","students":"622","cost":"No","url":"https:\/\/irlbe.ss7.sharpschool.com\/","review":"https:\/\/www.publicschoolreview.com\/lord-baltimore-elementary-school-profile","virtual":"No"},{"title":"Lorewood Grove Elementary School","lat":"39.438254","lon":"-75.65237","type":"Traditional Public School","address":"820 Mapleton Ave.","grades":["Elementary"],"city":"Middletown","state":"DE","zip":"19709","phone":"(302) 842-2575","low":"1","high":"5","students":"577","cost":"No","url":"","review":"https:\/\/www.publicschoolreview.com\/lorewood-grove-elementary-school-profile","virtual":"No"},{"title":"Loss (Olive B.) Elementary School","lat":"39.559724","lon":"-75.742227","type":"Traditional Public School","address":"200 Brennan Boulevard","grades":["Elementary"],"city":"Bear","state":"DE","zip":"19701","phone":"(302) 832-1343","low":"1","high":"5","students":"578","cost":"No","url":"https:\/\/www.olivebloss.org\/","review":"https:\/\/www.publicschoolreview.com\/loss-olive-b-elementary-school-profile","virtual":"No"},{"title":"Love Creek Elementary School","lat":"38.716271","lon":"-75.15238","type":"Traditional Public School","address":"19488 John J. Williams Hwy","grades":["Elementary"],"city":"Lewes","state":"DE","zip":"19958","phone":"(302) 703-3456","low":"K","high":"5","students":"672","cost":"No","url":"https:\/\/www.capehenlopenschools.com\/page\/17","review":"https:\/\/www.publicschoolreview.com\/love-creek-elementary-school-profile","virtual":"No"},{"title":"Maclary (R. Elisabeth) Elementary School","lat":"39.700684","lon":"-75.735475","type":"Traditional Public School","address":"300 St. Regis Drive","grades":["Elementary"],"city":"Newark","state":"DE","zip":"19711","phone":"(302) 454-2142","low":"K","high":"5","students":"286","cost":"No","url":"https:\/\/www.christinak12.org\/MaclaryES","review":"https:\/\/www.publicschoolreview.com\/maclary-r-elisabeth-elementary-school-profile","virtual":"No"},{"title":"Major George S. Welch Elementary School","lat":"39.11931","lon":"-75.49104","type":"Traditional Public School","address":"3100 Hawthorne Drive","grades":["Elementary"],"city":"Dover","state":"DE","zip":"19901","phone":"(302) 674-9080","low":"K","high":"5","students":"365","cost":"No","url":"https:\/\/www.crk12.org\/welch","review":"https:\/\/www.publicschoolreview.com\/major-george-s-welch-elementary-school-profile","virtual":"No"},{"title":"Maple Lane Elementary School","lat":"39.793168","lon":"-75.471998","type":"Traditional Public School","address":"100 Maple Lane","grades":["Elementary"],"city":"Claymont","state":"DE","zip":"19703","phone":"(302) 792-3906","low":"K","high":"5","students":"410","cost":"No","url":"https:\/\/www.brandywineschools.org\/Domain\/649","review":"https:\/\/www.publicschoolreview.com\/maple-lane-elementary-school-profile","virtual":"No"},{"title":"Maranatha Christian Academy","lat":"39.7604195","lon":"-75.5228232","type":"Private School","address":"4003 N Market St","grades":["Pre-K","Elementary"],"city":"Wilmington","state":"DE","zip":"19802","phone":"(302) 764-7162","low":"PK","high":"1","students":"14","cost":"Yes","url":"","review":"","virtual":"No"},{"title":"Marbrook Elementary School","lat":"39.742092","lon":"-75.623532","type":"Traditional Public School","address":"2101 Centerville Road","grades":["Elementary"],"city":"Wilmington","state":"DE","zip":"19808","phone":"(302) 992-5555","low":"K","high":"5","students":"428","cost":"No","url":"https:\/\/www.redclayschools.com\/marbrook","review":"https:\/\/www.publicschoolreview.com\/marbrook-elementary-school-profile","virtual":"No"},{"title":"Mariner Middle School","lat":"38.759463","lon":"-75.308989","type":"Traditional Public School","address":"16391 Harbeson Rd.","grades":["Middle"],"city":"Milton","state":"DE","zip":"19968","phone":"(302) 684-8516","low":"6","high":"8","students":"624","cost":"No","url":"http:\/\/www.mariner.cape.k12.de.us\/","review":"https:\/\/www.publicschoolreview.com\/mariner-middle-school-profile","virtual":"No"},{"title":"Marshall (Thurgood) Elementary School","lat":"39.645017","lon":"-75.682479","type":"Traditional Public School","address":"101 Barrett Run Road","grades":["Elementary"],"city":"Newark","state":"DE","zip":"19702","phone":"(302) 454-4700","low":"K","high":"5","students":"686","cost":"No","url":"https:\/\/www.google.com\/a\/christina.k12.de.us\/ServiceLogin2?continue=https%3A%2F%2Fsites.google.com%2Fa%2Fchristina.k12.de.us%2Fsites%2Fsystem%2Ferrors%2FWebspaceNotFound%3Fpath%3D%2Fmarshall%2F&followup=https%3A%2F%2Fsites.google.com%2Fa%2Fchristina.k12.d","review":"https:\/\/www.publicschoolreview.com\/marshall-thurgood-elementary-school-profile\/19702","virtual":"No"},{"title":"Mccullough (Calvin R. ) Middle School","lat":"39.697735","lon":"-75.557311","type":"Traditional Public School","address":"20 Chase Avenue","grades":["Middle"],"city":"New Castle","state":"DE","zip":"19720","phone":"(302) 429-4000","low":"6","high":"8","students":"761","cost":"No","url":"http:\/\/www.colonialschooldistrict.org\/mccullough\/","review":"https:\/\/www.publicschoolreview.com\/mccullough-calvin-r-middle-school-profile","virtual":"No"},{"title":"Mckean (Thomas) High School","lat":"39.758597","lon":"-75.661501","type":"Traditional Public School","address":"301 Mckennan's Church Road","grades":["High"],"city":"Wilmington","state":"DE","zip":"19808","phone":"(302) 992-5520","low":"9","high":"12","students":"911","cost":"No","url":"https:\/\/www.redclayschools.com\/mckean","review":"https:\/\/www.publicschoolreview.com\/mckean-thomas-high-school-profile","virtual":"No"},{"title":"Mcvey (Joseph M.) Elementary School","lat":"39.655424","lon":"-75.747689","type":"Traditional Public School","address":"908 Janice Drive","grades":["Elementary"],"city":"Newark","state":"DE","zip":"19713","phone":"(302) 454-2145","low":"K","high":"5","students":"332","cost":"No","url":"http:\/\/www.christina.k12.de.us\/mcvey\/","review":"https:\/\/www.publicschoolreview.com\/mcvey-joseph-m-elementary-school-profile","virtual":"No"},{"title":"Meadowood Kindercare","lat":"39.706535","lon":"-75.682701","type":"Private School","address":"50 S Meadowood Dr","grades":["Pre-K"],"city":"Newark","state":"DE","zip":"19711","phone":"(302) 453-8090","low":"NS","high":"PK","students":"See website","cost":"Yes","url":"https:\/\/www.kindercare.com\/our-centers\/newark\/de\/301158?utm_campaign=kc-lg&utm_source=psr&utm_medium=pro","review":"","virtual":"No"},{"title":"Meadowood Program","lat":"39.704419","lon":"-75.683317","type":"Specialized Public School","address":"55a South Meadowood Drive","grades":["Elementary","Middle","High"],"city":"Newark","state":"DE","zip":"19711","phone":"(302) 454-3400","low":"K","high":"12","students":"132","cost":"No","url":"http:\/\/redclay.schoolwires.net\/meadowood","review":"https:\/\/www.publicschoolreview.com\/meadowood-program-profile","virtual":"No"},{"title":"Meredith (Everett) Middle School","lat":"39.443082","lon":"-75.715024","type":"Traditional Public School","address":"504 South Broad Street","grades":["Middle"],"city":"Middletown","state":"DE","zip":"19709","phone":"(302) 378-5001","low":"6","high":"8","students":"982","cost":"No","url":"http:\/\/www.mmscrusaders.com","review":"https:\/\/www.publicschoolreview.com\/meredith-everett-middle-school-profile","virtual":"No"},{"title":"Middletown High School","lat":"39.448326","lon":"-75.696098","type":"Traditional Public School","address":"120 Silver Lake Road","grades":["High"],"city":"Middletown","state":"DE","zip":"19709","phone":"(302) 376-4141","low":"9","high":"12","students":"1701","cost":"No","url":"https:\/\/www.middletownhs.org\/","review":"https:\/\/www.publicschoolreview.com\/middletown-high-school-profile\/19709","virtual":"No"},{"title":"Milford Central Academy","lat":"38.929106","lon":"-75.42923","type":"Traditional Public School","address":"1021 N Walnut Street","grades":["Middle"],"city":"Milford","state":"DE","zip":"19963","phone":"(302) 430-7900","low":"6","high":"8","students":"1047","cost":"No","url":"https:\/\/mca.milfordschooldistrict.org\/","review":"https:\/\/www.publicschoolreview.com\/milford-central-academy-profile","virtual":"No"},{"title":"Milford Christian School","lat":"38.90510797","lon":"-75.44681962","type":"Private School","address":"6062 Old Shawnee Rd","grades":["Pre-K","Elementary","Middle","High"],"city":"Milford","state":"DE","zip":"19963","phone":"(302) 422-4263","low":"PK","high":"12","students":"119","cost":"Yes","url":"https:\/\/www.fbcmcs.org\/","review":"","virtual":"No"},{"title":"Milford Senior High School","lat":"38.928959","lon":"-75.429211","type":"Traditional Public School","address":"1019 North Walnut Street","grades":["High"],"city":"Milford","state":"DE","zip":"19963","phone":"(302) 422-1610","low":"9","high":"12","students":"1122","cost":"No","url":"https:\/\/mhs.milfordschooldistrict.org\/","review":"https:\/\/www.publicschoolreview.com\/milford-senior-high-school-profile","virtual":"No"},{"title":"Millsboro Middle School","lat":"38.590831","lon":"-75.288258","type":"Traditional Public School","address":"302 East State Street","grades":["Middle"],"city":"Millsboro","state":"DE","zip":"19966","phone":"(302) 934-3200","low":"6","high":"8","students":"797","cost":"No","url":"https:\/\/mm.irsd.net\/","review":"https:\/\/www.publicschoolreview.com\/millsboro-middle-school-profile","virtual":"No"},{"title":"Milton Elementary School","lat":"38.771999","lon":"-75.314031","type":"Traditional Public School","address":"512 Federal Street","grades":["Elementary"],"city":"Milton","state":"DE","zip":"19968","phone":"(302) 684-2516","low":"K","high":"5","students":"427","cost":"No","url":"https:\/\/www.capehenlopenschools.com\/Domain\/13","review":"https:\/\/www.publicschoolreview.com\/milton-elementary-school-profile\/19968","virtual":"No"},{"title":"Mispillion Elementary School","lat":"38.902543","lon":"-75.438939","type":"Traditional Public School","address":"311 Lovers Lane","grades":["Elementary"],"city":"Milford","state":"DE","zip":"19963","phone":"(302) 424-5800","low":"1","high":"5","students":"514","cost":"No","url":"https:\/\/mca.milfordschooldistrict.org\/","review":"https:\/\/www.publicschoolreview.com\/mispillion-elementary-school-profile","virtual":"No"},{"title":"Montessori Learning Centre","lat":"39.7930531","lon":"-75.5463205","type":"Private School","address":"2313 Concord Pike","grades":["Pre-K","Elementary"],"city":"Wilmington","state":"DE","zip":"19803","phone":"(302) 478-7114","low":"PK","high":"K","students":"48","cost":"Yes","url":"https:\/\/www.montessorilc.com\/contact","review":"https:\/\/www.privateschoolreview.com\/montessori-learning-centre-profile","virtual":"No"},{"title":"Moore (John Bassett) School","lat":"39.298431","lon":"-75.604272","type":"Traditional Public School","address":"20 West Frazier Street","grades":["Elementary","Middle"],"city":"Smyrna","state":"DE","zip":"19977","phone":"(302) 659-6297","low":"4","high":"6","students":"697","cost":"No","url":"https:\/\/jbm.smyrna.k12.de.us\/","review":"https:\/\/www.publicschoolreview.com\/moore-john-bassett-school-profile","virtual":"No"},{"title":"Morris (Evelyn I.) Early Childhood","lat":"38.869552","lon":"-75.418983","type":"Traditional Public School","address":"8609 Third Street","grades":["Pre-K","Elementary"],"city":"Lincoln","state":"DE","zip":"19960","phone":"(302) 422-1650","low":"PK","high":"K","students":"415","cost":"No","url":"https:\/\/me.milfordschooldistrict.org\/","review":"https:\/\/www.publicschoolreview.com\/morris-evelyn-i-early-childhood-profile","virtual":"No"},{"title":"Mot Charter School","lat":"39.42295","lon":"-75.741156","type":"Public Charter School","address":"1156 Levels Road","grades":["Elementary","Middle","High"],"city":"Middletown","state":"DE","zip":"19709","phone":"(302) 376-5125","low":"K","high":"12","students":"1383","cost":"No","url":"https:\/\/www.motcharter.com\/","review":"https:\/\/www.publicschoolreview.com\/mot-charter-school-profile","virtual":"No"},{"title":"Mote (Anna P.) Elementary School","lat":"39.735972","lon":"-75.636927","type":"Traditional Public School","address":"2110 Edwards Avenue","grades":["Elementary"],"city":"Wilmington","state":"DE","zip":"19808","phone":"(302) 992-5565","low":"K","high":"5","students":"352","cost":"No","url":"https:\/\/www.redclayschools.com\/mote","review":"https:\/\/www.publicschoolreview.com\/mote-anna-p-elementary-school-profile","virtual":"No"},{"title":"Mount Pleasant Elementary School","lat":"39.771327","lon":"-75.496153","type":"Traditional Public School","address":"500 Duncan Road","grades":["Elementary"],"city":"Wilmington","state":"DE","zip":"19809","phone":"(302) 762-7120","low":"K","high":"5","students":"710","cost":"No","url":"https:\/\/www.brandywineschools.org\/domain\/703","review":"https:\/\/www.publicschoolreview.com\/mount-pleasant-elementary-school-profile","virtual":"No"},{"title":"Mount Pleasant High School","lat":"39.771918","lon":"-75.505501","type":"Traditional Public School","address":"5201 Washington Street Extensi","grades":["High"],"city":"Wilmington","state":"DE","zip":"19809","phone":"(302) 762-7125","low":"9","high":"12","students":"1078","cost":"No","url":"https:\/\/www.brandywineschools.org\/Domain\/1269","review":"https:\/\/www.publicschoolreview.com\/mount-pleasant-high-school-profile","virtual":"No"},{"title":"Mt. Sophia Academy","lat":"39.6837226","lon":"-75.7496572","type":"Private School","address":"91 Salem Church Rd","grades":["Elementary","Middle","High"],"city":"Newark","state":"DE","zip":"19713","phone":"(302) 547-2285","low":"K","high":"12","students":"160","cost":"Yes","url":"https:\/\/mtsophia.com\/","review":"https:\/\/www.privateschoolreview.com\/mt-sophia-academy-profile","virtual":"No"},{"title":"Naamans Road Kindercare","lat":"39.82291","lon":"-75.496414","type":"Private School","address":"2018C Naamans Rd","grades":["Pre-K"],"city":"Wilmington","state":"DE","zip":"19810","phone":"(302) 475-2212","low":"NS","high":"PK","students":"61","cost":"Yes","url":"https:\/\/www.kindercare.com\/our-centers\/wilmington\/de\/301006?utm_campaign=kc-lg&utm_source=psr&utm_medium=pro","review":"https:\/\/www.privateschoolreview.com\/naamans-road-kindercare-profile","virtual":"No"},{"title":"Nativity Preparatory School Of Wilmington","lat":"39.74245252","lon":"-75.5700038","type":"Private School","address":"1515 Linden St","grades":["Elementary","Middle"],"city":"Wilmington","state":"DE","zip":"19805","phone":"(302) 777-1015","low":"5","high":"8","students":"49","cost":"Yes","url":"https:\/\/nativitywilmington.org\/","review":"https:\/\/www.privateschoolreview.com\/nativity-preparatory-school-of-wilmington-profile","virtual":"No"},{"title":"Nccl School (Newark Center For Creative Learning)","lat":"39.6704","lon":"-75.7559","type":"Private School","address":"401 Phillips Avenue","grades":["Elementary","Middle"],"city":"Newark","state":"DE","zip":"19711","phone":"(302) 368-7772","low":"K","high":"8","students":"74","cost":"Yes","url":"https:\/\/www.ncclschool.org\/","review":"https:\/\/www.privateschoolreview.com\/nccl-school-newark-center-for-creative-learning-profile","virtual":"No"},{"title":"Nellie Hughes Stokes Elementary School","lat":"39.1014","lon":"-75.5532","type":"Traditional Public School","address":"3874 Upper King Road","grades":["Elementary"],"city":"Dover","state":"DE","zip":"19904","phone":"(302) 697-3205","low":"1","high":"5","students":"414","cost":"No","url":"https:\/\/www.crk12.org\/stokes","review":"https:\/\/www.publicschoolreview.com\/nellie-hughes-stokes-elementary-school-profile","virtual":"No"},{"title":"New Cape Middle School","lat":"38.754563","lon":"-75.149658","type":"Traditional Public School","address":"1270 Kings Highway","grades":[],"city":"Lewes","state":"DE","zip":"19958","phone":"(302) 645-6686","low":"N","high":"N","students":"See website","cost":"No","url":"https:\/\/reportcard.doe.k12.de.us\/detail.html","review":"https:\/\/www.publicschoolreview.com\/new-cape-middle-school-profile","virtual":"No"},{"title":"New Castle Elementary School","lat":"39.6648","lon":"-75.572","type":"Traditional Public School","address":"903 Delaware Street","grades":["Elementary"],"city":"New Castle","state":"DE","zip":"19720","phone":"(302) 323-2880","low":"K","high":"5","students":"495","cost":"No","url":"http:\/\/www.colonialschooldistrict.org\/","review":"https:\/\/www.publicschoolreview.com\/new-castle-elementary-school-profile\/19720","virtual":"No"},{"title":"New Castle Kindercare","lat":"39.649193","lon":"-75.623535","type":"Private School","address":"327 Old State Rd","grades":["Pre-K"],"city":"New Castle","state":"DE","zip":"19720","phone":"(302) 322-3102","low":"NS","high":"PK","students":"See website","cost":"Yes","url":"https:\/\/www.kindercare.com\/our-centers\/new-castle\/de\/073146?utm_campaign=kc-lg&utm_source=psr&utm_medium=pro","review":"","virtual":"No"},{"title":"Newark Charter School","lat":"39.662582","lon":"-75.776336","type":"Public Charter School","address":"200 Mcintire Drive","grades":["Elementary","Middle","High"],"city":"Newark","state":"DE","zip":"19711","phone":"(302) 369-2001","low":"K","high":"12","students":"2436","cost":"No","url":"https:\/\/newarkcharterschool.org\/","review":"https:\/\/www.publicschoolreview.com\/newark-charter-school-profile","virtual":"No"},{"title":"Newark Day Nursery & Children Center","lat":"39.6789","lon":"-75.76748193","type":"Private School","address":"921 Barksdale Rd","grades":["Pre-K","Elementary"],"city":"Newark","state":"DE","zip":"19711","phone":"(302) 731-4925","low":"PK","high":"K","students":"97","cost":"Yes","url":"https:\/\/www.newarkdaynursery.org\/","review":"","virtual":"No"},{"title":"Newark High School","lat":"39.681545","lon":"-75.737143","type":"Traditional Public School","address":"750 East Delaware Avenue","grades":["High"],"city":"Newark","state":"DE","zip":"19711","phone":"(302) 631-4700","low":"9","high":"12","students":"1069","cost":"No","url":"https:\/\/www.christinak12.org\/NewarkHigh","review":"https:\/\/www.publicschoolreview.com\/newark-high-school-profile","virtual":"No"},{"title":"North Dover Elementary School","lat":"39.179285","lon":"-75.553297","type":"Traditional Public School","address":"855 College Road","grades":["Elementary"],"city":"Dover","state":"DE","zip":"19904","phone":"(302) 672-1980","low":"K","high":"4","students":"290","cost":"No","url":"http:\/\/www.north.capital.k12.de.us","review":"https:\/\/www.publicschoolreview.com\/north-dover-elementary-school-profile","virtual":"No"},{"title":"North Georgetown Elementary School","lat":"38.703408","lon":"-75.400026","type":"Traditional Public School","address":"664 North Bedford Street","grades":["Pre-K","Elementary"],"city":"Georgetown","state":"DE","zip":"19947","phone":"(302) 855-2430","low":"PK","high":"5","students":"816","cost":"No","url":"https:\/\/nge.irsd.net\/","review":"https:\/\/www.publicschoolreview.com\/north-georgetown-elementary-school-profile","virtual":"No"},{"title":"North Laurel Early Learning Academy","lat":"38.564997","lon":"-75.569248","type":"Traditional Public School","address":"300 Wilson Street","grades":["Pre-K","Elementary"],"city":"Laurel","state":"DE","zip":"19956","phone":"(302) 875-6130","low":"PK","high":"K","students":"194","cost":"No","url":"https:\/\/www.laurelschooldistrict.org\/nlela","review":"https:\/\/www.publicschoolreview.com\/north-laurel-early-learning-academy-profile","virtual":"No"},{"title":"North Smyrna Elementary School","lat":"39.304915","lon":"-75.612509","type":"Traditional Public School","address":"365 North Main Street","grades":["Pre-K","Elementary"],"city":"Smyrna","state":"DE","zip":"19977","phone":"(302) 653-8589","low":"PK","high":"3","students":"512","cost":"No","url":"https:\/\/nes.smyrna.k12.de.us\/","review":"https:\/\/www.publicschoolreview.com\/north-smyrna-elementary-school-profile","virtual":"No"},{"title":"North Star Elementary School","lat":"39.76744","lon":"-75.714429","type":"Traditional Public School","address":"1340 Little Baltimore Road","grades":["Elementary"],"city":"Hockessin","state":"DE","zip":"19707","phone":"(302) 234-7200","low":"K","high":"5","students":"621","cost":"No","url":"https:\/\/www.redclayschools.com\/northstar","review":"https:\/\/www.publicschoolreview.com\/north-star-elementary-school-profile\/19707","virtual":"No"},{"title":"Oberle (William) Elementary School","lat":"39.61611","lon":"-75.69595","type":"Traditional Public School","address":"500 South Caledonia Way","grades":["Elementary"],"city":"Bear","state":"DE","zip":"19701","phone":"(302) 834-5910","low":"K","high":"5","students":"547","cost":"No","url":"https:\/\/www.christinak12.org\/OberleES","review":"https:\/\/www.publicschoolreview.com\/oberle-william-elementary-school-profile","virtual":"No"},{"title":"Odessa High School","lat":"39.438254","lon":"-75.65237","type":"Traditional Public School","address":"570 Tony Marchio Drive","grades":["High"],"city":"Townsend","state":"DE","zip":"19734","phone":"(302) 842-2625","low":"9","high":"9","students":"250","cost":"No","url":"","review":"https:\/\/www.publicschoolreview.com\/odessa-high-school-profile\/19734","virtual":"No"},{"title":"Odyssey Charter School","lat":"39.748587","lon":"-75.576404","type":"Public Charter School","address":"4319 Lancaster Pike","grades":["Elementary","Middle","High"],"city":"Wilmington","state":"DE","zip":"19805","phone":"(302) 516-8000","low":"K","high":"12","students":"1926","cost":"No","url":"https:\/\/www.odysseycharterschool.com\/","review":"https:\/\/www.publicschoolreview.com\/odyssey-charter-school-profile\/19805","virtual":"No"},{"title":"Old State Elementary School","lat":"39.455069","lon":"-75.6627929","type":"Traditional Public School","address":"580 Tony Marchio Drive","grades":["Elementary"],"city":"Townsend","state":"DE","zip":"19734","phone":"(302) 378-6720","low":"1","high":"5","students":"723","cost":"No","url":"https:\/\/www.oldstateelementary.org\/","review":"https:\/\/www.publicschoolreview.com\/old-state-elementary-school-profile","virtual":"No"},{"title":"Padua Academy","lat":"39.7507704","lon":"-75.56301245","type":"Private School","address":"905 N Broom St","grades":["High"],"city":"Wilmington","state":"DE","zip":"19806","phone":"(302) 421-3739","low":"9","high":"12","students":"658","cost":"Yes","url":"https:\/\/www.paduaacademy.org\/page","review":"https:\/\/www.privateschoolreview.com\/padua-academy-profile","virtual":"No"},{"title":"Paxson Lane Kindercare","lat":"39.595444","lon":"-75.742783","type":"Private School","address":"100 Paxson Dr","grades":["Pre-K"],"city":"Newark","state":"DE","zip":"19702","phone":"(302) 834-6931","low":"NS","high":"PK","students":"See website","cost":"Yes","url":"https:\/\/www.kindercare.com\/our-centers\/newark\/de\/301800?utm_campaign=kc-lg&utm_source=psr&utm_medium=pro","review":"","virtual":"No"},{"title":"Penn (William) High School","lat":"39.670646","lon":"-75.583639","type":"Traditional Public School","address":"713 East Basin Road","grades":["High"],"city":"New Castle","state":"DE","zip":"19720","phone":"(302) 323-2800","low":"9","high":"12","students":"2297","cost":"No","url":"http:\/\/www.colonialschooldistrict.org\/williampenn\/","review":"https:\/\/www.publicschoolreview.com\/penn-william-high-school-profile","virtual":"No"},{"title":"Peoples Settlement Preschool","lat":"39.741087","lon":"-75.544789","type":"Private School","address":"408 E 8th Street","grades":["Pre-K","Elementary"],"city":"Wilmington","state":"DE","zip":"19801","phone":"(302) 658-4133","low":"NS","high":"K","students":"22","cost":"Yes","url":"https:\/\/www.peoplessettlementassociation.org\/","review":"https:\/\/www.privateschoolreview.com\/peoples-settlement-preschool-profile","virtual":"No"},{"title":"Phillis Wheatley Elementary School","lat":"38.7509027","lon":"-75.6018172","type":"Traditional Public School","address":"48 Church Street","grades":["Elementary"],"city":"Bridgeville","state":"DE","zip":"19933","phone":"(302) 337-3469","low":"3","high":"5","students":"592","cost":"No","url":"https:\/\/www.pwesraiders.net\/","review":"https:\/\/www.publicschoolreview.com\/phillis-wheatley-elementary-school-profile\/19933","virtual":"No"},{"title":"Pike Creek Christian Preschool","lat":"39.7147","lon":"-75.7108","type":"Private School","address":"199 Polly Drummond Hill Road","grades":["Pre-K"],"city":"Newark","state":"DE","zip":"19711","phone":"(302) 731-7773","low":"PK","high":"PK","students":"28","cost":"Yes","url":"https:\/\/www.pikecreekchristianpreschool.org\/","review":"https:\/\/www.privateschoolreview.com\/pike-creek-christian-preschool-profile","virtual":"No"},{"title":"Pike Creek Kindercare","lat":"39.734486","lon":"-75.694839","type":"Private School","address":"3449 Hillock Ln","grades":["Pre-K"],"city":"Wilmington","state":"DE","zip":"19808","phone":"(302) 731-7138","low":"NS","high":"PK","students":"See website","cost":"Yes","url":"https:\/\/www.kindercare.com\/our-centers\/wilmington\/de\/300045?utm_campaign=kc-lg&utm_source=psr&utm_medium=pro","review":"","virtual":"No"},{"title":"Pleasantville Elementary School","lat":"39.66683","lon":"-75.62509","type":"Traditional Public School","address":"16 Pleasant Street","grades":["Elementary"],"city":"New Castle","state":"DE","zip":"19720","phone":"(302) 323-2935","low":"K","high":"5","students":"386","cost":"No","url":"http:\/\/www.colonialschooldistrict.org\/pleasantville\/","review":"https:\/\/www.publicschoolreview.com\/pleasantville-elementary-school-profile","virtual":"No"},{"title":"Polytech High School","lat":"39.072307","lon":"-75.546426","type":"Specialized Public School","address":"823 Walnut Shade Road, 823 Wal","grades":["High"],"city":"Woodside","state":"DE","zip":"19980","phone":"(302) 697-3255","low":"9","high":"12","students":"1182","cost":"No","url":"https:\/\/www.polytechpanthers.com\/","review":"https:\/\/www.publicschoolreview.com\/polytech-high-school-profile","virtual":"No"},{"title":"Positive Outcomes Charter School","lat":"39.108517","lon":"-75.539432","type":"Public Charter School","address":"3337 South Dupont Highway","grades":["Middle","High"],"city":"Camden Wyoming","state":"DE","zip":"19934","phone":"(302) 697-8805","low":"7","high":"12","students":"112","cost":"No","url":"https:\/\/www.positiveoutcomescs.org\/","review":"https:\/\/www.publicschoolreview.com\/positive-outcomes-charter-school-profile","virtual":"No"},{"title":"Program For Rigor And Innovation In Education","lat":"39.7662","lon":"-75.519791","type":"Private School","address":"4412 Washington Blvd","grades":["Middle"],"city":"Wilmington","state":"DE","zip":"19802","phone":"(302) 635-0705","low":"6","high":"8","students":"See website","cost":"Yes","url":"","review":"","virtual":"No"},{"title":"Providence Creek Academy Charter School","lat":"39.290889","lon":"-75.638787","type":"Public Charter School","address":"273 West Duck Creek Road","grades":["Elementary","Middle"],"city":"Clayton","state":"DE","zip":"19938","phone":"(302) 653-6276","low":"K","high":"8","students":"707","cost":"No","url":"http:\/\/www.pcasaints.org","review":"https:\/\/www.publicschoolreview.com\/providence-creek-academy-charter-school-profile","virtual":"No"},{"title":"Pyle (Sarah) Academy","lat":"39.739599","lon":"-75.54615","type":"Specialized Public School","address":"501 North Lombard Street","grades":["High"],"city":"Wilmington","state":"DE","zip":"19801","phone":"(302) 429-4158","low":"9","high":"12","students":"See website","cost":"No","url":"http:\/\/www.sarahpyleacademy.org\/","review":"https:\/\/www.publicschoolreview.com\/pyle-sarah-academy-profile","virtual":"No"},{"title":"Read (George) Middle School","lat":"39.67738","lon":"-75.588155","type":"Traditional Public School","address":"314 East Basin Road","grades":["Middle"],"city":"New Castle","state":"DE","zip":"19720","phone":"(302) 323-2760","low":"6","high":"8","students":"758","cost":"No","url":"http:\/\/www.colonialschooldistrict.org\/georgeread\/","review":"https:\/\/www.publicschoolreview.com\/read-george-middle-school-profile","virtual":"No"},{"title":"Red Clay Early Years Program","lat":"39.712474","lon":"-75.652385","type":"Specialized Public School","address":"1621 Telegraph Road","grades":["Pre-K"],"city":"Wilmington","state":"DE","zip":"19804","phone":"(302) 651-2709","low":"PK","high":"PK","students":"279","cost":"No","url":"","review":"https:\/\/www.publicschoolreview.com\/red-clay-early-years-program-profile","virtual":"No"},{"title":"Red Lion Christian Academy","lat":"39.59712147","lon":"-75.67401493","type":"Private School","address":"1390 Red Lion Road","grades":["Pre-K","Elementary","Middle","High"],"city":"Bear","state":"DE","zip":"19701","phone":"(302) 834-2526","low":"NS","high":"12","students":"574","cost":"Yes","url":"https:\/\/www.reachschools.online\/our-schools\/red-lion-christian-academy\/","review":"https:\/\/www.privateschoolreview.com\/red-lion-christian-academy-profile","virtual":"No"},{"title":"Redding (Louis L.) Middle School","lat":"39.453015","lon":"-75.708396","type":"Traditional Public School","address":"201 New Street","grades":["Middle"],"city":"Middletown","state":"DE","zip":"19709","phone":"(302) 378-5030","low":"6","high":"8","students":"900","cost":"No","url":"https:\/\/www.reddingms.org\/","review":"https:\/\/www.publicschoolreview.com\/redding-louis-l-middle-school-profile","virtual":"No"},{"title":"Rehoboth Elementary School","lat":"38.709907","lon":"-75.087819","type":"Traditional Public School","address":"500 Stockley Street","grades":["Elementary"],"city":"Rehoboth Beach","state":"DE","zip":"19971","phone":"(302) 227-2571","low":"K","high":"5","students":"517","cost":"No","url":"https:\/\/www.capehenlopenschools.com\/site\/Default.aspx?PageID=21","review":"https:\/\/www.publicschoolreview.com\/rehoboth-elementary-school-profile","virtual":"No"},{"title":"Richardson Park Elementary School","lat":"39.724177","lon":"-75.591666","type":"Traditional Public School","address":"16 Idella Avenue","grades":["Elementary"],"city":"Wilmington","state":"DE","zip":"19804","phone":"(302) 992-5570","low":"K","high":"5","students":"559","cost":"No","url":"https:\/\/www.redclayschools.com\/rpes","review":"https:\/\/www.publicschoolreview.com\/richardson-park-elementary-school-profile","virtual":"No"},{"title":"Richardson Park Learning Center","lat":"39.722677","lon":"-75.591663","type":"Specialized Public School","address":"99 Middleboro Road","grades":["Pre-K","Elementary"],"city":"Wilmington","state":"DE","zip":"19804","phone":"(302) 992-5574","low":"PK","high":"5","students":"See website","cost":"No","url":"https:\/\/www.redclayschools.com\/rpes","review":"https:\/\/www.publicschoolreview.com\/richardson-park-learning-center-profile","virtual":"No"},{"title":"Richey Elementary School","lat":"39.716864","lon":"-75.607763","type":"Traditional Public School","address":"105 East Highland Avenue","grades":["Elementary"],"city":"Wilmington","state":"DE","zip":"19804","phone":"(302) 992-5535","low":"K","high":"5","students":"379","cost":"No","url":"https:\/\/www.redclayschools.com\/richey","review":"https:\/\/www.publicschoolreview.com\/richey-elementary-school-profile","virtual":"No"},{"title":"Ross (Lulu M.) Elementary School","lat":"38.907633","lon":"-75.416489","type":"Traditional Public School","address":"310 Lovers Lane","grades":["Elementary"],"city":"Milford","state":"DE","zip":"19963","phone":"(302) 422-1640","low":"1","high":"5","students":"652","cost":"No","url":"https:\/\/re.milfordschooldistrict.org\/","review":"https:\/\/www.publicschoolreview.com\/ross-lulu-m-elementary-school-profile","virtual":"No"},{"title":"Saint Mark's High School","lat":"39.7128","lon":"-75.6838","type":"Private School","address":"2501 Pike Creek Road","grades":["High"],"city":"Wilmington","state":"DE","zip":"19808","phone":"(302) 738-3300","low":"9","high":"12","students":"605","cost":"Yes","url":"https:\/\/www.stmarkshs.net\/page","review":"https:\/\/www.privateschoolreview.com\/saint-mark-s-high-school-profile","virtual":"No"},{"title":"Salesianum School","lat":"39.7601","lon":"-75.5503","type":"Private School","address":"1801 N Broom Street","grades":["High"],"city":"Wilmington","state":"DE","zip":"19802","phone":"(302) 654-2495","low":"9","high":"12","students":"1034","cost":"Yes","url":"https:\/\/www.salesianum.org\/","review":"https:\/\/www.privateschoolreview.com\/salesianum-school-profile","virtual":"No"},{"title":"Sanford School","lat":"39.7876112","lon":"-75.6966001","type":"Private School","address":"6900 Lancaster Pike","grades":["Pre-K","Elementary","Middle","High"],"city":"Hockessin","state":"DE","zip":"19707","phone":"(302) 235-6503","low":"NS","high":"12","students":"677","cost":"Yes","url":"https:\/\/www.sanfordschool.org\/page","review":"","virtual":"No"},{"title":"Seaford Central Elementary School","lat":"38.65038","lon":"-75.618035","type":"Traditional Public School","address":"1 Delaware Place","grades":["Elementary"],"city":"Seaford","state":"DE","zip":"19973","phone":"(302) 629-4587","low":"3","high":"5","students":"393","cost":"No","url":"https:\/\/ces.seafordbluejays.org\/","review":"https:\/\/www.publicschoolreview.com\/seaford-central-elementary-school-profile","virtual":"No"},{"title":"Seaford Middle School","lat":"38.647404","lon":"-75.613221","type":"Traditional Public School","address":"500 East Stein Highway","grades":["Middle"],"city":"Seaford","state":"DE","zip":"19973","phone":"(302) 629-4587","low":"6","high":"8","students":"837","cost":"No","url":"https:\/\/sms.seafordbluejays.org\/","review":"https:\/\/www.publicschoolreview.com\/seaford-middle-school-profile\/19973","virtual":"No"},{"title":"Seaford Senior High School","lat":"38.652725","lon":"-75.614874","type":"Traditional Public School","address":"399 North Market Street Ext","grades":["High"],"city":"Seaford","state":"DE","zip":"19973","phone":"(302) 629-4587","low":"9","high":"12","students":"797","cost":"No","url":"https:\/\/shs.seafordbluejays.org\/","review":"https:\/\/www.publicschoolreview.com\/seaford-senior-high-school-profile\/19973","virtual":"No"},{"title":"Selbyville Middle School","lat":"38.463189","lon":"-75.209278","type":"Traditional Public School","address":"80 Bethany Rd.","grades":["Middle"],"city":"Selbyville","state":"DE","zip":"19975","phone":"(302) 436-1020","low":"6","high":"8","students":"756","cost":"No","url":"https:\/\/sm.irsd.net\/","review":"https:\/\/www.publicschoolreview.com\/selbyville-middle-school-profile","virtual":"No"},{"title":"Serviam Girls Academy","lat":"39.6984803","lon":"-75.5539328","type":"Private School","address":"14 Halcyon Dr","grades":["Elementary","Middle"],"city":"New Castle","state":"DE","zip":"19720","phone":"(302) 651-9700","low":"5","high":"8","students":"46","cost":"Yes","url":"https:\/\/www.serviamgirlsacademy.org\/","review":"https:\/\/www.privateschoolreview.com\/serviam-girls-academy-profile","virtual":"No"},{"title":"Sharon Temple Adventist School","lat":"39.754792","lon":"-75.543928","type":"Private School","address":"2001 N Washington St","grades":["Elementary","Middle"],"city":"Wilmington","state":"DE","zip":"19802","phone":"(302) 428-0216","low":"1","high":"8","students":"29","cost":"Yes","url":"https:\/\/sharontemple22.adventistschoolconnect.org\/","review":"","virtual":"No"},{"title":"Shields (Richard A.) Elementary School","lat":"38.767904","lon":"-75.147293","type":"Traditional Public School","address":"910 Shields Avenue","grades":["Elementary"],"city":"Lewes","state":"DE","zip":"19958","phone":"(302) 645-7748","low":"K","high":"5","students":"530","cost":"No","url":"https:\/\/www.capehenlopenschools.com\/Domain\/15","review":"https:\/\/www.publicschoolreview.com\/shields-richard-a-elementary-school-profile","virtual":"No"},{"title":"Shortlidge (Evan G.) Academy","lat":"39.752327","lon":"-75.54453","type":"Traditional Public School","address":"100 West 18th Street","grades":["Elementary"],"city":"Wilmington","state":"DE","zip":"19802","phone":"(302) 651-2710","low":"K","high":"2","students":"328","cost":"No","url":"https:\/\/www.redclayschools.com\/shortlidge","review":"https:\/\/www.publicschoolreview.com\/shortlidge-evan-g-academy-profile","virtual":"No"},{"title":"Showell (Phillip C.) Elementary School","lat":"38.460493","lon":"-75.215849","type":"Traditional Public School","address":"41 Bethany Road","grades":["Elementary"],"city":"Selbyville","state":"DE","zip":"19975","phone":"(302) 436-1040","low":"K","high":"5","students":"294","cost":"No","url":"https:\/\/www.irsd.net\/","review":"https:\/\/www.publicschoolreview.com\/showell-phillip-c-elementary-school-profile","virtual":"No"},{"title":"Shue - Medill Middle School","lat":"39.69849","lon":"-75.707308","type":"Traditional Public School","address":"1500 Capitol Trail","grades":["Middle"],"city":"Newark","state":"DE","zip":"19711","phone":"(302) 454-2171","low":"6","high":"8","students":"876","cost":"No","url":"https:\/\/www.christinak12.org\/Domain\/33","review":"https:\/\/www.publicschoolreview.com\/shue-medill-middle-school-profile","virtual":"No"},{"title":"Silver Lake Elementary School","lat":"39.447972","lon":"-75.711046","type":"Traditional Public School","address":"200 East Cochran Street","grades":["Elementary"],"city":"Middletown","state":"DE","zip":"19709","phone":"(302) 378-5023","low":"1","high":"5","students":"584","cost":"No","url":"https:\/\/www.sleschool.org\/","review":"https:\/\/www.publicschoolreview.com\/silver-lake-elementary-school-profile","virtual":"No"},{"title":"Skyline Middle School","lat":"39.725253","lon":"-75.685986","type":"Traditional Public School","address":"2900 Skyline Drive","grades":["Middle"],"city":"Wilmington","state":"DE","zip":"19808","phone":"(302) 454-3410","low":"6","high":"8","students":"554","cost":"No","url":"https:\/\/www.redclayschools.com\/skyline","review":"https:\/\/www.publicschoolreview.com\/skyline-middle-school-profile","virtual":"No"},{"title":"Smith (Jennie E.) Elementary School","lat":"39.672378","lon":"-75.711839","type":"Traditional Public School","address":"142 Brennen Drive","grades":["Elementary"],"city":"Newark","state":"DE","zip":"19713","phone":"(302) 454-2174","low":"K","high":"5","students":"456","cost":"No","url":"https:\/\/www.google.com\/a\/christina.k12.de.us\/ServiceLogin2?continue=https%3A%2F%2Fsites.google.com%2Fa%2Fchristina.k12.de.us%2Fsites%2Fsystem%2Ferrors%2FWebspaceNotFound%3Fpath%3D%2Fsmith%2F&followup=https%3A%2F%2Fsites.google.com%2Fa%2Fchristina.k12.de.u","review":"https:\/\/www.publicschoolreview.com\/smith-jennie-e-elementary-school-profile","virtual":"No"},{"title":"Smyrna Elementary School","lat":"39.296302","lon":"-75.607754","type":"Traditional Public School","address":"121 South School Lane","grades":["Elementary"],"city":"Smyrna","state":"DE","zip":"19977","phone":"(302) 653-8588","low":"K","high":"3","students":"408","cost":"No","url":"https:\/\/ses.smyrna.k12.de.us\/","review":"https:\/\/www.publicschoolreview.com\/smyrna-elementary-school-profile","virtual":"No"},{"title":"Smyrna High School","lat":"39.300742","lon":"-75.628671","type":"Traditional Public School","address":"500 Duck Creek Parkway","grades":["High"],"city":"Smyrna","state":"DE","zip":"19977","phone":"(302) 653-8581","low":"9","high":"12","students":"1677","cost":"No","url":"https:\/\/shs.smyrna.k12.de.us\/","review":"https:\/\/www.publicschoolreview.com\/smyrna-high-school-profile","virtual":"No"},{"title":"Smyrna Middle School","lat":"39.30325","lon":"-75.625342","type":"Traditional Public School","address":"700 Duck Creek Parkway","grades":["Middle"],"city":"Smyrna","state":"DE","zip":"19977","phone":"(302) 653-8584","low":"7","high":"8","students":"1028","cost":"No","url":"https:\/\/sms.smyrna.k12.de.us\/","review":"https:\/\/www.publicschoolreview.com\/smyrna-middle-school-profile","virtual":"No"},{"title":"South Dover Elementary School","lat":"39.148498","lon":"-75.522403","type":"Traditional Public School","address":"955 South State Street","grades":["Elementary"],"city":"Dover","state":"DE","zip":"19901","phone":"(302) 672-1690","low":"K","high":"4","students":"576","cost":"No","url":"http:\/\/www.south.capital.k12.de.us","review":"https:\/\/www.publicschoolreview.com\/south-dover-elementary-school-profile","virtual":"No"},{"title":"Southern Delaware School Of The Arts","lat":"38.460762","lon":"-75.224829","type":"Public Magnet School","address":"27 Hosier Street","grades":["Elementary","Middle"],"city":"Selbyville","state":"DE","zip":"19975","phone":"(302) 436-1066","low":"K","high":"8","students":"450","cost":"No","url":"https:\/\/sdsa.irsd.net\/","review":"https:\/\/www.publicschoolreview.com\/southern-delaware-school-of-the-arts-profile","virtual":"No"},{"title":"Southern Elementary School","lat":"39.56204","lon":"-75.628118","type":"Traditional Public School","address":"795 Cox Neck Road","grades":["Elementary"],"city":"New Castle","state":"DE","zip":"19720","phone":"(302) 832-6300","low":"K","high":"5","students":"824","cost":"No","url":"http:\/\/www.colonialschooldistrict.org\/southern\/","review":"https:\/\/www.publicschoolreview.com\/southern-elementary-school-profile\/19720","virtual":"No"},{"title":"Spring Meadow Early Childhood Center","lat":"39.435884","lon":"-75.64855","type":"Traditional Public School","address":"611 Campus Drive","grades":["Elementary"],"city":"Townsend","state":"DE","zip":"19734","phone":"(302) 378-6760","low":"K","high":"K","students":"294","cost":"No","url":"https:\/\/www.springmeadowecc.org\/","review":"https:\/\/www.publicschoolreview.com\/spring-meadow-early-childhood-center-profile","virtual":"No"},{"title":"Springer Middle School","lat":"39.804983","lon":"-75.535071","type":"Traditional Public School","address":"2220 Shipley Road","grades":["Middle"],"city":"Wilmington","state":"DE","zip":"19803","phone":"(302) 479-1621","low":"6","high":"8","students":"833","cost":"No","url":"https:\/\/www.brandywineschools.org\/springer","review":"https:\/\/www.publicschoolreview.com\/springer-middle-school-profile","virtual":"No"},{"title":"St. Andrew's School","lat":"39.4176","lon":"-75.6589","type":"Private School","address":"350 Noxontown Rd","grades":["High"],"city":"Middletown","state":"DE","zip":"19709","phone":"(302) 378-9511","low":"9","high":"12","students":"307","cost":"Yes","url":"https:\/\/www.standrews-de.org\/","review":"","virtual":"No"},{"title":"St. Ann School","lat":"39.76175272","lon":"-75.56345265","type":"Private School","address":"2006 Shallcross Ave","grades":["Pre-K","Elementary","Middle"],"city":"Wilmington","state":"DE","zip":"19806","phone":"(302) 652-6567","low":"NS","high":"8","students":"220","cost":"Yes","url":"https:\/\/www.thesaintannschool.org\/","review":"https:\/\/www.privateschoolreview.com\/st-ann-school-profile\/19806","virtual":"No"},{"title":"St. Annes Episcopal School","lat":"39.4439","lon":"-75.6946","type":"Private School","address":"211 Silver Lake Road","grades":["Pre-K","Elementary","Middle"],"city":"Middletown","state":"DE","zip":"19709","phone":"(302) 378-3179","low":"PK","high":"8","students":"283","cost":"Yes","url":"http:\/\/www.StAnnesDE.org","review":"https:\/\/www.privateschoolreview.com\/st-annes-episcopal-school-profile","virtual":"No"},{"title":"St. Anthony Of Padua Grade School","lat":"39.75235271","lon":"-75.56662568","type":"Private School","address":"1715 W. 9th Street","grades":["Pre-K","Elementary","Middle"],"city":"Wilmington","state":"DE","zip":"19805","phone":"(302) 421-3743","low":"PK","high":"8","students":"230","cost":"Yes","url":"https:\/\/sapgs.org\/","review":"https:\/\/www.privateschoolreview.com\/st-anthony-of-padua-grade-school-profile","virtual":"No"},{"title":"St. David's Episcopal Day School","lat":"39.8136167","lon":"-75.4993072","type":"Private School","address":"2320 Grubb Rd","grades":["Pre-K"],"city":"Wilmington","state":"DE","zip":"19810","phone":"(302) 475-3747","low":"NS","high":"PK","students":"110","cost":"Yes","url":"https:\/\/stdavidsdayschoolde.org\/","review":"https:\/\/www.privateschoolreview.com\/st-david-s-episcopal-day-school-profile","virtual":"No"},{"title":"St. Edmond's Academy","lat":"39.8047","lon":"-75.48883043","type":"Private School","address":"2120 Veale Rd","grades":["Pre-K","Elementary","Middle"],"city":"Wilmington","state":"DE","zip":"19810","phone":"(302) 475-5370","low":"PK","high":"8","students":"246","cost":"Yes","url":"https:\/\/stedmondsacademy.org\/","review":"https:\/\/www.privateschoolreview.com\/st-edmond-s-academy-profile","virtual":"No"},{"title":"St. Elizabeth School","lat":"39.7381","lon":"-75.5727","type":"Private School","address":"1500 Cedar St","grades":["Pre-K","Elementary","Middle","High"],"city":"Wilmington","state":"DE","zip":"19805","phone":"(302) 656-3369","low":"PK","high":"12","students":"540","cost":"Yes","url":"https:\/\/www.steschools.org","review":"https:\/\/www.privateschoolreview.com\/st-elizabeth-school-profile","virtual":"No"},{"title":"St. Georges Technical High School","lat":"39.525149","lon":"-75.665054","type":"Specialized Public School","address":"555 Hyetts Corner Rd.","grades":["High"],"city":"Middletown","state":"DE","zip":"19709","phone":"(302) 449-3360","low":"9","high":"12","students":"1090","cost":"No","url":"https:\/\/stgeorges.nccvt.k12.de.us\/","review":"https:\/\/www.publicschoolreview.com\/st-georges-technical-high-school-profile","virtual":"No"},{"title":"St. John The Beloved Catholic School","lat":"39.73440996","lon":"-75.65726068","type":"Private School","address":"905 Milltown Rd","grades":["Pre-K","Elementary","Middle"],"city":"Wilmington","state":"DE","zip":"19808","phone":"(302) 998-5525","low":"NS","high":"8","students":"528","cost":"Yes","url":"https:\/\/www.sjbdel.org\/","review":"https:\/\/www.privateschoolreview.com\/st-john-the-beloved-catholic-school-profile","virtual":"No"},{"title":"St. Mark's Prekindergarten & Kindergarten","lat":"39.7127783","lon":"-75.6501964","type":"Private School","address":"1700 Limestone Rd","grades":["Pre-K"],"city":"Wilmington","state":"DE","zip":"19804","phone":"(302) 999-0800","low":"NS","high":"NS","students":"200","cost":"Yes","url":"https:\/\/www.stmarksprekk.com\/a\/main\/home\/","review":"https:\/\/www.privateschoolreview.com\/st-mark-s-prekindergarten-kindergarten-profile","virtual":"No"},{"title":"St. Mary Magdalen School","lat":"39.79413814","lon":"-75.54747094","type":"Private School","address":"9 Sharpley Rd","grades":["Pre-K","Elementary","Middle"],"city":"Wilmington","state":"DE","zip":"19803","phone":"(302) 656-2745","low":"PK","high":"8","students":"545","cost":"Yes","url":"https:\/\/smmschoolde.com\/","review":"https:\/\/www.privateschoolreview.com\/st-mary-magdalen-school-profile\/19803","virtual":"No"},{"title":"St. Michaels School & Nursery Inc","lat":"39.741567","lon":"-75.546949","type":"Private School","address":"700 N. Walnut Street","grades":["Pre-K","Elementary"],"city":"Wilmington","state":"DE","zip":"19801","phone":"(302) 656-3389","low":"PK","high":"K","students":"149","cost":"Yes","url":"https:\/\/www.stmichaelsde.org\/","review":"https:\/\/www.privateschoolreview.com\/st-michaels-school-nursery-inc-profile","virtual":"No"},{"title":"St. Paul's Lutheran School","lat":"39.6575","lon":"-75.7515","type":"Private School","address":"701 S College Ave","grades":["Pre-K"],"city":"Newark","state":"DE","zip":"19713","phone":"(302) 368-0064","low":"NS","high":"PK","students":"52","cost":"Yes","url":"http:\/\/www.st-pauls-lutheran-school.org","review":"https:\/\/www.privateschoolreview.com\/st-paul-s-lutheran-school-profile\/19713","virtual":"No"},{"title":"St. Peter Cathedral School","lat":"39.74271485","lon":"-75.5527977","type":"Private School","address":"310 W 6th St","grades":["Pre-K","Elementary","Middle"],"city":"Wilmington","state":"DE","zip":"19801","phone":"(302) 656-5234","low":"PK","high":"8","students":"160","cost":"Yes","url":"https:\/\/www.stpetercathedralschool.org\/index.html","review":"https:\/\/www.privateschoolreview.com\/st-peter-cathedral-school-profile","virtual":"No"},{"title":"St. Peter Catholic School","lat":"39.66295279","lon":"-75.56493094","type":"Private School","address":"515 Harmony St","grades":["Pre-K","Elementary","Middle"],"city":"New Castle","state":"DE","zip":"19720","phone":"(302) 328-1191","low":"PK","high":"8","students":"187","cost":"Yes","url":"https:\/\/www.stpeternewcastle.org\/","review":"https:\/\/www.privateschoolreview.com\/st-peter-catholic-school-profile","virtual":"No"},{"title":"Stanton Middle School","lat":"39.715084","lon":"-75.65047","type":"Traditional Public School","address":"1800 Limestone Road","grades":["Middle"],"city":"Wilmington","state":"DE","zip":"19804","phone":"(302) 992-5540","low":"6","high":"8","students":"695","cost":"No","url":"https:\/\/www.redclayschools.com\/stanton","review":"https:\/\/www.publicschoolreview.com\/stanton-middle-school-profile","virtual":"No"},{"title":"Star Hill Elementary School","lat":"39.09939","lon":"-75.53267","type":"Traditional Public School","address":"594 Voshells Mill\/star Hill Ro","grades":["Elementary"],"city":"Dover","state":"DE","zip":"19901","phone":"(302) 697-6117","low":"1","high":"5","students":"513","cost":"No","url":"https:\/\/www.crk12.org\/starhill","review":"https:\/\/www.publicschoolreview.com\/star-hill-elementary-school-profile","virtual":"No"},{"title":"Stubbs Early Education Center","lat":"39.744414","lon":"-75.540566","type":"Traditional Public School","address":"1100 North Pine Street","grades":["Pre-K","Elementary"],"city":"Wilmington","state":"DE","zip":"19801","phone":"(302) 429-4175","low":"PK","high":"K","students":"113","cost":"No","url":"https:\/\/sites.google.com\/site\/csdstubbs\/","review":"https:\/\/www.publicschoolreview.com\/stubbs-early-education-center-profile","virtual":"No"},{"title":"Summit Elementary School","lat":"39.452989","lon":"-75.663866","type":"Traditional Public School","address":"313 South Fifth","grades":[],"city":"Odessa","state":"DE","zip":"19730","phone":"(302) 376-4128","low":"N","high":"N","students":"See website","cost":"No","url":"","review":"https:\/\/www.publicschoolreview.com\/summit-elementary-school-profile\/19730","virtual":"No"},{"title":"Sunnyside Elementary School","lat":"39.272112","lon":"-75.611981","type":"Traditional Public School","address":"123 Rabbit Chase Road","grades":["Elementary"],"city":"Smyrna","state":"DE","zip":"19977","phone":"(302) 653-8580","low":"K","high":"4","students":"560","cost":"No","url":"https:\/\/sse.smyrna.k12.de.us\/","review":"https:\/\/www.publicschoolreview.com\/sunnyside-elementary-school-profile\/19977","virtual":"No"},{"title":"Sussex Academy","lat":"38.669048","lon":"-75.370915","type":"Public Charter School","address":"21150 Airport Road","grades":["Elementary","Middle","High"],"city":"Georgetown","state":"DE","zip":"19947","phone":"(302) 856-3636","low":"K","high":"12","students":"1126","cost":"No","url":"https:\/\/www.sussexacademy.org\/","review":"https:\/\/www.publicschoolreview.com\/sussex-academy-profile","virtual":"No"},{"title":"Sussex Central High School","lat":"38.630757","lon":"-75.324227","type":"Traditional Public School","address":"26026 Patriots Way","grades":["High"],"city":"Georgetown","state":"DE","zip":"19947","phone":"(302) 934-3166","low":"9","high":"12","students":"1821","cost":"No","url":"https:\/\/schs.irsd.net\/","review":"https:\/\/www.publicschoolreview.com\/sussex-central-high-school-profile","virtual":"No"},{"title":"Sussex Montessori School","lat":"39.702145","lon":"-75.554697","type":"Public Charter School","address":"3029 Bowlerama Drive","grades":["Elementary"],"city":"New Castle","state":"DE","zip":"19720","phone":"(302) 404-5367","low":"K","high":"3","students":"260","cost":"No","url":"","review":"https:\/\/www.publicschoolreview.com\/sussex-montessori-school-profile","virtual":"No"},{"title":"Sussex Orthopedic Program","lat":"38.650353","lon":"-75.618022","type":"Specialized Public School","address":"One Delaware Place","grades":["Pre-K","Elementary","Middle","High"],"city":"Seaford","state":"DE","zip":"19973","phone":"(302) 629-4587","low":"PK","high":"12","students":"51","cost":"No","url":"","review":"https:\/\/www.publicschoolreview.com\/sussex-orthopedic-program-profile","virtual":"No"},{"title":"Sussex Technical High School","lat":"38.643073","lon":"-75.442116","type":"Specialized Public School","address":"17099 County Seat Highway","grades":["High"],"city":"Georgetown","state":"DE","zip":"19947","phone":"(302) 856-0961","low":"9","high":"12","students":"1239","cost":"No","url":"https:\/\/www.cpcsc.k12.in.us\/schools\/break-_o-_day_elementary","review":"https:\/\/www.publicschoolreview.com\/sussex-technical-high-school-profile","virtual":"No"},{"title":"Tall Oaks Classical School","lat":"39.5973379","lon":"-75.6732309","type":"Private School","address":"1390 Red Lion Road","grades":["Pre-K","Elementary","Middle","High"],"city":"Bear","state":"DE","zip":"19701","phone":"(302) 738-3337","low":"NS","high":"12","students":"225","cost":"Yes","url":"https:\/\/www.reachschools.online\/our-schools\/tall-oaks-classical-school\/","review":"https:\/\/www.privateschoolreview.com\/tall-oaks-classical-school-profile","virtual":"No"},{"title":"Talley Middle School","lat":"39.822393","lon":"-75.471149","type":"Traditional Public School","address":"1110 Cypress Road","grades":["Middle"],"city":"Wilmington","state":"DE","zip":"19810","phone":"(302) 475-3976","low":"6","high":"8","students":"790","cost":"No","url":"https:\/\/www.brandywineschools.org\/Page\/4037","review":"https:\/\/www.publicschoolreview.com\/talley-middle-school-profile","virtual":"No"},{"title":"Tarbiyah Islamic School Of Delaware","lat":"39.64535","lon":"-75.715781","type":"Private School","address":"706 South Old Baltimore Pike,","grades":["Pre-K","Elementary","Middle"],"city":"Newark","state":"DE","zip":"19702","phone":"(302) 533-8114","low":"PK","high":"8","students":"182","cost":"Yes","url":"http:\/\/tarbiyahschool.org\/","review":"","virtual":"No"},{"title":"The Claremont School","lat":"39.794685","lon":"-75.505032","type":"Private School","address":"1501 Marsh Road","grades":["Pre-K","Elementary"],"city":"Wilmington","state":"DE","zip":"19803","phone":"(302) 478-4531","low":"NS","high":"K","students":"See website","cost":"Yes","url":"https:\/\/theclaremontschool.com\/","review":"https:\/\/www.privateschoolreview.com\/the-claremont-school-profile","virtual":"No"},{"title":"The College School","lat":"39.6778","lon":"-75.7378","type":"Private School","address":"459 Wyoming Road","grades":["Elementary","Middle"],"city":"Newark","state":"DE","zip":"19716","phone":"(302) 831-0222","low":"2","high":"8","students":"153","cost":"Yes","url":"https:\/\/www.collegeschool.udel.edu\/","review":"https:\/\/www.privateschoolreview.com\/the-college-school-profile","virtual":"No"},{"title":"The Colwyck Center","lat":"39.688174","lon":"-75.557787","type":"Traditional Public School","address":"12 Landers Lane","grades":["Pre-K"],"city":"New Castle","state":"DE","zip":"19720","phone":"(302) 429-4085","low":"PK","high":"PK","students":"156","cost":"No","url":"http:\/\/www.colonialschooldistrict.org\/ceep","review":"https:\/\/www.publicschoolreview.com\/the-colwyck-center-profile","virtual":"No"},{"title":"The Cross Christian Academy","lat":"38.805969","lon":"-75.438285","type":"Private School","address":"12649 Dupont Blvd","grades":["Elementary","Middle","High"],"city":"Ellendale","state":"DE","zip":"19941","phone":"(302) 629-7161","low":"K","high":"12","students":"42","cost":"Yes","url":"","review":"","virtual":"No"},{"title":"The Goddard School","lat":"39.7751277","lon":"-75.7122312","type":"Private School","address":"157 Lantana Drive","grades":["Pre-K","Elementary"],"city":"Hockessin","state":"DE","zip":"19707","phone":"(302) 235-0445","low":"NS","high":"K","students":"See website","cost":"Yes","url":"https:\/\/www.goddardschool.com\/philadelphia\/hockessin-lantana-drive-de","review":"","virtual":"No"},{"title":"The Goddard School","lat":"39.7003393","lon":"-75.7091383","type":"Private School","address":"50 Polly Drummond Hill Road","grades":["Pre-K","Elementary"],"city":"Newark","state":"DE","zip":"19711","phone":"(302) 454-9454","low":"NS","high":"K","students":"22","cost":"Yes","url":"https:\/\/www.goddardschool.com\/philadelphia\/newark-polly-drummond-hill-road-de","review":"","virtual":"No"},{"title":"The Goddard School","lat":"39.7378971","lon":"-75.5571131","type":"Private School","address":"111 S. West Street","grades":["Pre-K","Elementary"],"city":"Wilmington","state":"DE","zip":"19801","phone":"(302) 651-7995","low":"NS","high":"K","students":"See website","cost":"Yes","url":"https:\/\/www.goddardschool.com\/philadelphia\/wilmington-riverfront-de","review":"","virtual":"No"},{"title":"The Hockessin Montessori School","lat":"39.7756","lon":"-75.674","type":"Private School","address":"1000 Old Lancaster Pike","grades":["Pre-K","Elementary","Middle"],"city":"Hockessin","state":"DE","zip":"19707","phone":"(302) 234-1240","low":"PK","high":"8","students":"160","cost":"Yes","url":"http:\/\/www.thehms.org","review":"https:\/\/www.privateschoolreview.com\/the-hockessin-montessori-school-profile","virtual":"No"},{"title":"The Independence School","lat":"39.7467","lon":"-75.7154","type":"Private School","address":"1300 Paper Mill Road","grades":["Pre-K","Elementary","Middle"],"city":"Newark","state":"DE","zip":"19711","phone":"(302) 239-0332","low":"NS","high":"8","students":"436","cost":"Yes","url":"https:\/\/www.theindependenceschool.org\/","review":"https:\/\/www.privateschoolreview.com\/the-independence-school-profile","virtual":"No"},{"title":"The Little School","lat":"39.1685","lon":"-75.548","type":"Private School","address":"105 Mont Blanc Blvd","grades":["Pre-K","Elementary"],"city":"Dover","state":"DE","zip":"19904","phone":"(302) 734-3040","low":"PK","high":"K","students":"31","cost":"Yes","url":"https:\/\/dover.kidscottage.com\/","review":"","virtual":"No"},{"title":"The New School","lat":"39.633477","lon":"-75.785621","type":"Private School","address":"1752 Dixie Line Road","grades":["Elementary","Middle","High"],"city":"Newark","state":"DE","zip":"19702","phone":"(302) 456-9838","low":"1","high":"12","students":"26","cost":"Yes","url":"http:\/\/www.thenewschool.com\/","review":"https:\/\/www.privateschoolreview.com\/the-new-school-profile\/19702","virtual":"No"},{"title":"The Pilot School","lat":"39.8189379","lon":"-75.555307","type":"Private School","address":"208 Woodlawn Road","grades":["Pre-K","Elementary","Middle"],"city":"Wilmington","state":"DE","zip":"19803","phone":"(302) 478-1740","low":"PK","high":"8","students":"126","cost":"Yes","url":"https:\/\/pilotschool.org\/","review":"https:\/\/www.privateschoolreview.com\/the-pilot-school-profile","virtual":"No"},{"title":"The Tatnall School","lat":"39.7707","lon":"-75.6172","type":"Private School","address":"1501 Barley Mill Road","grades":["Pre-K","Elementary","Middle","High"],"city":"Wilmington","state":"DE","zip":"19807","phone":"(302) 998-2292","low":"NS","high":"12","students":"551","cost":"Yes","url":"https:\/\/www.tatnall.org\/","review":"","virtual":"No"},{"title":"The Wallace Wallin School","lat":"39.670505","lon":"-75.586993","type":"Specialized Public School","address":"701 East Basin Road","grades":["High"],"city":"New Castle","state":"DE","zip":"19720","phone":"(302) 323-2952","low":"9","high":"12","students":"92","cost":"No","url":"http:\/\/www.colonialschooldistrict.org\/wallin","review":"https:\/\/www.publicschoolreview.com\/the-wallace-wallin-school-profile","virtual":"No"},{"title":"Tlk Academy","lat":"39.6032","lon":"-75.7444561","type":"Private School","address":"22 Peoples Plaza","grades":["Pre-K","Elementary"],"city":"Newark","state":"DE","zip":"19702","phone":"(302) 836-1411","low":"PK","high":"2","students":"105","cost":"Yes","url":"https:\/\/www.privateschoolreview.com\/tlk-academy-profile","review":"https:\/\/www.privateschoolreview.com\/tlk-academy-profile","virtual":"No"},{"title":"Tower Hill School","lat":"39.76453401","lon":"-75.57682081","type":"Private School","address":"2813 W 17th Street","grades":["Pre-K","Elementary","Middle","High"],"city":"Wilmington","state":"DE","zip":"19806","phone":"(302) 657-8350","low":"NS","high":"12","students":"822","cost":"Yes","url":"https:\/\/www.towerhill.org","review":"https:\/\/www.privateschoolreview.com\/tower-hill-school-profile","virtual":"No"},{"title":"Towle Institute","lat":"39.714126","lon":"-75.713596","type":"Private School","address":"199 Polly Drummond Hill Road","grades":["Middle","High"],"city":"Newark","state":"DE","zip":"19711","phone":"(302) 993-1408","low":"6","high":"12","students":"40","cost":"Yes","url":"https:\/\/www.towleinstitute.com\/","review":"https:\/\/www.privateschoolreview.com\/towle-institute-profile","virtual":"No"},{"title":"Towne Point Elementary School","lat":"39.176539","lon":"-75.52126","type":"Traditional Public School","address":"629 Buckson Drive","grades":["Elementary"],"city":"Dover","state":"DE","zip":"19901","phone":"(302) 672-1590","low":"K","high":"4","students":"273","cost":"No","url":"http:\/\/www.townepoint.capital.k12.de.us","review":"https:\/\/www.publicschoolreview.com\/towne-point-elementary-school-profile","virtual":"No"},{"title":"Townsend Early Childhood Center","lat":"39.39618","lon":"-75.685671","type":"Traditional Public School","address":"10 Brook Ramble Lane","grades":["Elementary"],"city":"Townsend","state":"DE","zip":"19734","phone":"(302) 378-9960","low":"K","high":"K","students":"242","cost":"No","url":"https:\/\/www.townsendecc.org\/","review":"https:\/\/www.publicschoolreview.com\/townsend-early-childhood-center-profile","virtual":"No"},{"title":"Townsend Elementary School","lat":"39.396445","lon":"-75.688316","type":"Traditional Public School","address":"126 Main Street, 126 Main Stre","grades":["Elementary"],"city":"Townsend","state":"DE","zip":"19734","phone":"(302) 378-5020","low":"1","high":"5","students":"455","cost":"No","url":"https:\/\/www.townsendelem.org\/","review":"https:\/\/www.publicschoolreview.com\/townsend-elementary-school-profile","virtual":"No"},{"title":"Traveling Tutorz Innovative Learning Center","lat":"38.459171","lon":"-75.231991","type":"Private School","address":"38223 DuPont Blvd ","grades":["Elementary","Middle","High"],"city":"Dagsboro","state":"DE","zip":"19975","phone":"(302) 245-2870","low":"K","high":"12","students":"56","cost":"Yes","url":"https:\/\/www.travelingtutorz.com\/","review":"https:\/\/www.privateschoolreview.com\/traveling-tutorz-innovative-learning-center-profile","virtual":"No"},{"title":"Tutor Time Child Care","lat":"39.68405678","lon":"-75.68122035","type":"Private School","address":"491 South Harmony Road","grades":["Pre-K","Elementary"],"city":"Newark","state":"DE","zip":"19713","phone":"(302) 292-3529","low":"PK","high":"K","students":"142","cost":"Yes","url":"https:\/\/www.tutortime.com\/your-local-school\/newark-de-6642\/","review":"https:\/\/www.privateschoolreview.com\/tutor-time-child-care-profile\/19713","virtual":"No"},{"title":"Tutor Time Learning Centers","lat":"39.74843567","lon":"-75.70140865","type":"Private School","address":"5305 Limestone Rd","grades":["Pre-K","Elementary"],"city":"Wilmington","state":"DE","zip":"19808","phone":"(302) 235-5701","low":"PK","high":"K","students":"35","cost":"Yes","url":"https:\/\/www.tutortime.com\/","review":"","virtual":"No"},{"title":"University Of Delaware Laboratory Preschool","lat":"39.6837226","lon":"-75.7496572","type":"Private School","address":"459 Wyoming Rd","grades":["Pre-K","Elementary"],"city":"Newark","state":"DE","zip":"19716","phone":"(302) 831-2304","low":"PK","high":"K","students":"62","cost":"Yes","url":"http:\/\/www.labpreschool.udel.edu","review":"https:\/\/www.privateschoolreview.com\/university-of-delaware-laboratory-preschool-profile","virtual":"No"},{"title":"Urban Promise School","lat":"39.7492","lon":"-75.5304","type":"Private School","address":"2401 Thatcher St","grades":["Pre-K","Elementary","Middle"],"city":"Wilmington","state":"DE","zip":"19802","phone":"(302) 425-5502","low":"PK","high":"6","students":"60","cost":"Yes","url":"https:\/\/www.urbanpromise.org\/","review":"","virtual":"No"},{"title":"Ursuline Academy (Pk - 12)","lat":"39.7522098","lon":"-75.5576463","type":"Private School","address":"1106 Pennsylvania Avenue","grades":["Pre-K","Elementary","Middle","High"],"city":"Wilmington","state":"DE","zip":"19806","phone":"(302) 658-7158","low":"PK","high":"12","students":"413","cost":"Yes","url":"https:\/\/www.ursuline.org\/","review":"https:\/\/www.privateschoolreview.com\/ursuline-academy-pk-12-profile","virtual":"No"},{"title":"W. B. Simpson Elementary School","lat":"39.115592","lon":"-75.485006","type":"Traditional Public School","address":"5 Old North Road","grades":["Elementary"],"city":"Camden Wyoming","state":"DE","zip":"19934","phone":"(302) 697-3207","low":"1","high":"5","students":"563","cost":"No","url":"https:\/\/www.crk12.org\/simpson","review":"https:\/\/www.publicschoolreview.com\/w-b-simpson-elementary-school-profile","virtual":"No"},{"title":"W. Reily Brown Elementary School","lat":"39.132505","lon":"-75.538852","type":"Traditional Public School","address":"360 Webbs Lane","grades":["Elementary"],"city":"Dover","state":"DE","zip":"19904","phone":"(302) 697-2101","low":"1","high":"5","students":"597","cost":"No","url":"https:\/\/www.crk12.org\/brown","review":"https:\/\/www.publicschoolreview.com\/w-reily-brown-elementary-school-profile","virtual":"No"},{"title":"Warner Elementary School","lat":"39.758375","lon":"-75.549084","type":"Traditional Public School","address":"801 West 18th Street","grades":["Elementary"],"city":"Wilmington","state":"DE","zip":"19802","phone":"(302) 651-2740","low":"3","high":"5","students":"378","cost":"No","url":"https:\/\/de01903704.schoolwires.net\/warner","review":"https:\/\/www.publicschoolreview.com\/warner-elementary-school-profile","virtual":"No"},{"title":"Waters (Alfred G.) Middle School","lat":"39.501883","lon":"-75.685411","type":"Traditional Public School","address":"1235 Cedar Lane Road","grades":["Middle"],"city":"Middletown","state":"DE","zip":"19709","phone":"(302) 449-3490","low":"6","high":"8","students":"1016","cost":"No","url":"https:\/\/agwaters.org\/","review":"https:\/\/www.publicschoolreview.com\/waters-alfred-g-middle-school-profile","virtual":"No"},{"title":"Wesley Preschool","lat":"39.1578538","lon":"-75.5237454","type":"Private School","address":"209 S State St","grades":["Pre-K"],"city":"Dover","state":"DE","zip":"19901","phone":"(302) 678-8987","low":"NS","high":"PK","students":"128","cost":"Yes","url":"https:\/\/wesleyumc-dover.com\/","review":"https:\/\/www.privateschoolreview.com\/wesley-preschool-profile","virtual":"No"},{"title":"West Park Place Elementary School","lat":"39.674703","lon":"-75.76184","type":"Traditional Public School","address":"193 West Park Place","grades":["Elementary"],"city":"Newark","state":"DE","zip":"19711","phone":"(302) 454-2290","low":"K","high":"5","students":"350","cost":"No","url":"https:\/\/www.christinak12.org\/WestParkPlaceES","review":"https:\/\/www.publicschoolreview.com\/west-park-place-elementary-school-profile","virtual":"No"},{"title":"West Seaford Elementary School","lat":"38.642654","lon":"-75.632277","type":"Traditional Public School","address":"511 Sussex Avenue","grades":["Elementary"],"city":"Seaford","state":"DE","zip":"19973","phone":"(302) 628-4587","low":"K","high":"2","students":"341","cost":"No","url":"https:\/\/wses.seafordbluejays.org\/","review":"https:\/\/www.publicschoolreview.com\/west-seaford-elementary-school-profile","virtual":"No"},{"title":"Wilbur (Kathleen H.) Elementary School","lat":"39.581416","lon":"-75.667612","type":"Traditional Public School","address":"4050 Wrangle Hill Road","grades":["Elementary"],"city":"Bear","state":"DE","zip":"19701","phone":"(302) 832-6330","low":"K","high":"5","students":"1162","cost":"No","url":"http:\/\/www.colonialschooldistrict.org\/wilbur\/","review":"https:\/\/www.publicschoolreview.com\/wilbur-kathleen-h-elementary-school-profile","virtual":"No"},{"title":"William F. Cooke Jr. Elementary School","lat":"39.766601","lon":"-75.6687299","type":"Traditional Public School","address":"2025 Graves Road","grades":["Elementary"],"city":"Hockessin","state":"DE","zip":"19707","phone":"(302) 552-3789","low":"K","high":"5","students":"641","cost":"No","url":"https:\/\/www.redclayschools.com\/cooke","review":"https:\/\/www.publicschoolreview.com\/william-f-cooke-jr-elementary-school-profile","virtual":"No"},{"title":"William Henry Middle School","lat":"39.16146","lon":"-75.54037","type":"Traditional Public School","address":"65 Carver Road","grades":["Elementary","Middle"],"city":"Dover","state":"DE","zip":"19904","phone":"(302) 672-1622","low":"5","high":"6","students":"869","cost":"No","url":"http:\/\/www.wmhenry.capital.k12.de.us\/","review":"https:\/\/www.publicschoolreview.com\/william-henry-middle-school-profile","virtual":"No"},{"title":"Wilmington Christian School","lat":"39.77680528","lon":"-75.66490113","type":"Private School","address":"825 Loveville Rd","grades":["Pre-K","Elementary","Middle","High"],"city":"Hockessin","state":"DE","zip":"19707","phone":"(302) 239-2121","low":"PK","high":"12","students":"413","cost":"Yes","url":"https:\/\/www.wilmingtonchristian.org\/","review":"https:\/\/www.privateschoolreview.com\/wilmington-christian-school-profile","virtual":"No"},{"title":"Wilmington Friends School","lat":"39.7676","lon":"-75.5507","type":"Private School","address":"101 School Road","grades":["Pre-K","Elementary","Middle","High"],"city":"Wilmington","state":"DE","zip":"19803","phone":"(302) 576-2900","low":"NS","high":"12","students":"722","cost":"Yes","url":"https:\/\/www.wilmingtonfriends.org","review":"https:\/\/www.privateschoolreview.com\/wilmington-friends-school-profile","virtual":"No"},{"title":"Wilmington Junior Academy","lat":"39.751228","lon":"-75.6662411","type":"Private School","address":"3001 Millcreek Rd","grades":["Pre-K","Elementary","Middle"],"city":"Wilmington","state":"DE","zip":"19808","phone":"(302) 998-8583","low":"PK","high":"8","students":"59","cost":"Yes","url":"https:\/\/www.wjasda.org\/","review":"https:\/\/www.privateschoolreview.com\/wilmington-junior-academy-profile","virtual":"No"},{"title":"Wilmington Manor Elementary School","lat":"39.684177","lon":"-75.582217","type":"Traditional Public School","address":"200 East Roosevelt Avenue","grades":["Elementary"],"city":"New Castle","state":"DE","zip":"19720","phone":"(302) 323-2901","low":"K","high":"5","students":"312","cost":"No","url":"http:\/\/www.colonialschooldistrict.org\/wilmingtonmanor\/","review":"https:\/\/www.publicschoolreview.com\/wilmington-manor-elementary-school-profile","virtual":"No"},{"title":"Wilmington Montessori School","lat":"39.8042","lon":"-75.481","type":"Private School","address":"1400 Harvey Road","grades":["Pre-K","Elementary","Middle"],"city":"Wilmington","state":"DE","zip":"19810","phone":"(302) 475-0555","low":"NS","high":"8","students":"199","cost":"Yes","url":"https:\/\/www.wmsde.org","review":"https:\/\/www.privateschoolreview.com\/wilmington-montessori-school-profile","virtual":"No"},{"title":"Wilson (Etta J.) Elementary School","lat":"39.714839","lon":"-75.708127","type":"Traditional Public School","address":"14 Forge Road","grades":["Elementary"],"city":"Newark","state":"DE","zip":"19711","phone":"(302) 454-2180","low":"K","high":"5","students":"265","cost":"No","url":"https:\/\/www.google.com\/a\/christina.k12.de.us\/ServiceLogin2?continue=https%3A%2F%2Fsites.google.com%2Fa%2Fchristina.k12.de.us%2Fsites%2Fsystem%2Ferrors%2FWebspaceNotFound%3Fpath%3D%2Fwilson%2F&followup=https%3A%2F%2Fsites.google.com%2Fa%2Fchristina.k12.de.","review":"https:\/\/www.publicschoolreview.com\/wilson-etta-j-elementary-school-profile","virtual":"No"},{"title":"Woodbridge Early Childhood Education Center","lat":"38.80469","lon":"-75.587478","type":"Traditional Public School","address":"400 Governors Ave, 400 Governo","grades":["Pre-K","Elementary"],"city":"Greenwood","state":"DE","zip":"19950","phone":"(302) 349-4010","low":"PK","high":"2","students":"603","cost":"No","url":"https:\/\/www.wmsraiders.net\/","review":"https:\/\/www.publicschoolreview.com\/woodbridge-early-childhood-education-center-profile","virtual":"No"},{"title":"Woodbridge High School","lat":"38.739963","lon":"-75.60141","type":"Traditional Public School","address":"14712 Woodbridge Road","grades":["High"],"city":"Greenwood","state":"DE","zip":"19950","phone":"(302) 232-3333","low":"9","high":"12","students":"670","cost":"No","url":"https:\/\/www.whsraiders.net\/","review":"https:\/\/www.publicschoolreview.com\/woodbridge-high-school-profile\/19950","virtual":"No"},{"title":"Woodbridge Middle School","lat":"38.74981","lon":"-75.602475","type":"Traditional Public School","address":"307 Laws Street","grades":["Middle"],"city":"Bridgeville","state":"DE","zip":"19933","phone":"(302) 337-8289","low":"6","high":"8","students":"613","cost":"No","url":"https:\/\/www.wmsraiders.net\/","review":"https:\/\/www.publicschoolreview.com\/woodbridge-middle-school-profile\/19933","virtual":"No"}]