[{"title":"A Child's Place","lat":"39.352029","lon":"-76.6220672","type":"Private School","address":"4701 North Charles Street","grades":["Pre-K","Elementary"],"city":"Baltimore","state":"MD","zip":"21210","phone":"(410) 532-5399","low":"NS","high":"K","students":"60","cost":"Yes","url":"https:\/\/www.ndm.edu\/about-us\/our-community\/childs-place","review":"https:\/\/www.privateschoolreview.com\/a-child-s-place-profile","virtual":"No"},{"title":"A. Mario Loiederman Middle School","lat":"39.064588","lon":"-77.072042","type":"Traditional Public School","address":"12701 Goodhill Rd","grades":["Middle"],"city":"Silver Spring","state":"MD","zip":"20906","phone":"(240) 740-5830","low":"6","high":"8","students":"996","cost":"No","url":"https:\/\/www.montgomeryschoolsmd.org\/schools\/loiedermanms\/","review":"https:\/\/www.publicschoolreview.com\/a-mario-loiederman-middle-school-profile","virtual":"Yes"},{"title":"Abbottston Elementary School","lat":"39.324346","lon":"-76.599549","type":"Traditional Public School","address":"1300 Gorsuch Avenue","grades":["Pre-K","Elementary"],"city":"Baltimore","state":"MD","zip":"21218","phone":"(443) 984-2685","low":"PK","high":"5","students":"365","cost":"No","url":"https:\/\/www.baltimorecityschools.org\/domain\/851","review":"https:\/\/www.publicschoolreview.com\/abbottston-elementary-school-profile","virtual":"Yes"},{"title":"Aberdeen High School","lat":"39.516342","lon":"-76.172734","type":"Traditional Public School","address":"251 Paradise Rd","grades":["High"],"city":"Aberdeen","state":"MD","zip":"21001","phone":"(410) 273-5500","low":"9","high":"12","students":"1441","cost":"No","url":"https:\/\/www.hcps.org\/","review":"https:\/\/www.publicschoolreview.com\/aberdeen-high-school-profile\/21001","virtual":"Yes"},{"title":"Aberdeen Middle School","lat":"39.515326","lon":"-76.166968","type":"Traditional Public School","address":"111 Mount Royal Ave","grades":["Middle"],"city":"Aberdeen","state":"MD","zip":"21001","phone":"(410) 273-5510","low":"6","high":"8","students":"1204","cost":"No","url":"https:\/\/www.hcps.org\/","review":"https:\/\/www.publicschoolreview.com\/aberdeen-middle-school-profile","virtual":"Yes"},{"title":"Abingdon Elementary School","lat":"39.478419","lon":"-76.324994","type":"Traditional Public School","address":"399 Singer Rd","grades":["Pre-K","Elementary"],"city":"Abingdon","state":"MD","zip":"21009","phone":"(410) 638-3910","low":"PK","high":"5","students":"649","cost":"No","url":"https:\/\/www.hcps.org\/","review":"https:\/\/www.publicschoolreview.com\/abingdon-elementary-school-profile","virtual":"Yes"},{"title":"Academy Child Development Center","lat":"39.0591585","lon":"-77.1883378","type":"Private School","address":"9201 Falls Chapel Way","grades":["Pre-K"],"city":"Potomac","state":"MD","zip":"20854","phone":"(301) 424-4318","low":"NS","high":"NS","students":"20","cost":"Yes","url":"https:\/\/academychild.com\/","review":"https:\/\/www.privateschoolreview.com\/academy-child-development-center-profile\/20854","virtual":"No"},{"title":"Academy Child Development Center","lat":"39.0952325","lon":"-77.2194649","type":"Private School","address":"14327 Stonebridge View Dr","grades":["Pre-K","Elementary"],"city":"Gaithersburg","state":"MD","zip":"20878","phone":"(301) 762-8204","low":"PK","high":"K","students":"110","cost":"Yes","url":"https:\/\/academychild.com\/","review":"https:\/\/www.privateschoolreview.com\/academy-child-development-center-profile","virtual":"No"},{"title":"Academy Child Development Center At Dofief","lat":"39.1018929","lon":"-77.2375595","type":"Private School","address":"15001 Dufief Drive","grades":["Pre-K"],"city":"Gaithersburg","state":"MD","zip":"20878","phone":"(301) 309-1224","low":"NS","high":"PK","students":"57","cost":"Yes","url":"https:\/\/academychild.com\/","review":"https:\/\/www.privateschoolreview.com\/academy-child-development-center-at-dofief-profile","virtual":"No"},{"title":"Academy For College And Career Exploration","lat":"39.330365","lon":"-76.63721","type":"Traditional Public School","address":"1300 W 36th Street","grades":["Middle","High"],"city":"Baltimore","state":"MD","zip":"21211","phone":"(410) 396-7607","low":"6","high":"12","students":"715","cost":"No","url":"https:\/\/www.acce427.org\/","review":"https:\/\/www.publicschoolreview.com\/academy-for-college-and-career-exploration-profile","virtual":"Yes"},{"title":"Academy Of Health Sciences At Pgcc","lat":"38.8891117","lon":"-76.8248176","type":"Public Magnet School","address":"301 Largo Rd","grades":["High"],"city":"Upper Marlboro","state":"MD","zip":"20774","phone":"(301) 546-7247","low":"9","high":"12","students":"534","cost":"No","url":"https:\/\/schools.pgcps.org\/academyatpgcc\/","review":"https:\/\/www.publicschoolreview.com\/academy-of-health-sciences-at-pgcc-profile","virtual":"Yes"},{"title":"Accelerator School","lat":"39.152727","lon":"-77.311722","type":"Private School","address":"18031 Central Park Circle","grades":["Middle","High"],"city":"Boyds","state":"MD","zip":"20841","phone":"(732) 731-9598","low":"6","high":"12","students":"See website","cost":"Yes","url":"https:\/\/acceleratorschool.com\/dc-metro\/","review":"","virtual":"No"},{"title":"Accident Elementary School","lat":"39.583584","lon":"-79.282595","type":"Traditional Public School","address":"534 Accident-bittinger Rd","grades":["Pre-K","Elementary"],"city":"Accident","state":"MD","zip":"21520","phone":"(301) 746-8863","low":"PK","high":"5","students":"242","cost":"No","url":"https:\/\/sites.google.com\/site\/accidentelementaryschool\/","review":"https:\/\/www.publicschoolreview.com\/accident-elementary-school-profile","virtual":"Yes"},{"title":"Accokeek Academy","lat":"38.688303","lon":"-76.981193","type":"Traditional Public School","address":"14400 Berry Rd","grades":["Elementary","Middle"],"city":"Accokeek","state":"MD","zip":"20607","phone":"(301) 203-3200","low":"K","high":"8","students":"1543","cost":"No","url":"https:\/\/www.pgcps.org\/accokeek\/","review":"https:\/\/www.publicschoolreview.com\/accokeek-academy-profile","virtual":"Yes"},{"title":"Achievement Academy At Harbor City High School","lat":"39.317849","lon":"-76.593984","type":"Specialized Public School","address":"2201 Pinewood Avenue","grades":["High"],"city":"Baltimore","state":"MD","zip":"21214","phone":"(410) 396-6241","low":"9","high":"12","students":"372","cost":"No","url":"https:\/\/www.baltimorecityschools.org\/schools\/413","review":"https:\/\/www.publicschoolreview.com\/achievement-academy-at-harbor-city-high-school-profile","virtual":"Yes"},{"title":"Acorn Hill Waldorf Kindergarten & Nursery","lat":"39.01035165","lon":"-77.022","type":"Private School","address":"9504 Brunett Ave","grades":["Pre-K","Elementary"],"city":"Silver Spring","state":"MD","zip":"20901","phone":"(301) 565-2282","low":"NS","high":"K","students":"59","cost":"Yes","url":"https:\/\/acornhill.org\/","review":"https:\/\/www.privateschoolreview.com\/acorn-hill-waldorf-kindergarten-nursery-profile","virtual":"No"},{"title":"Adelphi Elementary School","lat":"38.999712","lon":"-76.97277","type":"Traditional Public School","address":"8820 Riggs Rd","grades":["Pre-K","Elementary","Middle"],"city":"Hyattsville","state":"MD","zip":"20783","phone":"(301) 431-6250","low":"PK","high":"6","students":"702","cost":"No","url":"https:\/\/www.pgcps.org\/adelphi\/","review":"https:\/\/www.publicschoolreview.com\/adelphi-elementary-school-profile","virtual":"Yes"},{"title":"Afya Public Charter School","lat":"39.324611","lon":"-76.573336","type":"Public Charter School","address":"2800 Brendan Avenue","grades":["Middle","High"],"city":"Baltimore","state":"MD","zip":"21213","phone":"(410) 485-2102","low":"8","high":"8","students":"112","cost":"No","url":"https:\/\/www.afyabaltimore.org\/","review":"https:\/\/www.publicschoolreview.com\/afya-public-charter-school-profile","virtual":"Yes"},{"title":"Al - Huda School","lat":"39.016","lon":"-76.9125","type":"Private School","address":"5301 Edgewood Rd.","grades":["Pre-K","Elementary","Middle","High"],"city":"College Park","state":"MD","zip":"20740","phone":"(301) 982-2402","low":"NS","high":"12","students":"627","cost":"Yes","url":"https:\/\/www.alhudaschoolmd.org\/","review":"https:\/\/www.privateschoolreview.com\/al-huda-school-profile","virtual":"No"},{"title":"Al - Rahmah School","lat":"39.3023722","lon":"-76.74545504","type":"Private School","address":"6631 Johnnycake Rd","grades":["Elementary","Middle"],"city":"Windsor Mill","state":"MD","zip":"21244","phone":"(410) 719-0921","low":"K","high":"8","students":"226","cost":"Yes","url":"https:\/\/alrahmah.org\/","review":"https:\/\/www.privateschoolreview.com\/al-rahmah-school-profile","virtual":"No"},{"title":"Albert Einstein High School","lat":"39.039987","lon":"-77.069992","type":"Traditional Public School","address":"11135 Newport Mill Rd","grades":["High"],"city":"Kensington","state":"MD","zip":"20895","phone":"(240) 740-2700","low":"9","high":"12","students":"1921","cost":"No","url":"https:\/\/www.montgomeryschoolsmd.org\/schools\/einsteinhs\/","review":"https:\/\/www.publicschoolreview.com\/albert-einstein-high-school-profile","virtual":"Yes"},{"title":"Alef Bet Montessori School","lat":"39.035632","lon":"-77.127956","type":"Private School","address":"6125 Tuckerman Lane","grades":["Elementary","Middle"],"city":"Rockville","state":"MD","zip":"20852","phone":"(301) 556-5010","low":"K","high":"6","students":"51","cost":"Yes","url":"https:\/\/www.alefbetmontessori.org\/","review":"https:\/\/www.privateschoolreview.com\/alef-bet-montessori-school-profile","virtual":"No"},{"title":"Alexander Hamilton Elementary School","lat":"39.297568","lon":"-76.665089","type":"Traditional Public School","address":"800 Poplar Grove Street","grades":["Pre-K","Elementary"],"city":"Baltimore","state":"MD","zip":"21216","phone":"(410) 396-0520","low":"PK","high":"5","students":"156","cost":"No","url":"https:\/\/millerpark.ops.org\/","review":"https:\/\/www.publicschoolreview.com\/alexander-hamilton-elementary-school-profile\/21216","virtual":"Yes"},{"title":"All About Children Learning Center","lat":"39.252959","lon":"-76.701123","type":"Private School","address":"1201 Maple Ave","grades":["Elementary"],"city":"Halethorpe","state":"MD","zip":"21227","phone":"(410) 242-6009","low":"K","high":"K","students":"See website","cost":"Yes","url":"http:\/\/www.arbutuspreschool.com\/","review":"","virtual":"No"},{"title":"Allegany Boys Camp","lat":"39.58205","lon":"-78.579461","type":"Private School","address":"20700 Wagner Cutoff Rd Se","grades":[],"city":"Oldtown","state":"MD","zip":"21555","phone":"(301) 478-5721","low":"UG","high":"UG","students":"30","cost":"Yes","url":"https:\/\/www.alleganyboyscamp.org\/","review":"https:\/\/www.privateschoolreview.com\/allegany-boys-camp-profile","virtual":"No"},{"title":"Allegany High School","lat":"39.656557","lon":"-78.775276","type":"Traditional Public School","address":"900 Seton Dr","grades":["High"],"city":"Cumberland","state":"MD","zip":"21502","phone":"(301) 777-8110","low":"9","high":"12","students":"736","cost":"No","url":"https:\/\/www.acpsmd.org\/Domain\/359","review":"https:\/\/www.publicschoolreview.com\/allegany-high-school-profile","virtual":"Yes"},{"title":"Allenwood Elementary School","lat":"38.803249","lon":"-76.929578","type":"Traditional Public School","address":"6300 Harley Ln","grades":["Pre-K","Elementary"],"city":"Temple Hills","state":"MD","zip":"20748","phone":"(301) 702-3930","low":"PK","high":"5","students":"322","cost":"No","url":"https:\/\/schools.pgcps.org\/allenwood\/","review":"https:\/\/www.publicschoolreview.com\/allenwood-elementary-school-profile","virtual":"Yes"},{"title":"Alpert Family Aleph Bet Jewish Day School","lat":"38.96624254","lon":"-76.51267577","type":"Private School","address":"1125 Spa Rd","grades":["Elementary"],"city":"Annapolis","state":"MD","zip":"21403","phone":"(410) 263-9044","low":"1","high":"5","students":"17","cost":"Yes","url":"","review":"https:\/\/www.privateschoolreview.com\/alpert-family-aleph-bet-jewish-day-school-profile","virtual":"No"},{"title":"Alternative Programs","lat":"39.094733","lon":"-77.123738","type":"Specialized Public School","address":"14501 Avery Road","grades":[],"city":"Rockville","state":"MD","zip":"20853","phone":"(240) 740-5000","low":"UG","high":"UG","students":"See website","cost":"No","url":"https:\/\/www.montgomeryschoolsmd.org\/schools\/blairewing\/","review":"https:\/\/www.publicschoolreview.com\/alternative-programs-profile","virtual":"Yes"},{"title":"An Nur Academy","lat":"38.96670286","lon":"-76.85646286","type":"Private School","address":"9150 Lanham Severn Road","grades":["Pre-K","Elementary"],"city":"Lanham","state":"MD","zip":"20706","phone":"(301) 459-4942","low":"PK","high":"2","students":"36","cost":"Yes","url":"","review":"https:\/\/www.privateschoolreview.com\/an-nur-academy-profile","virtual":"No"},{"title":"Andrew Jackson Academy","lat":"38.841156","lon":"-76.90964","type":"Traditional Public School","address":"3500 Regency Pkwy","grades":["Pre-K","Elementary","Middle"],"city":"District Heights","state":"MD","zip":"20747","phone":"(301) 817-0310","low":"PK","high":"8","students":"499","cost":"No","url":"https:\/\/schools.pgcps.org\/andrewjackson\/","review":"https:\/\/www.publicschoolreview.com\/andrew-jackson-academy-profile","virtual":"Yes"},{"title":"Annapolis Area Christian","lat":"38.99632","lon":"-76.532511","type":"Private School","address":"716 Bestgate Rd","grades":["Middle"],"city":"Annapolis","state":"MD","zip":"21401","phone":"(410) 846-3506","low":"6","high":"8","students":"222","cost":"Yes","url":"https:\/\/www.aacsonline.org\/","review":"","virtual":"No"},{"title":"Annapolis Area Christian School","lat":"39.105309","lon":"-76.6802313","type":"Private School","address":"109 Burns Crossing Road","grades":["Elementary","Middle","High"],"city":"Severn","state":"MD","zip":"21144","phone":"(410) 519-5300","low":"K","high":"12","students":"846","cost":"Yes","url":"https:\/\/www.aacsonline.org\/","review":"https:\/\/www.privateschoolreview.com\/annapolis-area-christian-school-profile","virtual":"No"},{"title":"Annapolis Elementary School","lat":"38.977063","lon":"-76.487882","type":"Traditional Public School","address":"180 Green Street","grades":["Pre-K","Elementary"],"city":"Annapolis","state":"MD","zip":"21401","phone":"(410) 222-1600","low":"PK","high":"5","students":"194","cost":"No","url":"https:\/\/www.aacps.org\/site\/Default.aspx?PageID=4007","review":"https:\/\/www.publicschoolreview.com\/annapolis-elementary-school-profile","virtual":"Yes"},{"title":"Annapolis High School","lat":"38.973256","lon":"-76.562068","type":"Traditional Public School","address":"2700 Riva Rd","grades":["High"],"city":"Annapolis","state":"MD","zip":"21401","phone":"(410) 266-5240","low":"9","high":"12","students":"2134","cost":"No","url":"https:\/\/www.annapolishighschool.org\/","review":"https:\/\/www.publicschoolreview.com\/annapolis-high-school-profile","virtual":"Yes"},{"title":"Annapolis Middle School","lat":"38.960068","lon":"-76.510361","type":"Traditional Public School","address":"1399 Forest Dr","grades":["Middle"],"city":"Annapolis","state":"MD","zip":"21403","phone":"(410) 267-8658","low":"6","high":"8","students":"1061","cost":"No","url":"https:\/\/www.aacps.org\/Page\/3949","review":"https:\/\/www.publicschoolreview.com\/annapolis-middle-school-profile","virtual":"Yes"},{"title":"Annapolis Road Academy","lat":"38.93955","lon":"-76.930796","type":"Specialized Public School","address":"2112 Church Rd","grades":["High"],"city":"Bowie","state":"MD","zip":"20721","phone":"(301) 209-3580","low":"9","high":"10","students":"83","cost":"No","url":"https:\/\/schools.pgcps.org\/annapolisroad\/","review":"https:\/\/www.publicschoolreview.com\/annapolis-road-academy-profile","virtual":"Yes"},{"title":"Anne Arundel Evening High School","lat":"39.145575","lon":"-76.528645","type":"Specialized Public School","address":"60 Robinson Road","grades":["High"],"city":"Severna Park","state":"MD","zip":"21146","phone":"(410) 544-0182","low":"9","high":"12","students":"227","cost":"No","url":"https:\/\/www.aacps.org\/Page\/1338","review":"https:\/\/www.publicschoolreview.com\/anne-arundel-evening-high-school-profile","virtual":"Yes"},{"title":"Antioch Christian School","lat":"39.0518","lon":"-76.4681","type":"Private School","address":"1535 Ritchie Hwy","grades":["Middle"],"city":"Arnold","state":"MD","zip":"21012","phone":"(410) 757-5000","low":"7","high":"8","students":"19","cost":"Yes","url":"https:\/\/theantioch.com\/","review":"","virtual":"No"},{"title":"Apple Grove Elementary School","lat":"38.788678","lon":"-76.963719","type":"Traditional Public School","address":"7400 Bellefield Ave","grades":["Pre-K","Elementary","Middle"],"city":"Fort Washington","state":"MD","zip":"20744","phone":"(301) 449-4966","low":"PK","high":"6","students":"460","cost":"No","url":"https:\/\/schools.pgcps.org\/applegrove\/","review":"https:\/\/www.publicschoolreview.com\/apple-grove-elementary-school-profile","virtual":"Yes"},{"title":"Apple Montessori School","lat":"38.98146917","lon":"-77.14975889","type":"Private School","address":"7210 Hidden Creek Rd","grades":["Pre-K","Elementary"],"city":"Bethesda","state":"MD","zip":"20817","phone":"(301) 320-8832","low":"PK","high":"K","students":"95","cost":"Yes","url":"http:\/\/applemontessorimd.com\/","review":"https:\/\/www.privateschoolreview.com\/apple-montessori-school-profile","virtual":"No"},{"title":"Apple Ridge Montessori School","lat":"39.34089553","lon":"-76.76048731","type":"Private School","address":"2118 Pine Ave","grades":["Pre-K","Elementary"],"city":"Windsor Mill","state":"MD","zip":"21244","phone":"(410) 818-2000","low":"PK","high":"K","students":"15","cost":"Yes","url":"https:\/\/www.appleridgemontessori.org\/","review":"https:\/\/www.privateschoolreview.com\/apple-ridge-montessori-school-profile","virtual":"No"},{"title":"Apple Tree Children's Center","lat":"39.45691397","lon":"-76.63668262","type":"Private School","address":"221 Old Padonia Rd","grades":["Pre-K","Elementary"],"city":"Cockeysville","state":"MD","zip":"21030","phone":"(410) 560-0611","low":"PK","high":"K","students":"25","cost":"Yes","url":"http:\/\/appletreecenter.com\/","review":"https:\/\/www.privateschoolreview.com\/apple-tree-children-s-center-profile","virtual":"No"},{"title":"Applications And Research Laboratory","lat":"39.234326","lon":"-76.891654","type":"Specialized Public School","address":"10920 Clarksville Pike","grades":[],"city":"Ellicott City","state":"MD","zip":"21042","phone":"(410) 313-6698","low":"UG","high":"UG","students":"See website","cost":"No","url":"https:\/\/arl.hcpss.org\/","review":"https:\/\/www.publicschoolreview.com\/applications-and-research-laboratory-profile","virtual":"Yes"},{"title":"Arbutus Elementary School","lat":"39.247218","lon":"-76.69669","type":"Traditional Public School","address":"1300 Sulphur Spring Rd","grades":["Pre-K","Elementary"],"city":"Halethorpe","state":"MD","zip":"21227","phone":"(410) 887-1400","low":"PK","high":"5","students":"390","cost":"No","url":"https:\/\/arbutuses.bcps.org\/","review":"https:\/\/www.publicschoolreview.com\/arbutus-elementary-school-profile","virtual":"Yes"},{"title":"Arbutus Middle School","lat":"39.249373","lon":"-76.705719","type":"Traditional Public School","address":"5525 Shelbourne Rd","grades":["Middle"],"city":"Halethorpe","state":"MD","zip":"21227","phone":"(410) 887-1402","low":"6","high":"8","students":"1004","cost":"No","url":"https:\/\/arbutusms.bcps.org\/","review":"https:\/\/www.publicschoolreview.com\/arbutus-middle-school-profile","virtual":"Yes"},{"title":"Archbishop Borders School","lat":"39.2850635","lon":"-76.5682236","type":"Private School","address":"3500 Foster Ave","grades":["Pre-K","Elementary","Middle"],"city":"Baltimore","state":"MD","zip":"21224","phone":"(410) 276-6534","low":"NS","high":"8","students":"245","cost":"Yes","url":"https:\/\/abbschool.com\/","review":"https:\/\/www.privateschoolreview.com\/archbishop-borders-school-profile","virtual":"No"},{"title":"Archbishop Curley High School","lat":"39.312709","lon":"-76.563152","type":"Private School","address":"3701 Sinclair Ln","grades":["High"],"city":"Baltimore","state":"MD","zip":"21213","phone":"(410) 485-5000","low":"9","high":"12","students":"537","cost":"Yes","url":"https:\/\/www.archbishopcurley.org\/","review":"https:\/\/www.privateschoolreview.com\/archbishop-curley-high-school-profile","virtual":"No"},{"title":"Archbishop Neale School","lat":"38.5271","lon":"-76.9875","type":"Private School","address":"104 Port Tobacco Rd","grades":["Pre-K","Elementary","Middle"],"city":"La Plata","state":"MD","zip":"20646","phone":"(301) 934-9595","low":"PK","high":"8","students":"368","cost":"Yes","url":"https:\/\/archbishopnealeschool.org\/","review":"https:\/\/www.privateschoolreview.com\/archbishop-neale-school-profile","virtual":"No"},{"title":"Archbishop Spalding High School","lat":"39.1245","lon":"-76.6432","type":"Private School","address":"8080 New Cut Road","grades":["High"],"city":"Severn","state":"MD","zip":"21144","phone":"(410) 969-9105","low":"9","high":"12","students":"1296","cost":"Yes","url":"https:\/\/www.archbishopspalding.org\/page\/Home","review":"https:\/\/www.privateschoolreview.com\/archbishop-spalding-high-school-profile","virtual":"No"},{"title":"Arcola Elementary School","lat":"39.046011","lon":"-77.038179","type":"Traditional Public School","address":"1820 Franwall Ave","grades":["Pre-K","Elementary"],"city":"Silver Spring","state":"MD","zip":"20902","phone":"(301) 287-8585","low":"PK","high":"5","students":"703","cost":"No","url":"https:\/\/www.montgomeryschoolsmd.org\/schools\/arcolaes\/","review":"https:\/\/www.publicschoolreview.com\/arcola-elementary-school-profile\/20902","virtual":"Yes"},{"title":"Ardmore Elementary School","lat":"38.936508","lon":"-76.846365","type":"Traditional Public School","address":"9301 Ardwick Ardmore Rd","grades":["Pre-K","Elementary"],"city":"Upper Marlboro","state":"MD","zip":"20774","phone":"(301) 925-1311","low":"PK","high":"5","students":"434","cost":"No","url":"https:\/\/schools.pgcps.org\/ardmore\/","review":"https:\/\/www.publicschoolreview.com\/ardmore-elementary-school-profile\/20774","virtual":"Yes"},{"title":"Argyle Middle School","lat":"39.090457","lon":"-77.049748","type":"Traditional Public School","address":"2400 Bel Pre Rd","grades":["Middle"],"city":"Silver Spring","state":"MD","zip":"20906","phone":"(301) 460-2400","low":"6","high":"8","students":"1043","cost":"No","url":"https:\/\/www.montgomeryschoolsmd.org\/schools\/argylems\/","review":"https:\/\/www.publicschoolreview.com\/argyle-middle-school-profile","virtual":"Yes"},{"title":"Arlington Baptist School","lat":"39.3402696","lon":"-76.7618564","type":"Private School","address":"3030 N Rolling Road","grades":["Pre-K","Elementary","Middle","High"],"city":"Windsor Mill","state":"MD","zip":"21244","phone":"(410) 655-9300","low":"PK","high":"12","students":"204","cost":"Yes","url":"https:\/\/www.arlingtonbaptistschool.org\/home.html","review":"https:\/\/www.privateschoolreview.com\/arlington-baptist-school-profile","virtual":"No"},{"title":"Arlington Elementary School","lat":"39.350793","lon":"-76.684953","type":"Traditional Public School","address":"3705 W Rogers Avenue","grades":["Pre-K","Elementary"],"city":"Baltimore","state":"MD","zip":"21215","phone":"(410) 396-0567","low":"PK","high":"5","students":"405","cost":"No","url":"https:\/\/www.baltimorecityschools.org\/schools\/234","review":"https:\/\/www.publicschoolreview.com\/arlington-elementary-school-profile\/21215","virtual":"Yes"},{"title":"Armistead Gardens Elementary\/Middle","lat":"39.304932","lon":"-76.553695","type":"Traditional Public School","address":"5001 E Eager Street","grades":["Pre-K","Elementary","Middle"],"city":"Baltimore","state":"MD","zip":"21205","phone":"(410) 396-9090","low":"PK","high":"8","students":"780","cost":"No","url":"https:\/\/www.baltimorecityschools.org\/site\/Default.aspx?PageID=8608","review":"https:\/\/www.publicschoolreview.com\/armistead-gardens-elementary-middle-profile","virtual":"Yes"},{"title":"Arnold Christian Academy","lat":"39.0504374","lon":"-76.501","type":"Private School","address":"365 Jones Station Road","grades":["Elementary","Middle"],"city":"Arnold","state":"MD","zip":"21012","phone":"(410) 544-1882","low":"K","high":"8","students":"41","cost":"Yes","url":"https:\/\/www.arnoldchristianacademy.org\/","review":"https:\/\/www.privateschoolreview.com\/arnold-christian-academy-profile","virtual":"No"},{"title":"Arnold Elementary School","lat":"39.033987","lon":"-76.499069","type":"Traditional Public School","address":"95 Joyce Lane E","grades":["Elementary"],"city":"Arnold","state":"MD","zip":"21012","phone":"(410) 457-4400","low":"K","high":"5","students":"481","cost":"No","url":"","review":"https:\/\/www.publicschoolreview.com\/arnold-elementary-school-profile\/21012","virtual":"Yes"},{"title":"Arrow Center For Education Tangram","lat":"39.398753","lon":"-76.570828","type":"Private School","address":"8830 Orchard Tree Ln","grades":["Elementary","Middle","High"],"city":"Towson","state":"MD","zip":"21286","phone":"(443) 798-6310","low":"3","high":"12","students":"27","cost":"Yes","url":"","review":"","virtual":"No"},{"title":"Arrowhead Elementary School","lat":"38.857132","lon":"-76.843578","type":"Traditional Public School","address":"2300 Sansbury Rd","grades":["Pre-K","Elementary"],"city":"Upper Marlboro","state":"MD","zip":"20772","phone":"(301) 499-7071","low":"PK","high":"5","students":"376","cost":"No","url":"https:\/\/www.pgcps.org\/arrowhead\/","review":"https:\/\/www.publicschoolreview.com\/arrowhead-elementary-school-profile\/20772","virtual":"Yes"},{"title":"Arthur Middleton Elementary School","lat":"38.603685","lon":"-76.922207","type":"Traditional Public School","address":"1109 Copley Ave","grades":["Pre-K","Elementary"],"city":"Waldorf","state":"MD","zip":"20602","phone":"(301) 645-3338","low":"PK","high":"5","students":"545","cost":"No","url":"https:\/\/www.ccboe.com\/schools\/middleton\/","review":"https:\/\/www.publicschoolreview.com\/arthur-middleton-elementary-school-profile","virtual":"Yes"},{"title":"Arts & Ideas Sudbury School","lat":"39.3436325","lon":"-76.5613136","type":"Private School","address":"4915 Holder Avenue","grades":["Elementary","Middle","High"],"city":"Baltimore","state":"MD","zip":"21214","phone":"(410) 426-0001","low":"K","high":"12","students":"See website","cost":"Yes","url":"https:\/\/www.aisudbury.org","review":"https:\/\/www.privateschoolreview.com\/arts-ideas-sudbury-school-profile","virtual":"No"},{"title":"Arundel Christian School","lat":"39.1669506","lon":"-76.7245162","type":"Private School","address":"7459 Candlewood Drive, Suites A-F","grades":["Pre-K","Elementary","Middle","High"],"city":"Hanover","state":"MD","zip":"21076","phone":"(410) 859-8573","low":"PK","high":"12","students":"411","cost":"Yes","url":"https:\/\/arundelchristianschool.org\/","review":"https:\/\/www.privateschoolreview.com\/arundel-christian-school-profile","virtual":"No"},{"title":"Arundel Elementary School","lat":"39.251648","lon":"-76.62738","type":"Traditional Public School","address":"2400 Round Road","grades":["Pre-K","Elementary"],"city":"Brooklyn","state":"MD","zip":"21225","phone":"(410) 396-1379","low":"PK","high":"2","students":"445","cost":"No","url":"https:\/\/www.baltimorecityschools.org:443\/schools\/164","review":"https:\/\/www.publicschoolreview.com\/arundel-elementary-school-profile\/21225","virtual":"Yes"},{"title":"Arundel High School","lat":"39.073583","lon":"-76.679503","type":"Traditional Public School","address":"1001 Annapolis Rd","grades":["High"],"city":"Gambrills","state":"MD","zip":"21054","phone":"(410) 674-6500","low":"9","high":"12","students":"1876","cost":"No","url":"https:\/\/www.arundelhigh.org\/","review":"https:\/\/www.publicschoolreview.com\/arundel-high-school-profile","virtual":"Yes"},{"title":"Arundel Middle School","lat":"39.076938","lon":"-76.688769","type":"Traditional Public School","address":"1179 Hammond Ln","grades":["Middle"],"city":"Odenton","state":"MD","zip":"21113","phone":"(410) 674-6900","low":"6","high":"8","students":"1119","cost":"No","url":"https:\/\/www.aacps.org\/Page\/1214","review":"https:\/\/www.publicschoolreview.com\/arundel-middle-school-profile","virtual":"Yes"},{"title":"Asbury Child Development Center","lat":"38.34213675","lon":"-75.60961026","type":"Private School","address":"1401 Camden Ave","grades":["Pre-K","Elementary"],"city":"Salisbury","state":"MD","zip":"21801","phone":"(410) 742-7058","low":"PK","high":"K","students":"68","cost":"Yes","url":"https:\/\/www.asburyweb.org\/","review":"https:\/\/www.privateschoolreview.com\/asbury-child-development-center-profile","virtual":"No"},{"title":"Asbury Community Christian Preschool","lat":"39.0337458","lon":"-76.5010681","type":"Private School","address":"78 Church Road","grades":["Pre-K"],"city":"Arnold","state":"MD","zip":"21012","phone":"(410) 757-7113","low":"NS","high":"PK","students":"198","cost":"Yes","url":"https:\/\/asburychristianpreschool.org\/","review":"https:\/\/www.privateschoolreview.com\/asbury-community-christian-preschool-profile","virtual":"No"},{"title":"Ascension Lutheran Church Nursery School","lat":"39.3867","lon":"-76.6062","type":"Private School","address":"7601 York Road","grades":["Pre-K"],"city":"Towson","state":"MD","zip":"21204","phone":"(410) 825-1725","low":"NS","high":"PK","students":"91","cost":"Yes","url":"http:\/\/www.nurseryschool.ascensiontowson.org","review":"https:\/\/www.privateschoolreview.com\/ascension-lutheran-church-nursery-school-profile","virtual":"No"},{"title":"Ashburton Elementary School","lat":"39.019938","lon":"-77.128081","type":"Traditional Public School","address":"6314 Lone Oak Dr","grades":["Pre-K","Elementary"],"city":"Bethesda","state":"MD","zip":"20817","phone":"(240) 740-1300","low":"PK","high":"5","students":"900","cost":"No","url":"https:\/\/www.montgomeryschoolsmd.org\/schools\/ashburtones\/","review":"https:\/\/www.publicschoolreview.com\/ashburton-elementary-school-profile","virtual":"Yes"},{"title":"Ashland Preschool Center","lat":"39.4932533","lon":"-76.6442519","type":"Private School","address":"116 Ashland Road","grades":["Pre-K","Elementary"],"city":"Cockeysville","state":"MD","zip":"21030","phone":"(410) 527-1845","low":"PK","high":"K","students":"216","cost":"Yes","url":"https:\/\/ashlandpreschool.org\/","review":"https:\/\/www.privateschoolreview.com\/ashland-preschool-center-profile","virtual":"No"},{"title":"Atholton Adventist Academy","lat":"39.1963","lon":"-76.8695","type":"Private School","address":"6520 Martin Road","grades":["Pre-K","Elementary","Middle","High"],"city":"Columbia","state":"MD","zip":"21044","phone":"(410) 740-2425","low":"PK","high":"10","students":"237","cost":"Yes","url":"https:\/\/www.atholtonadventistacademy.org\/","review":"https:\/\/www.privateschoolreview.com\/atholton-adventist-academy-profile","virtual":"No"},{"title":"Atholton Elementary School","lat":"39.186252","lon":"-76.862529","type":"Traditional Public School","address":"6700 Seneca Dr","grades":["Pre-K","Elementary"],"city":"Columbia","state":"MD","zip":"21046","phone":"(410) 313-6853","low":"PK","high":"5","students":"451","cost":"No","url":"https:\/\/aes.hcpss.org\/","review":"https:\/\/www.publicschoolreview.com\/atholton-elementary-school-profile","virtual":"Yes"},{"title":"Atholton High School","lat":"39.192567","lon":"-76.88089","type":"Traditional Public School","address":"6520 Freetown Rd","grades":["High"],"city":"Columbia","state":"MD","zip":"21044","phone":"(410) 313-7065","low":"9","high":"12","students":"1472","cost":"No","url":"https:\/\/ahs.hcpss.org\/","review":"https:\/\/www.publicschoolreview.com\/atholton-high-school-profile","virtual":"Yes"},{"title":"Atonement Lutheran School","lat":"39.40240845","lon":"-76.52936867","type":"Private School","address":"9121 Old Harford Road","grades":["Pre-K","Elementary","Middle"],"city":"Parkville","state":"MD","zip":"21234","phone":"(410) 668-3886","low":"NS","high":"8","students":"21","cost":"Yes","url":"https:\/\/atonementmke.org\/","review":"https:\/\/www.privateschoolreview.com\/atonement-lutheran-school-profile\/21234","virtual":"No"},{"title":"Augsburg Academy","lat":"39.0789202","lon":"-76.9215488","type":"Private School","address":"13800 Old Gunpowder Rd","grades":["Pre-K","Elementary","Middle","High"],"city":"Laurel","state":"MD","zip":"20707","phone":"(240) 786-0283","low":"PK","high":"9","students":"30","cost":"Yes","url":"","review":"https:\/\/www.privateschoolreview.com\/augsburg-academy-profile","virtual":"No"},{"title":"Augusta Fells Savage Institute Of Visual Arts","lat":"39.29674","lon":"-76.639999","type":"Traditional Public School","address":"1500 Harlem Avenue","grades":["High"],"city":"Baltimore","state":"MD","zip":"21217","phone":"(410) 396-7701","low":"9","high":"12","students":"481","cost":"No","url":"https:\/\/www.baltimorecityschools.org\/schools\/430","review":"https:\/\/www.publicschoolreview.com\/augusta-fells-savage-institute-of-visual-arts-profile","virtual":"Yes"},{"title":"Ava Wanas Montessori School","lat":"39.3651","lon":"-76.965351","type":"Private School","address":"7590 College Rd","grades":["Pre-K","Elementary"],"city":"Sykesville","state":"MD","zip":"21784","phone":"(410) 970-6181","low":"PK","high":"K","students":"62","cost":"Yes","url":"https:\/\/www.avawanasmontessori.com\/","review":"","virtual":"No"},{"title":"Avalon Elementary School","lat":"38.811512","lon":"-76.924101","type":"Traditional Public School","address":"7302 Webster Ln","grades":["Pre-K","Elementary"],"city":"Fort Washington","state":"MD","zip":"20744","phone":"(301) 449-4970","low":"PK","high":"5","students":"285","cost":"No","url":"https:\/\/schools.pgcps.org\/avalon\/","review":"https:\/\/www.publicschoolreview.com\/avalon-elementary-school-profile\/20744","virtual":"Yes"},{"title":"Baden Elementary School","lat":"38.661979","lon":"-76.770376","type":"Traditional Public School","address":"13601 Baden-westwood Rd","grades":["Pre-K","Elementary","Middle"],"city":"Brandywine","state":"MD","zip":"20613","phone":"(301) 888-1188","low":"PK","high":"6","students":"198","cost":"No","url":"https:\/\/schools.pgcps.org\/baden\/","review":"https:\/\/www.publicschoolreview.com\/baden-elementary-school-profile","virtual":"Yes"},{"title":"Bainbridge Elementary School","lat":"39.60647","lon":"-76.076645","type":"Traditional Public School","address":"41 Preston Dr","grades":["Pre-K","Elementary"],"city":"Port Deposit","state":"MD","zip":"21904","phone":"(410) 996-6030","low":"PK","high":"5","students":"265","cost":"No","url":"https:\/\/www.ccps.org\/Bain","review":"https:\/\/www.publicschoolreview.com\/bainbridge-elementary-school-profile\/21904","virtual":"Yes"},{"title":"Bais Hamedrash & Mesivta Of Baltimore","lat":"39.379313","lon":"-76.674556","type":"Private School","address":"6823 Old Pimlico Rd","grades":["High"],"city":"Baltimore","state":"MD","zip":"21209","phone":"(410) 486-0006","low":"9","high":"12","students":"97","cost":"Yes","url":"https:\/\/cjebaltimore.org\/","review":"https:\/\/www.privateschoolreview.com\/bais-hamedrash-mesivta-of-baltimore-profile","virtual":"No"},{"title":"Bais Yaakov Eva Winer High School","lat":"39.3721","lon":"-76.66","type":"Private School","address":"6302 Smith Ave","grades":["High"],"city":"Baltimore","state":"MD","zip":"21209","phone":"(443) 548-7700","low":"9","high":"12","students":"376","cost":"Yes","url":"https:\/\/www.baisyaakov.net\/","review":"","virtual":"No"},{"title":"Bais Yaakov School For Girls","lat":"39.42861449","lon":"-76.7281","type":"Private School","address":"11111 Park Heights Ave","grades":["Pre-K","Elementary","Middle","High"],"city":"Owings Mills","state":"MD","zip":"21117","phone":"(410) 363-3300","low":"PK","high":"12","students":"1537","cost":"Yes","url":"https:\/\/www.baisyaakov.net\/","review":"https:\/\/www.privateschoolreview.com\/bais-yaakov-school-for-girls-profile\/21117","virtual":"No"},{"title":"Bakerfield Elementary School","lat":"39.513039","lon":"-76.169971","type":"Traditional Public School","address":"36 Baker St","grades":["Pre-K","Elementary"],"city":"Aberdeen","state":"MD","zip":"21001","phone":"(410) 273-5518","low":"PK","high":"5","students":"383","cost":"No","url":"https:\/\/www.hcps.org\/","review":"https:\/\/www.publicschoolreview.com\/bakerfield-elementary-school-profile\/21001","virtual":"Yes"},{"title":"Ballenger Creek Elementary School","lat":"39.380332","lon":"-77.42586","type":"Traditional Public School","address":"5250 Kingsbrook Dr","grades":["Pre-K","Elementary"],"city":"Frederick","state":"MD","zip":"21703","phone":"(240) 236-2500","low":"PK","high":"5","students":"602","cost":"No","url":"https:\/\/education.fcps.org:443\/bces\/","review":"https:\/\/www.publicschoolreview.com\/ballenger-creek-elementary-school-profile","virtual":"Yes"},{"title":"Ballenger Creek Kindercare","lat":"39.396164","lon":"-77.436058","type":"Private School","address":"313 Ballenger Center Dr","grades":["Pre-K"],"city":"Frederick","state":"MD","zip":"21703","phone":"(301) 631-1174","low":"NS","high":"PK","students":"55","cost":"Yes","url":"https:\/\/www.kindercare.com\/our-centers\/frederick\/md\/301718?utm_campaign=kc-lg&utm_source=psr&utm_medium=pro","review":"","virtual":"No"},{"title":"Ballenger Creek Middle School","lat":"39.386166","lon":"-77.442349","type":"Traditional Public School","address":"5525 Ballenger Creek Pike","grades":["Middle"],"city":"Frederick","state":"MD","zip":"21703","phone":"(240) 236-5700","low":"6","high":"8","students":"800","cost":"No","url":"https:\/\/education.fcps.org:443\/bcms\/","review":"https:\/\/www.publicschoolreview.com\/ballenger-creek-middle-school-profile","virtual":"Yes"},{"title":"Baltimore Actor's Theatre - The Dumbarton House","lat":"39.3798","lon":"-76.6118","type":"Private School","address":"300 Dumbarton Rd","grades":["Elementary","Middle","High"],"city":"Baltimore","state":"MD","zip":"21212","phone":"(410) 337-8519","low":"3","high":"12","students":"12","cost":"Yes","url":"http:\/\/baltimoreactorstheatre.org","review":"https:\/\/www.privateschoolreview.com\/baltimore-actor-s-theatre-the-dumbarton-house-profile","virtual":"No"},{"title":"Baltimore City College","lat":"39.3278","lon":"-76.595257","type":"Traditional Public School","address":"3220 The Alameda","grades":["High"],"city":"Baltimore","state":"MD","zip":"21218","phone":"(410) 396-6557","low":"9","high":"12","students":"1439","cost":"No","url":"https:\/\/www.baltimorecitycollege.us\/?rn=1659467","review":"https:\/\/www.publicschoolreview.com\/baltimore-city-college-profile","virtual":"Yes"},{"title":"Baltimore Collegiate School For Boys","lat":"39.366719","lon":"-76.560547","type":"Public Charter School","address":"2525 Kirk Avenue","grades":["Elementary","Middle"],"city":"Baltimore","state":"MD","zip":"21218","phone":"(443) 642-5320","low":"4","high":"8","students":"466","cost":"No","url":"https:\/\/www.baltimorecollegiate.org\/","review":"https:\/\/www.publicschoolreview.com\/baltimore-collegiate-school-for-boys-profile","virtual":"Yes"},{"title":"Baltimore County Home & Hospital","lat":"39.354123","lon":"-76.45014","type":"Specialized Public School","address":"105 W. Chesapeake Avenue","grades":[],"city":"Towson","state":"MD","zip":"21204","phone":"(410) 887-3222","low":"UG","high":"UG","students":"See website","cost":"No","url":"https:\/\/www.bcps.org\/","review":"https:\/\/www.publicschoolreview.com\/baltimore-county-home-hospital-profile","virtual":"Yes"},{"title":"Baltimore Design School","lat":"39.3487224","lon":"-76.6002728","type":"Traditional Public School","address":"1500 Barclay Street","grades":["Middle","High"],"city":"Baltimore","state":"MD","zip":"21202","phone":"(443) 642-2311","low":"6","high":"12","students":"529","cost":"No","url":"https:\/\/baltimoredesignschool.com\/","review":"https:\/\/www.publicschoolreview.com\/baltimore-design-school-profile","virtual":"Yes"},{"title":"Baltimore Highlands Elementary School","lat":"39.237314","lon":"-76.641455","type":"Traditional Public School","address":"4200 Annapolis Rd","grades":["Pre-K","Elementary"],"city":"Halethorpe","state":"MD","zip":"21227","phone":"(410) 887-0919","low":"PK","high":"5","students":"469","cost":"No","url":"https:\/\/baltimorehighlandses.bcps.org\/","review":"https:\/\/www.publicschoolreview.com\/baltimore-highlands-elementary-school-profile","virtual":"Yes"},{"title":"Baltimore International Academy","lat":"39.33610794","lon":"-76.54958953","type":"Public Charter School","address":"4410 Frankford Avenue","grades":["Elementary","Middle"],"city":"Baltimore","state":"MD","zip":"21206","phone":"(410) 426-3650","low":"K","high":"8","students":"752","cost":"No","url":"https:\/\/www.baltimorecityschools.org\/schools\/335","review":"https:\/\/www.publicschoolreview.com\/baltimore-international-academy-profile","virtual":"Yes"},{"title":"Baltimore International Academy West","lat":"39.298143","lon":"-76.692432","type":"Public Charter School","address":"4300 Sidehill Road","grades":["Elementary","Middle"],"city":"Baltimore","state":"MD","zip":"21214","phone":"(443) 278-9417","low":"K","high":"7","students":"150","cost":"No","url":"https:\/\/www.baltimorecityschools.org:443\/schools\/385","review":"https:\/\/www.publicschoolreview.com\/baltimore-international-academy-west-profile","virtual":"Yes"},{"title":"Baltimore Junior Academy","lat":"39.33712018","lon":"-76.6727193","type":"Private School","address":"3006 W Cold Spring Lane","grades":["Pre-K","Elementary","Middle"],"city":"Baltimore","state":"MD","zip":"21215","phone":"(410) 542-6758","low":"PK","high":"8","students":"71","cost":"Yes","url":"https:\/\/www.bjacademy.org\/","review":"https:\/\/www.privateschoolreview.com\/baltimore-junior-academy-profile","virtual":"No"},{"title":"Baltimore Lab School","lat":"39.315092","lon":"-76.615541","type":"Private School","address":"2220 St. Paul Street","grades":["Elementary","Middle","High"],"city":"Baltimore","state":"MD","zip":"21218","phone":"(410) 261-5500","low":"1","high":"12","students":"103","cost":"Yes","url":"https:\/\/www.baltimorelabschool.org\/","review":"https:\/\/www.privateschoolreview.com\/baltimore-lab-school-profile","virtual":"No"},{"title":"Baltimore Leadership School For Young Women","lat":"39.295104","lon":"-76.617299","type":"Public Charter School","address":"128 W Franklin Street","grades":["Middle","High"],"city":"Baltimore","state":"MD","zip":"21201","phone":"(443) 642-2048","low":"6","high":"12","students":"531","cost":"No","url":"https:\/\/blsyw.org\/","review":"https:\/\/www.publicschoolreview.com\/baltimore-leadership-school-for-young-women-profile","virtual":"Yes"},{"title":"Baltimore Montessori","lat":"39.26872","lon":"-76.592902","type":"Private School","address":"1530 E Fort Ave","grades":["Pre-K","Elementary"],"city":"Baltimore","state":"MD","zip":"21230","phone":"(410) 685-7116","low":"PK","high":"K","students":"65","cost":"Yes","url":"https:\/\/thebaltimoremontessori.com\/","review":"","virtual":"No"},{"title":"Baltimore Montessori Public Charter School","lat":"39.308343","lon":"-76.612234","type":"Public Charter School","address":"1600 Guilford Avenue","grades":["Pre-K","Elementary","Middle"],"city":"Baltimore","state":"MD","zip":"21202","phone":"(410) 528-5393","low":"PK","high":"8","students":"479","cost":"No","url":"https:\/\/baltimoremontessoricharter.org\/","review":"https:\/\/www.publicschoolreview.com\/baltimore-montessori-public-charter-school-profile","virtual":"Yes"},{"title":"Baltimore Polytechnic Institute","lat":"39.34501","lon":"-76.642637","type":"Traditional Public School","address":"1400 W Cold Spring Lane","grades":["High"],"city":"Baltimore","state":"MD","zip":"21209","phone":"(410) 396-7026","low":"9","high":"12","students":"1619","cost":"No","url":"https:\/\/www.bpi.edu\/index.jsp","review":"https:\/\/www.publicschoolreview.com\/baltimore-polytechnic-institute-profile","virtual":"Yes"},{"title":"Baltimore School Canton The","lat":"39.28099","lon":"-76.573771","type":"Private School","address":"1001 S Potomac St","grades":["Pre-K","Elementary"],"city":"Baltimore","state":"MD","zip":"21224","phone":"(410) 342-7116","low":"PK","high":"K","students":"25","cost":"Yes","url":"https:\/\/thebaltimoremontessori.com\/","review":"","virtual":"No"},{"title":"Baltimore School For The Arts","lat":"39.297896","lon":"-76.617128","type":"Traditional Public School","address":"712 Cathedral Street","grades":["High"],"city":"Baltimore","state":"MD","zip":"21201","phone":"(443) 642-5165","low":"9","high":"12","students":"433","cost":"No","url":"https:\/\/www.bsfa.org\/","review":"https:\/\/www.publicschoolreview.com\/baltimore-school-for-the-arts-profile","virtual":"Yes"},{"title":"Baltimore White Marsh Adventist School","lat":"39.35741792","lon":"-76.48753508","type":"Private School","address":"7427 Rossville Blvd","grades":["Pre-K","Elementary","Middle"],"city":"Rosedale","state":"MD","zip":"21237","phone":"(410) 663-1819","low":"PK","high":"8","students":"32","cost":"Yes","url":"","review":"https:\/\/www.privateschoolreview.com\/baltimore-white-marsh-adventist-school-profile","virtual":"No"},{"title":"Bannockburn Elementary School","lat":"38.974094","lon":"-77.136958","type":"Traditional Public School","address":"6520 Dalroy Ln","grades":["Pre-K","Elementary"],"city":"Bethesda","state":"MD","zip":"20817","phone":"(240) 740-1270","low":"PK","high":"5","students":"401","cost":"No","url":"https:\/\/www.montgomeryschoolsmd.org\/schools\/bannockburnes\/","review":"https:\/\/www.publicschoolreview.com\/bannockburn-elementary-school-profile","virtual":"Yes"},{"title":"Barack Obama Elementary School","lat":"38.8317535","lon":"-76.7887048","type":"Traditional Public School","address":"12700 Brooke Ln","grades":["Pre-K","Elementary"],"city":"Upper Marlboro","state":"MD","zip":"20772","phone":"(301) 574-4020","low":"PK","high":"5","students":"743","cost":"No","url":"https:\/\/schools.pgcps.org\/barackobama\/","review":"https:\/\/www.publicschoolreview.com\/barack-obama-elementary-school-profile\/20772","virtual":"Yes"},{"title":"Barbara Ingram School For The Arts","lat":"39.645016","lon":"-77.72721","type":"Public Magnet School","address":"7-11 S. Potomac Street","grades":["High"],"city":"Hagerstown","state":"MD","zip":"21740","phone":"(301) 766-8840","low":"9","high":"12","students":"333","cost":"No","url":"https:\/\/barbaraingramfoundation.org\/","review":"https:\/\/www.publicschoolreview.com\/barbara-ingram-school-for-the-arts-profile","virtual":"Yes"},{"title":"Barclay Elementary\/Middle","lat":"39.323774","lon":"-76.611104","type":"Traditional Public School","address":"2900 Barclay Street","grades":["Pre-K","Elementary","Middle"],"city":"Baltimore","state":"MD","zip":"21218","phone":"(410) 396-6387","low":"PK","high":"8","students":"425","cost":"No","url":"https:\/\/www.baltimorecityschools.org:443\/schools\/54","review":"https:\/\/www.publicschoolreview.com\/barclay-elementary-middle-profile","virtual":"Yes"},{"title":"Bard High School Early College","lat":"39.3036804","lon":"-76.5904511","type":"Traditional Public School","address":"2801 N Dukeland Street","grades":["High"],"city":"Baltimore","state":"MD","zip":"21216","phone":"(443) 642-5040","low":"9","high":"12","students":"421","cost":"No","url":"https:\/\/www.baltimorecityschools.org:443\/schools\/362","review":"https:\/\/www.publicschoolreview.com\/bard-high-school-early-college-profile\/21216","virtual":"Yes"},{"title":"Barnaby Manor Elementary School","lat":"38.817223","lon":"-76.965071","type":"Traditional Public School","address":"2411 Owens Rd","grades":["Pre-K","Elementary"],"city":"Oxon Hill","state":"MD","zip":"20745","phone":"(301) 702-7560","low":"PK","high":"5","students":"459","cost":"No","url":"https:\/\/schools.pgcps.org\/barnabymanor\/","review":"https:\/\/www.publicschoolreview.com\/barnaby-manor-elementary-school-profile","virtual":"Yes"},{"title":"Barnesville School Of Arts & Sciences","lat":"39.21","lon":"-77.3817","type":"Private School","address":"21830 Peach Tree Road","grades":["Pre-K","Elementary","Middle"],"city":"Barnesville","state":"MD","zip":"20838","phone":"(301) 972-0341","low":"NS","high":"8","students":"130","cost":"Yes","url":"https:\/\/www.barnesvilleschool.org\/","review":"https:\/\/www.privateschoolreview.com\/barnesville-school-of-arts-sciences-profile","virtual":"No"},{"title":"Barrie School","lat":"39.0771","lon":"-77.0462","type":"Private School","address":"13500 Layhill Road","grades":["Pre-K","Elementary","Middle","High"],"city":"Silver Spring","state":"MD","zip":"20906","phone":"(301) 576-2800","low":"NS","high":"12","students":"354","cost":"Yes","url":"http:\/\/barrie.org","review":"https:\/\/www.privateschoolreview.com\/barrie-school-profile","virtual":"No"},{"title":"Barstow Elementary School","lat":"38.53977","lon":"-76.61059","type":"Traditional Public School","address":"295 Williams Rd","grades":["Pre-K","Elementary"],"city":"Prince Frederick","state":"MD","zip":"20678","phone":"(443) 550-9510","low":"PK","high":"5","students":"605","cost":"No","url":"https:\/\/baesweb.calvertnet.k12.md.us\/","review":"https:\/\/www.publicschoolreview.com\/barstow-elementary-school-profile","virtual":"Yes"},{"title":"Battle Grove Elementary School","lat":"39.26813","lon":"-76.474972","type":"Traditional Public School","address":"7828 St Patricia Ln","grades":["Pre-K","Elementary"],"city":"Dundalk","state":"MD","zip":"21222","phone":"(410) 887-7500","low":"PK","high":"5","students":"334","cost":"No","url":"https:\/\/battlegrovees.bcps.org\/","review":"https:\/\/www.publicschoolreview.com\/battle-grove-elementary-school-profile","virtual":"Yes"},{"title":"Battle Monument School","lat":"39.276357","lon":"-76.48588","type":"Specialized Public School","address":"7801 E Collingham Dr","grades":["Pre-K","Elementary","Middle","High"],"city":"Dundalk","state":"MD","zip":"21222","phone":"(410) 887-7000","low":"PK","high":"12","students":"63","cost":"No","url":"https:\/\/battlemonumentes.bcps.org\/","review":"https:\/\/www.publicschoolreview.com\/battle-monument-school-profile","virtual":"Yes"},{"title":"Bay - Brook Elementary\/Middle","lat":"39.226536","lon":"-76.599815","type":"Traditional Public School","address":"4301 10th Street","grades":["Pre-K","Elementary","Middle"],"city":"Brooklyn","state":"MD","zip":"21225","phone":"(410) 396-1357","low":"PK","high":"8","students":"622","cost":"No","url":"https:\/\/www.baltimorecityschools.org\/schools\/124","review":"https:\/\/www.publicschoolreview.com\/bay-brook-elementary-middle-profile","virtual":"Yes"},{"title":"Bay Montessori School","lat":"38.2312","lon":"-76.4594","type":"Private School","address":"20525 Willows Rd","grades":["Pre-K","Elementary","Middle"],"city":"Lexington Park","state":"MD","zip":"20653","phone":"(301) 737-2421","low":"PK","high":"8","students":"83","cost":"Yes","url":"https:\/\/www.baymontessori.com\/","review":"https:\/\/www.privateschoolreview.com\/bay-montessori-school-profile","virtual":"No"},{"title":"Bay View Elementary School","lat":"39.645915","lon":"-75.95814","type":"Traditional Public School","address":"910 North East Rd","grades":["Pre-K","Elementary"],"city":"North East","state":"MD","zip":"21901","phone":"(410) 996-6230","low":"PK","high":"5","students":"414","cost":"No","url":"https:\/\/www.ccps.org\/bayview","review":"https:\/\/www.publicschoolreview.com\/bay-view-elementary-school-profile\/21901","virtual":"Yes"},{"title":"Bayard Rustin Elementary School","lat":"39.071046","lon":"-77.143839","type":"Traditional Public School","address":"322 W Edmonston Dr","grades":["Pre-K","Elementary"],"city":"Rockville","state":"MD","zip":"20852","phone":"(240) 740-4320","low":"PK","high":"5","students":"686","cost":"No","url":"https:\/\/www2.montgomeryschoolsmd.org\/schools\/rustines","review":"https:\/\/www.publicschoolreview.com\/bayard-rustin-elementary-school-profile","virtual":"Yes"},{"title":"Bayside Elementary School","lat":"38.981297","lon":"-76.311668","type":"Traditional Public School","address":"301 Church St","grades":["Elementary"],"city":"Stevensville","state":"MD","zip":"21666","phone":"(410) 643-6181","low":"3","high":"5","students":"393","cost":"No","url":"https:\/\/www.qacps.org\/bes","review":"https:\/\/www.publicschoolreview.com\/bayside-elementary-school-profile\/21666","virtual":"Yes"},{"title":"Bcdc Educational Center","lat":"39.352267","lon":"-76.4520883","type":"Specialized Public School","address":"105 W. Chesapeake Avenue","grades":["High"],"city":"Towson","state":"MD","zip":"21204","phone":"(410) 887-4360","low":"9","high":"12","students":"31","cost":"No","url":"","review":"https:\/\/www.publicschoolreview.com\/bcdc-educational-center-profile","virtual":"Yes"},{"title":"Beach Elementary School","lat":"38.683084","lon":"-76.537261","type":"Traditional Public School","address":"7900 Old Bayside Rd","grades":["Pre-K","Elementary"],"city":"Chesapeake Beach","state":"MD","zip":"20732","phone":"(443) 550-9520","low":"PK","high":"5","students":"483","cost":"No","url":"https:\/\/besweb.calvertnet.k12.md.us\/","review":"https:\/\/www.publicschoolreview.com\/beach-elementary-school-profile\/20732","virtual":"Yes"},{"title":"Beacon Heights Elementary School","lat":"38.957843","lon":"-76.899382","type":"Traditional Public School","address":"6929 Furman Pkwy","grades":["Pre-K","Elementary","Middle"],"city":"Riverdale","state":"MD","zip":"20737","phone":"(301) 918-8700","low":"PK","high":"6","students":"412","cost":"No","url":"https:\/\/schools.pgcps.org\/beaconheights\/","review":"https:\/\/www.publicschoolreview.com\/beacon-heights-elementary-school-profile","virtual":"Yes"},{"title":"Beall Elementary School","lat":"39.087224","lon":"-77.161597","type":"Traditional Public School","address":"451 Beall Ave","grades":["Pre-K","Elementary"],"city":"Rockville","state":"MD","zip":"20850","phone":"(240) 740-1220","low":"PK","high":"5","students":"516","cost":"No","url":"https:\/\/montgomeryschoolsmd.org\/schools\/bealles\/","review":"https:\/\/www.publicschoolreview.com\/beall-elementary-school-profile\/20850","virtual":"Yes"},{"title":"Beall Elementary School","lat":"39.654717","lon":"-78.931681","type":"Traditional Public School","address":"3 E College Ave","grades":["Pre-K","Elementary"],"city":"Frostburg","state":"MD","zip":"21532","phone":"(301) 689-3636","low":"PK","high":"5","students":"445","cost":"No","url":"https:\/\/www.acpsmd.org\/Domain\/147","review":"https:\/\/www.publicschoolreview.com\/beall-elementary-school-profile","virtual":"Yes"},{"title":"Bear Creek Elementary School","lat":"39.269818","lon":"-76.482548","type":"Traditional Public School","address":"1601 Melbourne Rd","grades":["Pre-K","Elementary"],"city":"Dundalk","state":"MD","zip":"21222","phone":"(410) 887-7007","low":"PK","high":"5","students":"457","cost":"No","url":"https:\/\/bearcreekes.bcps.org\/","review":"https:\/\/www.publicschoolreview.com\/bear-creek-elementary-school-profile\/21222","virtual":"Yes"},{"title":"Beary Best Kindergarten","lat":"38.3465215","lon":"-75.1917026","type":"Private School","address":"10032 Friendship Road","grades":["Elementary"],"city":"Berlin","state":"MD","zip":"21811","phone":"(410) 641-4245","low":"K","high":"K","students":"See website","cost":"Yes","url":"https:\/\/www.facebook.com\/pages\/Beary-Best-Day-Care-Center\/308503595904742","review":"","virtual":"No"},{"title":"Beaver Creek Childcare & Kindergarten","lat":"39.00902062","lon":"-76.6801565","type":"Private School","address":"2165 Davidsonville Rd","grades":["Pre-K","Elementary"],"city":"Gambrills","state":"MD","zip":"21054","phone":"(410) 721-4145","low":"PK","high":"K","students":"108","cost":"Yes","url":"http:\/\/www.beavercreekchildcare.com","review":"","virtual":"No"},{"title":"Beaver Run School","lat":"38.37682","lon":"-75.52017","type":"Traditional Public School","address":"31481 Ocean City Rd","grades":["Pre-K","Elementary"],"city":"Salisbury","state":"MD","zip":"21804","phone":"(410) 677-5101","low":"PK","high":"2","students":"546","cost":"No","url":"http:\/\/brs.wcboe.org\/","review":"https:\/\/www.publicschoolreview.com\/beaver-run-school-profile","virtual":"Yes"},{"title":"Beddow School - Ft Washington Campus","lat":"38.77168632","lon":"-77.0162","type":"Private School","address":"8600 Loughran Rd","grades":["Pre-K","Elementary","Middle"],"city":"Fort Washington","state":"MD","zip":"20744","phone":"(301) 567-0330","low":"PK","high":"6","students":"37","cost":"Yes","url":"https:\/\/www.beddowschool.org\/","review":"https:\/\/www.privateschoolreview.com\/beddow-school-ft-washington-campus-profile","virtual":"No"},{"title":"Bedford Elementary School","lat":"39.359667","lon":"-76.731257","type":"Traditional Public School","address":"7407 Dorman Dr","grades":["Elementary"],"city":"Pikesville","state":"MD","zip":"21208","phone":"(410) 887-1200","low":"1","high":"5","students":"319","cost":"No","url":"https:\/\/bedfordes.bcps.org\/","review":"https:\/\/www.publicschoolreview.com\/bedford-elementary-school-profile\/21208","virtual":"Yes"},{"title":"Beechfield Elementary\/Middle","lat":"39.280681","lon":"-76.694123","type":"Traditional Public School","address":"301 S Beechfield Avenue","grades":["Pre-K","Elementary","Middle"],"city":"Baltimore","state":"MD","zip":"21229","phone":"(410) 396-0525","low":"PK","high":"8","students":"643","cost":"No","url":"https:\/\/www.baltimorecityschools.org\/","review":"https:\/\/www.publicschoolreview.com\/beechfield-elementary-middle-profile","virtual":"Yes"},{"title":"Beginnings Montessori School","lat":"39.651338","lon":"-78.768315","type":"Private School","address":"15 N. Smallwood St.","grades":["Pre-K","Elementary","Middle"],"city":"Cumberland","state":"MD","zip":"21502","phone":"(240) 580-3315","low":"PK","high":"6","students":"74","cost":"Yes","url":"http:\/\/www.beginningsmontessori.com\/","review":"https:\/\/www.privateschoolreview.com\/beginnings-montessori-school-profile","virtual":"No"},{"title":"Bel Air Elementary School","lat":"39.577314","lon":"-78.851748","type":"Traditional Public School","address":"14401 Barton Blvd","grades":["Pre-K","Elementary"],"city":"Cumberland","state":"MD","zip":"21502","phone":"(301) 729-2992","low":"PK","high":"5","students":"216","cost":"No","url":"https:\/\/www.acpsmd.org\/Domain\/288","review":"https:\/\/www.publicschoolreview.com\/bel-air-elementary-school-profile\/21502","virtual":"Yes"},{"title":"Bel Air Elementary School","lat":"39.538522","lon":"-76.349695","type":"Traditional Public School","address":"30 E Lee St","grades":["Pre-K","Elementary"],"city":"Bel Air","state":"MD","zip":"21014","phone":"(410) 638-4160","low":"PK","high":"5","students":"522","cost":"No","url":"https:\/\/www.hcps.org\/","review":"https:\/\/www.publicschoolreview.com\/bel-air-elementary-school-profile\/21014","virtual":"Yes"},{"title":"Bel Air High School","lat":"39.530842","lon":"-76.345543","type":"Traditional Public School","address":"100 Heighe St","grades":["High"],"city":"Bel Air","state":"MD","zip":"21014","phone":"(410) 638-4600","low":"9","high":"12","students":"1557","cost":"No","url":"https:\/\/mybahs.com\/","review":"https:\/\/www.publicschoolreview.com\/bel-air-high-school-profile","virtual":"Yes"},{"title":"Bel Air Kiddie Academy","lat":"39.4942517","lon":"-76.3217815","type":"Private School","address":"2235 Old Emmorton Rd","grades":["Pre-K","Elementary"],"city":"Bel Air","state":"MD","zip":"21015","phone":"(410) 515-0111","low":"PK","high":"K","students":"34","cost":"Yes","url":"https:\/\/childrensmanor.com\/","review":"https:\/\/www.privateschoolreview.com\/bel-air-kiddie-academy-profile","virtual":"No"},{"title":"Bel Air Middle School","lat":"39.528442","lon":"-76.343818","type":"Traditional Public School","address":"99 Idlewild Street","grades":["Middle"],"city":"Bel Air","state":"MD","zip":"21014","phone":"(410) 638-4140","low":"6","high":"8","students":"1441","cost":"No","url":"https:\/\/www.hcps.org\/","review":"https:\/\/www.publicschoolreview.com\/bel-air-middle-school-profile","virtual":"Yes"},{"title":"Bel Pre Elementary School","lat":"39.082085","lon":"-77.055863","type":"Traditional Public School","address":"13801 Rippling Brook Drive","grades":["Pre-K","Elementary"],"city":"Silver Spring","state":"MD","zip":"20906","phone":"(301) 287-8870","low":"PK","high":"2","students":"549","cost":"No","url":"https:\/\/montgomeryschoolsmd.org\/schools\/belprees\/","review":"https:\/\/www.publicschoolreview.com\/bel-pre-elementary-school-profile","virtual":"Yes"},{"title":"Belair Baptist Christian Academy","lat":"39.0068","lon":"-76.7791","type":"Private School","address":"2801 Belair Drive","grades":["Pre-K","Elementary","Middle","High"],"city":"Bowie","state":"MD","zip":"20715","phone":"(301) 262-0578","low":"PK","high":"12","students":"45","cost":"Yes","url":"https:\/\/belairbaptistacademy.org\/","review":"https:\/\/www.privateschoolreview.com\/belair-baptist-christian-academy-profile","virtual":"No"},{"title":"Belle Grove Elementary School","lat":"39.197405","lon":"-76.661884","type":"Traditional Public School","address":"4502 Belle Grove Road","grades":["Pre-K","Elementary"],"city":"Brooklyn","state":"MD","zip":"21225","phone":"(410) 222-6589","low":"PK","high":"5","students":"287","cost":"No","url":"https:\/\/www.aacps.org\/Page\/4103","review":"https:\/\/www.publicschoolreview.com\/belle-grove-elementary-school-profile","virtual":"Yes"},{"title":"Bellows Spring Elementary School","lat":"39.200496","lon":"-76.784256","type":"Traditional Public School","address":"8125 Old Stockbridge Dr","grades":["Pre-K","Elementary"],"city":"Ellicott City","state":"MD","zip":"21043","phone":"(410) 313-5057","low":"PK","high":"5","students":"676","cost":"No","url":"http:\/\/bses.hcpss.org\/","review":"https:\/\/www.publicschoolreview.com\/bellows-spring-elementary-school-profile","virtual":"Yes"},{"title":"Bells Mill Elementary School","lat":"39.031285","lon":"-77.168687","type":"Traditional Public School","address":"8225 Bells Mill Rd","grades":["Pre-K","Elementary"],"city":"Potomac","state":"MD","zip":"20854","phone":"(240) 740-0480","low":"PK","high":"5","students":"579","cost":"No","url":"https:\/\/montgomeryschoolsmd.org\/schools\/bellsmilles\/","review":"https:\/\/www.publicschoolreview.com\/bells-mill-elementary-school-profile","virtual":"Yes"},{"title":"Belmont Elementary School","lat":"39.17786","lon":"-77.066702","type":"Traditional Public School","address":"19528 Olney Mill Rd","grades":["Pre-K","Elementary"],"city":"Olney","state":"MD","zip":"20832","phone":"(301) 924-3140","low":"PK","high":"5","students":"340","cost":"No","url":"https:\/\/montgomeryschoolsmd.org\/schools\/belmontes\/","review":"https:\/\/www.publicschoolreview.com\/belmont-elementary-school-profile\/20832","virtual":"Yes"},{"title":"Belmont Elementary School","lat":"39.302838","lon":"-76.670597","type":"Traditional Public School","address":"1406 N Ellamont Street","grades":["Pre-K","Elementary"],"city":"Baltimore","state":"MD","zip":"21216","phone":"(410) 396-0579","low":"PK","high":"5","students":"241","cost":"No","url":"https:\/\/www.baltimorecityschools.org\/schools\/217","review":"https:\/\/www.publicschoolreview.com\/belmont-elementary-school-profile\/21216","virtual":"Yes"},{"title":"Beltsville Academy","lat":"39.038565","lon":"-76.918944","type":"Traditional Public School","address":"4300 Wicomico Ave","grades":["Pre-K","Elementary","Middle"],"city":"Beltsville","state":"MD","zip":"20705","phone":"(301) 572-0630","low":"PK","high":"8","students":"1143","cost":"No","url":"https:\/\/schools.pgcps.org\/beltsville\/","review":"https:\/\/www.publicschoolreview.com\/beltsville-academy-profile","virtual":"Yes"},{"title":"Beltsville Sda School","lat":"39.0533","lon":"-76.9189","type":"Private School","address":"4230 Ammendale Rd","grades":["Elementary","Middle"],"city":"Beltsville","state":"MD","zip":"20705","phone":"(301) 937-2933","low":"K","high":"8","students":"218","cost":"Yes","url":"http:\/\/baschool.org\/","review":"https:\/\/www.privateschoolreview.com\/beltsville-sda-school-profile","virtual":"No"},{"title":"Belvedere Elementary School","lat":"39.058644","lon":"-76.49948","type":"Traditional Public School","address":"360 Broadwater Rd","grades":["Pre-K","Elementary"],"city":"Arnold","state":"MD","zip":"21012","phone":"(410) 975-9432","low":"PK","high":"5","students":"483","cost":"No","url":"https:\/\/www.aacps.org\/site\/Default.aspx?PageID=4118","review":"https:\/\/www.publicschoolreview.com\/belvedere-elementary-school-profile\/21012","virtual":"Yes"},{"title":"Benfield Elementary School","lat":"39.088209","lon":"-76.588761","type":"Traditional Public School","address":"365 Lynwood Dr","grades":["Pre-K","Elementary"],"city":"Severna Park","state":"MD","zip":"21146","phone":"(410) 222-6555","low":"PK","high":"5","students":"392","cost":"No","url":"https:\/\/www.aacps.org\/Page\/4022","review":"https:\/\/www.publicschoolreview.com\/benfield-elementary-school-profile","virtual":"Yes"},{"title":"Benjamin Banneker Elementary School","lat":"38.346722","lon":"-76.676203","type":"Traditional Public School","address":"27180 Point Lookout Rd","grades":["Pre-K","Elementary"],"city":"Loveville","state":"MD","zip":"20656","phone":"(301) 475-0260","low":"PK","high":"5","students":"536","cost":"No","url":"https:\/\/schools.smcps.org\/bbes\/","review":"https:\/\/www.publicschoolreview.com\/benjamin-banneker-elementary-school-profile","virtual":"Yes"},{"title":"Benjamin Banneker Middle School","lat":"39.097408","lon":"-76.94806","type":"Traditional Public School","address":"14800 Perrywood Dr","grades":["Middle"],"city":"Burtonsville","state":"MD","zip":"20866","phone":"(240) 740-6250","low":"6","high":"8","students":"864","cost":"No","url":"https:\/\/www.montgomeryschoolsmd.org\/schools\/bannekerms\/","review":"https:\/\/www.publicschoolreview.com\/benjamin-banneker-middle-school-profile","virtual":"Yes"},{"title":"Benjamin D. Foulois Academy","lat":"38.826646","lon":"-76.88717","type":"Traditional Public School","address":"4601 Beauford Rd","grades":["Elementary","Middle"],"city":"Suitland","state":"MD","zip":"20746","phone":"(301) 817-0300","low":"K","high":"8","students":"540","cost":"No","url":"https:\/\/schools.pgcps.org\/benjaminfoulois\/","review":"https:\/\/www.publicschoolreview.com\/benjamin-d-foulois-academy-profile","virtual":"Yes"},{"title":"Benjamin Franklin High School At Masonville Cove","lat":"39.232973","lon":"-76.593535","type":"Traditional Public School","address":"1201 Cambria Street","grades":["High"],"city":"Brooklyn","state":"MD","zip":"21225","phone":"(410) 396-1373","low":"9","high":"12","students":"638","cost":"No","url":"https:\/\/www.baltimorecityschools.org\/schools\/239","review":"https:\/\/www.publicschoolreview.com\/benjamin-franklin-high-school-at-masonville-cove-profile","virtual":"Yes"},{"title":"Benjamin Stoddert Middle School","lat":"38.602691","lon":"-76.896763","type":"Traditional Public School","address":"2040 Saint Thomas Dr","grades":["Middle"],"city":"Waldorf","state":"MD","zip":"20602","phone":"(301) 645-1334","low":"6","high":"8","students":"838","cost":"No","url":"https:\/\/www.ccboe.com\/schools\/stoddert\/","review":"https:\/\/www.publicschoolreview.com\/benjamin-stoddert-middle-school-profile","virtual":"Yes"},{"title":"Benjamin Stoddert Middle School","lat":"38.83043","lon":"-76.948419","type":"Traditional Public School","address":"2501 Olson St","grades":["Middle"],"city":"Temple Hills","state":"MD","zip":"20748","phone":"(301) 702-7500","low":"6","high":"8","students":"614","cost":"No","url":"https:\/\/schools.pgcps.org\/benjaminstoddert\/","review":"https:\/\/www.publicschoolreview.com\/benjamin-stoddert-middle-school-profile\/20748","virtual":"Yes"},{"title":"Benjamin Tasker Middle School","lat":"38.957162","lon":"-76.746243","type":"Traditional Public School","address":"4901 Collington Rd","grades":["Middle"],"city":"Bowie","state":"MD","zip":"20715","phone":"(301) 805-2660","low":"6","high":"8","students":"1068","cost":"No","url":"https:\/\/schools.pgcps.org\/benjamintasker\/","review":"https:\/\/www.publicschoolreview.com\/benjamin-tasker-middle-school-profile","virtual":"Yes"},{"title":"Bennett Middle School","lat":"38.347929","lon":"-75.595141","type":"Traditional Public School","address":"532 S. Division Street","grades":["Middle"],"city":"Fruitland","state":"MD","zip":"21826","phone":"(410) 677-5140","low":"6","high":"8","students":"980","cost":"No","url":"http:\/\/bms.wcboe.org\/","review":"https:\/\/www.publicschoolreview.com\/bennett-middle-school-profile","virtual":"Yes"},{"title":"Berkshire Elementary School","lat":"39.286638","lon":"-76.513706","type":"Traditional Public School","address":"7431 Poplar Ave","grades":["Pre-K","Elementary"],"city":"Baltimore","state":"MD","zip":"21224","phone":"(410) 887-7008","low":"PK","high":"5","students":"423","cost":"No","url":"https:\/\/berkshirees.bcps.org\/","review":"https:\/\/www.publicschoolreview.com\/berkshire-elementary-school-profile\/21224","virtual":"Yes"},{"title":"Berlin Intermediate","lat":"38.330539","lon":"-75.21429","type":"Traditional Public School","address":"309 Franklin Ave","grades":["Elementary","Middle"],"city":"Berlin","state":"MD","zip":"21811","phone":"(410) 632-5320","low":"5","high":"6","students":"658","cost":"No","url":"https:\/\/www.berlinintermediate.org\/","review":"https:\/\/www.publicschoolreview.com\/berlin-intermediate-profile","virtual":"Yes"},{"title":"Berry Elementary School","lat":"38.649559","lon":"-76.959887","type":"Traditional Public School","address":"10155 Berry Rd","grades":["Pre-K","Elementary"],"city":"Waldorf","state":"MD","zip":"20603","phone":"(301) 638-2330","low":"PK","high":"5","students":"675","cost":"No","url":"https:\/\/www.ccboe.com\/contactus.php","review":"https:\/\/www.publicschoolreview.com\/berry-elementary-school-profile\/20603","virtual":"Yes"},{"title":"Berwyn Heights Elementary School","lat":"38.991368","lon":"-76.908889","type":"Traditional Public School","address":"6200 Pontiac St","grades":["Elementary","Middle"],"city":"College Park","state":"MD","zip":"20740","phone":"(240) 684-6210","low":"K","high":"6","students":"447","cost":"No","url":"https:\/\/schools.pgcps.org\/berwynheights\/","review":"https:\/\/www.publicschoolreview.com\/berwyn-heights-elementary-school-profile","virtual":"Yes"},{"title":"Bester Elementary School","lat":"39.63286","lon":"-77.72188","type":"Traditional Public School","address":"385 Mill St","grades":["Pre-K","Elementary"],"city":"Hagerstown","state":"MD","zip":"21740","phone":"(301) 766-8001","low":"PK","high":"5","students":"491","cost":"No","url":"https:\/\/wcpsmd.com\/schools\/elementary-schools\/bester-elementary","review":"https:\/\/www.publicschoolreview.com\/bester-elementary-school-profile","virtual":"Yes"},{"title":"Bet Yeladim Inc","lat":"39.227498","lon":"-76.8215589","type":"Private School","address":"8910 Route 108, Suite D","grades":["Pre-K"],"city":"Columbia","state":"MD","zip":"21045","phone":"(410) 997-7378","low":"NS","high":"PK","students":"160","cost":"Yes","url":"https:\/\/www.betyeladim.org\/","review":"https:\/\/www.privateschoolreview.com\/bet-yeladim-inc-profile","virtual":"No"},{"title":"Beth - El","lat":"39.441771","lon":"-76.776178","type":"Private School","address":"11500 Cronridge Drive","grades":["Elementary"],"city":"Owings Mills","state":"MD","zip":"21117","phone":"(410) 581-0017","low":"K","high":"K","students":"See website","cost":"Yes","url":"https:\/\/www.bethelbalto.com\/","review":"https:\/\/www.privateschoolreview.com\/beth-el-profile","virtual":"No"},{"title":"Beth Sholom Congregation Learning Center","lat":"39.05087702","lon":"-77.16388152","type":"Private School","address":"11825 Seven Locks Rd","grades":["Pre-K"],"city":"Potomac","state":"MD","zip":"20854","phone":"(301) 279-7010","low":"NS","high":"NS","students":"109","cost":"Yes","url":"https:\/\/www.bethsholomecc.com\/","review":"https:\/\/www.privateschoolreview.com\/beth-sholom-congregation-learning-center-profile","virtual":"No"},{"title":"Beth Tfiloh Dahan Community School","lat":"39.3863","lon":"-76.7047","type":"Private School","address":"3300 Old Court Road","grades":["Pre-K","Elementary","Middle","High"],"city":"Pikesville","state":"MD","zip":"21208","phone":"(410) 486-1905","low":"PK","high":"12","students":"1120","cost":"Yes","url":"https:\/\/www.bethtfiloh.com\/page","review":"https:\/\/www.privateschoolreview.com\/beth-tfiloh-dahan-community-school-profile","virtual":"No"},{"title":"Bethel Christian Academy","lat":"39.138878","lon":"-76.8232927","type":"Private School","address":"8455 Savage-Guilford Road","grades":["Pre-K","Elementary","Middle"],"city":"Savage","state":"MD","zip":"20763","phone":"(301) 725-4673","low":"PK","high":"8","students":"360","cost":"Yes","url":"http:\/\/www.bethelchristianacademy.com\/","review":"https:\/\/www.privateschoolreview.com\/bethel-christian-academy-profile\/20763","virtual":"No"},{"title":"Bethel Christian Academy","lat":"39.57583","lon":"-76.148799","type":"Private School","address":"21 N Earlton Road Ext","grades":["Pre-K","Elementary","Middle","High"],"city":"Havre De Grace","state":"MD","zip":"21078","phone":"(410) 939-4060","low":"PK","high":"12","students":"29","cost":"Yes","url":"http:\/\/bethelhdg.com\/bethel-christian-academy","review":"https:\/\/www.privateschoolreview.com\/bethel-christian-academy-profile\/21078","virtual":"No"},{"title":"Bethesda - Chevy Chase High School","lat":"38.986274","lon":"-77.085984","type":"Traditional Public School","address":"4301 East-west Hwy","grades":["High"],"city":"Bethesda","state":"MD","zip":"20814","phone":"(240) 740-0400","low":"9","high":"12","students":"2270","cost":"No","url":"https:\/\/montgomeryschoolsmd.org\/schools\/bcchs\/","review":"https:\/\/www.publicschoolreview.com\/bethesda-chevy-chase-high-school-profile","virtual":"Yes"},{"title":"Bethesda Community School ,Inc","lat":"38.98491033","lon":"-77.11096264","type":"Private School","address":"7500 Honeywell Ln","grades":["Pre-K","Elementary"],"city":"Bethesda","state":"MD","zip":"20814","phone":"(301) 652-0117","low":"PK","high":"K","students":"77","cost":"Yes","url":"https:\/\/bethesdacommunityschool.com\/","review":"https:\/\/www.privateschoolreview.com\/bethesda-community-school-inc-profile","virtual":"No"},{"title":"Bethesda Elementary School","lat":"38.986079","lon":"-77.098629","type":"Traditional Public School","address":"7600 Arlington Rd","grades":["Pre-K","Elementary"],"city":"Bethesda","state":"MD","zip":"20814","phone":"(240) 204-5300","low":"PK","high":"5","students":"619","cost":"No","url":"https:\/\/montgomeryschoolsmd.org\/schools\/bethesdaes\/","review":"https:\/\/www.publicschoolreview.com\/bethesda-elementary-school-profile\/20814","virtual":"Yes"},{"title":"Bethlehem Christian Day School","lat":"39.3367","lon":"-76.5375","type":"Private School","address":"4815 Hamilton Ave","grades":["Elementary","Middle"],"city":"Baltimore","state":"MD","zip":"21206","phone":"(410) 488-8963","low":"1","high":"8","students":"61","cost":"Yes","url":"","review":"https:\/\/www.privateschoolreview.com\/bethlehem-christian-day-school-profile","virtual":"No"},{"title":"Beverly Farms Elementary School","lat":"39.052362","lon":"-77.174789","type":"Traditional Public School","address":"8501 Post Oak Road","grades":["Pre-K","Elementary"],"city":"Potomac","state":"MD","zip":"20854","phone":"(240) 740-0200","low":"PK","high":"5","students":"570","cost":"No","url":"https:\/\/montgomeryschoolsmd.org\/schools\/beverlyfarmses\/","review":"https:\/\/www.publicschoolreview.com\/beverly-farms-elementary-school-profile","virtual":"Yes"},{"title":"Billingsley Elementary School","lat":"38.609893","lon":"-76.967612","type":"Traditional Public School","address":"10069 Billingsley Road","grades":["Pre-K","Elementary"],"city":"White Plains","state":"MD","zip":"20695","phone":"(301) 753-2088","low":"PK","high":"5","students":"688","cost":"No","url":"","review":"https:\/\/www.publicschoolreview.com\/billingsley-elementary-school-profile","virtual":"Yes"},{"title":"Bishop Mcnamara High School","lat":"38.8516","lon":"-76.8904","type":"Private School","address":"6800 Marlboro Pike","grades":["High"],"city":"District Heights","state":"MD","zip":"20747","phone":"(301) 735-8401","low":"9","high":"12","students":"880","cost":"Yes","url":"https:\/\/www.bmhs.org\/index.cfm","review":"https:\/\/www.privateschoolreview.com\/bishop-mcnamara-high-school-profile","virtual":"No"},{"title":"Bishop Walsh School","lat":"39.6605","lon":"-78.7912","type":"Private School","address":"700 Bishop Walsh Rd","grades":["Pre-K","Elementary","Middle","High"],"city":"Cumberland","state":"MD","zip":"21502","phone":"(301) 724-5360","low":"PK","high":"12","students":"352","cost":"Yes","url":"https:\/\/www.bishopwalsh.org\/","review":"https:\/\/www.privateschoolreview.com\/bishop-walsh-school-profile","virtual":"No"},{"title":"Bladensburg Elementary School","lat":"38.939491","lon":"-76.932224","type":"Traditional Public School","address":"4915 Annapolis Rd","grades":["Pre-K","Elementary","Middle"],"city":"Bladensburg","state":"MD","zip":"20710","phone":"(301) 985-1450","low":"PK","high":"6","students":"714","cost":"No","url":"https:\/\/schools.pgcps.org\/bladensburges\/","review":"https:\/\/www.publicschoolreview.com\/bladensburg-elementary-school-profile","virtual":"Yes"},{"title":"Bladensburg High School","lat":"38.940872","lon":"-76.917591","type":"Traditional Public School","address":"4200 57th Ave","grades":["High"],"city":"Bladensburg","state":"MD","zip":"20710","phone":"(301) 887-6700","low":"9","high":"12","students":"1933","cost":"No","url":"https:\/\/schools.pgcps.org\/bladensburghs\/","review":"https:\/\/www.publicschoolreview.com\/bladensburg-high-school-profile","virtual":"Yes"},{"title":"Bluford Drew Jemison Stem Academy West","lat":"39.310115","lon":"-76.675944","type":"Traditional Public School","address":"1500 Harlem Avenue","grades":["Middle","High"],"city":"Baltimore","state":"MD","zip":"21217","phone":"(443) 642-2110","low":"6","high":"12","students":"226","cost":"No","url":"https:\/\/www.baltimorecityschools.org\/schools\/364","review":"https:\/\/www.publicschoolreview.com\/bluford-drew-jemison-stem-academy-west-profile","virtual":"Yes"},{"title":"Bnos Yisroel","lat":"39.35389174","lon":"-76.68622079","type":"Private School","address":"6300 Park Heights Ave","grades":["Pre-K","Elementary","Middle","High"],"city":"Baltimore","state":"MD","zip":"21215","phone":"(443) 524-3200","low":"PK","high":"12","students":"479","cost":"Yes","url":"https:\/\/bnosyisroel.org\/","review":"","virtual":"No"},{"title":"Bodkin Elementary School","lat":"39.114273","lon":"-76.454106","type":"Traditional Public School","address":"8320 Ventnor Rd","grades":["Elementary"],"city":"Pasadena","state":"MD","zip":"21122","phone":"(410) 437-0464","low":"K","high":"5","students":"483","cost":"No","url":"https:\/\/www.aacps.org\/Page\/4133","review":"https:\/\/www.publicschoolreview.com\/bodkin-elementary-school-profile","virtual":"Yes"},{"title":"Bohemia Manor High School","lat":"39.508425","lon":"-75.830346","type":"Traditional Public School","address":"2755 Augustine Herman Hwy","grades":["High"],"city":"Chesapeake City","state":"MD","zip":"21915","phone":"(410) 885-2075","low":"9","high":"12","students":"632","cost":"No","url":"https:\/\/www.ccps.org\/bmhs","review":"https:\/\/www.publicschoolreview.com\/bohemia-manor-high-school-profile","virtual":"Yes"},{"title":"Bohemia Manor Middle School","lat":"39.508341","lon":"-75.830415","type":"Traditional Public School","address":"2757 Augustine Herman Hwy","grades":["Middle"],"city":"Chesapeake City","state":"MD","zip":"21915","phone":"(410) 885-2095","low":"6","high":"8","students":"470","cost":"No","url":"https:\/\/www.ccps.org\/bmms","review":"https:\/\/www.publicschoolreview.com\/bohemia-manor-middle-school-profile","virtual":"Yes"},{"title":"Bollman Bridge Elementary School","lat":"39.147412","lon":"-76.826924","type":"Traditional Public School","address":"8200 Savage-guilford Road","grades":["Pre-K","Elementary"],"city":"Jessup","state":"MD","zip":"20794","phone":"(410) 880-5920","low":"PK","high":"5","students":"709","cost":"No","url":"http:\/\/bbes.hcpss.org\/","review":"https:\/\/www.publicschoolreview.com\/bollman-bridge-elementary-school-profile","virtual":"Yes"},{"title":"Bond Mill Elementary School","lat":"39.108094","lon":"-76.895644","type":"Traditional Public School","address":"16001 Sherwood Ave","grades":["Elementary"],"city":"Laurel","state":"MD","zip":"20707","phone":"(301) 497-3600","low":"K","high":"5","students":"488","cost":"No","url":"https:\/\/www.pgcps.org\/bondmill\/","review":"https:\/\/www.publicschoolreview.com\/bond-mill-elementary-school-profile","virtual":"Yes"},{"title":"Bonnie Branch Middle School","lat":"39.234219","lon":"-76.772519","type":"Traditional Public School","address":"4979 Ilchester Rd","grades":["Middle"],"city":"Ellicott City","state":"MD","zip":"21043","phone":"(410) 313-2580","low":"6","high":"8","students":"693","cost":"No","url":"http:\/\/bbms.hcpss.org\/","review":"https:\/\/www.publicschoolreview.com\/bonnie-branch-middle-school-profile","virtual":"Yes"},{"title":"Book Of Life Academy","lat":"38.98112863","lon":"-76.50734646","type":"Private School","address":"913 Cedar Park Rd","grades":["Pre-K","Elementary"],"city":"Annapolis","state":"MD","zip":"21401","phone":"(410) 263-2600","low":"PK","high":"5","students":"118","cost":"Yes","url":"http:\/\/www.bookoflifeacademy.org","review":"https:\/\/www.privateschoolreview.com\/book-of-life-academy-profile","virtual":"No"},{"title":"Booker T. Washington Middle School","lat":"39.302548","lon":"-76.627729","type":"Traditional Public School","address":"1301 Mcculloh Street","grades":["Middle"],"city":"Baltimore","state":"MD","zip":"21217","phone":"(410) 396-7734","low":"6","high":"8","students":"225","cost":"No","url":"https:\/\/www.baltimorecityschools.org\/schools\/130","review":"https:\/\/www.publicschoolreview.com\/booker-t-washington-middle-school-profile\/21217","virtual":"Yes"},{"title":"Boonsboro Christian Academy","lat":"39.52266","lon":"-77.661417","type":"Private School","address":"7605 Old Natl Pike","grades":["Pre-K","Elementary","Middle","High"],"city":"Boonsboro","state":"MD","zip":"21713","phone":"(301) 432-0707","low":"PK","high":"12","students":"41","cost":"Yes","url":"http:\/\/www.boonsboroworship.org\/","review":"https:\/\/www.privateschoolreview.com\/boonsboro-christian-academy-profile","virtual":"No"},{"title":"Boonsboro Elementary School","lat":"39.512955","lon":"-77.654992","type":"Traditional Public School","address":"5 Campus Ave","grades":["Pre-K","Elementary"],"city":"Boonsboro","state":"MD","zip":"21713","phone":"(301) 766-8013","low":"PK","high":"5","students":"491","cost":"No","url":"https:\/\/www.boonsboroelementarypta.org\/","review":"https:\/\/www.publicschoolreview.com\/boonsboro-elementary-school-profile","virtual":"Yes"},{"title":"Boonsboro High School","lat":"39.512808","lon":"-77.654363","type":"Traditional Public School","address":"10 Campus Ave","grades":["High"],"city":"Boonsboro","state":"MD","zip":"21713","phone":"(301) 766-8022","low":"9","high":"12","students":"873","cost":"No","url":"https:\/\/wcpsmd.com\/schools\/high-schools\/boonsboro-high","review":"https:\/\/www.publicschoolreview.com\/boonsboro-high-school-profile","virtual":"Yes"},{"title":"Boonsboro Middle School","lat":"39.513789","lon":"-77.65022","type":"Traditional Public School","address":"1 J-h Wade Dr","grades":["Middle"],"city":"Boonsboro","state":"MD","zip":"21713","phone":"(301) 766-8038","low":"6","high":"8","students":"631","cost":"No","url":"https:\/\/boonsboromiddleschool.weebly.com\/","review":"https:\/\/www.publicschoolreview.com\/boonsboro-middle-school-profile","virtual":"Yes"},{"title":"Bowie High School","lat":"38.977783","lon":"-76.741113","type":"Traditional Public School","address":"15200 Annapolis Rd","grades":["High"],"city":"Bowie","state":"MD","zip":"20715","phone":"(301) 805-2600","low":"9","high":"12","students":"2406","cost":"No","url":"https:\/\/schools.pgcps.org\/bowie\/","review":"https:\/\/www.publicschoolreview.com\/bowie-high-school-profile\/20715","virtual":"Yes"},{"title":"Bowie Kindercare","lat":"38.938683","lon":"-76.730522","type":"Private School","address":"3560 Mitchellville Rd","grades":["Pre-K"],"city":"Bowie","state":"MD","zip":"20716","phone":"(301) 390-7244","low":"NS","high":"PK","students":"See website","cost":"Yes","url":"https:\/\/www.kindercare.com\/our-centers\/bowie\/md\/301118?utm_campaign=kc-lg&utm_source=psr&utm_medium=pro","review":"","virtual":"No"},{"title":"Boyds Country Day School","lat":"39.2135767","lon":"-77.2577741","type":"Private School","address":"12417 Deoudes Rd","grades":["Elementary"],"city":"Boyds","state":"MD","zip":"20841","phone":"(301) 972-5982","low":"K","high":"K","students":"12","cost":"Yes","url":"https:\/\/www.globalchildrenscenter.com\/","review":"https:\/\/www.privateschoolreview.com\/boyds-country-day-school-profile","virtual":"No"},{"title":"Boys' Latin School Of Maryland","lat":"39.371433","lon":"-76.636178","type":"Private School","address":"822 W Lake Ave","grades":["Pre-K","Elementary","Middle","High"],"city":"Baltimore","state":"MD","zip":"21210","phone":"(410) 377-5192","low":"NS","high":"12","students":"613","cost":"Yes","url":"https:\/\/www.boyslatinmd.com\/","review":"https:\/\/www.privateschoolreview.com\/boys-latin-school-of-maryland-profile","virtual":"No"},{"title":"Bradbury Heights Elementary School","lat":"38.871207","lon":"-76.927637","type":"Traditional Public School","address":"1401 Glacier Ave","grades":["Pre-K","Elementary","Middle"],"city":"Capitol Heights","state":"MD","zip":"20743","phone":"(301) 817-0570","low":"PK","high":"6","students":"478","cost":"No","url":"https:\/\/www.pgcps.org\/bradburyheights\/","review":"https:\/\/www.publicschoolreview.com\/bradbury-heights-elementary-school-profile","virtual":"Yes"},{"title":"Braddock Middle School","lat":"39.665962","lon":"-78.77155","type":"Traditional Public School","address":"909 Holland St","grades":["Middle"],"city":"Cumberland","state":"MD","zip":"21502","phone":"(301) 777-7990","low":"6","high":"8","students":"605","cost":"No","url":"https:\/\/www.acpsmd.org\/Domain\/353","review":"https:\/\/www.publicschoolreview.com\/braddock-middle-school-profile","virtual":"Yes"},{"title":"Bradley Hills Elementary School","lat":"38.998583","lon":"-77.117747","type":"Traditional Public School","address":"8701 Hartsdale Ave","grades":["Pre-K","Elementary"],"city":"Bethesda","state":"MD","zip":"20817","phone":"(240) 204-5210","low":"PK","high":"5","students":"497","cost":"No","url":"https:\/\/montgomeryschoolsmd.org\/schools\/bradleyhillses\/","review":"https:\/\/www.publicschoolreview.com\/bradley-hills-elementary-school-profile","virtual":"Yes"},{"title":"Brandywine Elementary School","lat":"38.697247","lon":"-76.852347","type":"Traditional Public School","address":"14101 Brandywine Rd","grades":["Elementary"],"city":"Brandywine","state":"MD","zip":"20613","phone":"(301) 372-0100","low":"K","high":"5","students":"434","cost":"No","url":"https:\/\/schools.pgcps.org\/brandywine\/","review":"https:\/\/www.publicschoolreview.com\/brandywine-elementary-school-profile\/20613","virtual":"Yes"},{"title":"Bridges Montessori","lat":"39.41250556","lon":"-76.57703502","type":"Private School","address":"1105 Providence Rd","grades":["Pre-K","Elementary"],"city":"Towson","state":"MD","zip":"21286","phone":"(410) 836-0833","low":"PK","high":"K","students":"48","cost":"Yes","url":"https:\/\/www.bridgesmontessori.net\/Home.aspx","review":"https:\/\/www.privateschoolreview.com\/bridges-montessori-profile","virtual":"No"},{"title":"Bridges Montessori School","lat":"39.59648","lon":"-76.318579","type":"Private School","address":"2529 Conowingo Road","grades":["Pre-K","Elementary","Middle"],"city":"Bel Air","state":"MD","zip":"21015","phone":"(410) 836-0833","low":"PK","high":"6","students":"91","cost":"Yes","url":"https:\/\/www.bmontessori.org\/","review":"https:\/\/www.privateschoolreview.com\/bridges-montessori-school-profile","virtual":"No"},{"title":"Briggs Chaney Middle School","lat":"39.110852","lon":"-76.97238","type":"Traditional Public School","address":"1901 Rainbow Dr","grades":["Middle"],"city":"Silver Spring","state":"MD","zip":"20905","phone":"(301) 288-8300","low":"6","high":"8","students":"978","cost":"No","url":"https:\/\/montgomeryschoolsmd.org\/schools\/briggschaneyms\/","review":"https:\/\/www.publicschoolreview.com\/briggs-chaney-middle-school-profile","virtual":"Yes"},{"title":"Broad Ford Elementary School","lat":"39.417416","lon":"-79.382621","type":"Traditional Public School","address":"607 Harvey Winters Rd","grades":["Pre-K","Elementary"],"city":"Oakland","state":"MD","zip":"21550","phone":"(301) 334-9445","low":"PK","high":"5","students":"561","cost":"No","url":"https:\/\/www.garrettcountyschools.org\/","review":"https:\/\/www.publicschoolreview.com\/broad-ford-elementary-school-profile","virtual":"Yes"},{"title":"Broadfording Christian Academy","lat":"39.68608166","lon":"-77.79543313","type":"Private School","address":"13535 Broadfording Church Rd","grades":["Pre-K","Elementary","Middle","High"],"city":"Hagerstown","state":"MD","zip":"21740","phone":"(301) 797-8886","low":"PK","high":"12","students":"344","cost":"Yes","url":"http:\/\/www.broadfording.com\/","review":"https:\/\/www.privateschoolreview.com\/broadfording-christian-academy-profile","virtual":"No"},{"title":"Broadneck Elementary School","lat":"39.044278","lon":"-76.485068","type":"Traditional Public School","address":"470 Shore Acres Rd","grades":["Elementary"],"city":"Arnold","state":"MD","zip":"21012","phone":"(410) 222-1680","low":"K","high":"5","students":"749","cost":"No","url":"https:\/\/www.aacps.org\/Page\/4148","review":"https:\/\/www.publicschoolreview.com\/broadneck-elementary-school-profile","virtual":"Yes"},{"title":"Broadneck High School","lat":"39.037969","lon":"-76.456696","type":"Traditional Public School","address":"1265 Green Holly Dr","grades":["High"],"city":"Annapolis","state":"MD","zip":"21409","phone":"(410) 757-1300","low":"9","high":"12","students":"2233","cost":"No","url":"https:\/\/www.broadneck.org\/","review":"https:\/\/www.publicschoolreview.com\/broadneck-high-school-profile","virtual":"Yes"},{"title":"Broadwater Creek Academy","lat":"38.8013","lon":"-76.5279","type":"Private School","address":"5610 Battee Dr","grades":["Elementary"],"city":"Churchton","state":"MD","zip":"20733","phone":"(301) 261-9254","low":"K","high":"K","students":"33","cost":"Yes","url":"https:\/\/www.broadwatercreekacademy.org\/","review":"","virtual":"No"},{"title":"Brock Bridge Elementary School","lat":"39.088397","lon":"-76.822875","type":"Traditional Public School","address":"405 Brock Bridge Rd","grades":["Pre-K","Elementary"],"city":"Laurel","state":"MD","zip":"20724","phone":"(301) 498-6280","low":"PK","high":"5","students":"543","cost":"No","url":"https:\/\/www.aacps.org\/domain\/1406","review":"https:\/\/www.publicschoolreview.com\/brock-bridge-elementary-school-profile","virtual":"Yes"},{"title":"Brooke Grove Elementary School","lat":"39.157541","lon":"-77.051343","type":"Traditional Public School","address":"2700 Spartan Rd","grades":["Pre-K","Elementary"],"city":"Olney","state":"MD","zip":"20832","phone":"(240) 722-1800","low":"PK","high":"5","students":"450","cost":"No","url":"https:\/\/montgomeryschoolsmd.org\/schools\/brookegrovees\/","review":"https:\/\/www.publicschoolreview.com\/brooke-grove-elementary-school-profile","virtual":"Yes"},{"title":"Brookewood School","lat":"39.0263","lon":"-77.0751","type":"Private School","address":"10401 Armory Ave","grades":["Elementary","Middle","High"],"city":"Kensington","state":"MD","zip":"20895","phone":"(301) 949-7997","low":"K","high":"12","students":"210","cost":"Yes","url":"https:\/\/www.brookewood.org\/","review":"https:\/\/www.privateschoolreview.com\/brookewood-school-profile","virtual":"No"},{"title":"Brookfield Christian School","lat":"39.15164","lon":"-76.909981","type":"Private School","address":"11830 W Market Pl Suite A And B","grades":["Pre-K","Elementary"],"city":"Fulton","state":"MD","zip":"20759","phone":"(301) 362-3580","low":"PK","high":"K","students":"48","cost":"Yes","url":"http:\/\/www.brookfieldchristianschool.com\/","review":"","virtual":"No"},{"title":"Brookfield Christian School","lat":"39.20662532","lon":"-76.94435674","type":"Private School","address":"6347 Ten Oaks Rd","grades":["Pre-K","Elementary"],"city":"Clarksville","state":"MD","zip":"21029","phone":"(410) 531-9443","low":"PK","high":"K","students":"101","cost":"Yes","url":"http:\/\/www.brookfieldchristianschool.com","review":"https:\/\/www.privateschoolreview.com\/brookfield-christian-school-profile","virtual":"No"},{"title":"Brookhaven Elementary School","lat":"39.082762","lon":"-77.091174","type":"Traditional Public School","address":"4610 Renn St","grades":["Pre-K","Elementary"],"city":"Rockville","state":"MD","zip":"20853","phone":"(240) 740-0500","low":"PK","high":"5","students":"421","cost":"No","url":"https:\/\/montgomeryschoolsmd.org\/schools\/brookhavenes\/","review":"https:\/\/www.publicschoolreview.com\/brookhaven-elementary-school-profile\/20853","virtual":"Yes"},{"title":"Brooklyn Park Elementary School","lat":"39.221669","lon":"-76.617434","type":"Traditional Public School","address":"200 14th Ave","grades":["Pre-K","Elementary"],"city":"Brooklyn","state":"MD","zip":"21225","phone":"(410) 222-6590","low":"PK","high":"5","students":"440","cost":"No","url":"https:\/\/www.aacps.org\/Page\/882","review":"https:\/\/www.publicschoolreview.com\/brooklyn-park-elementary-school-profile","virtual":"Yes"},{"title":"Brooklyn Park Middle School","lat":"39.215251","lon":"-76.621742","type":"Traditional Public School","address":"200 Hammonds Ln","grades":["Middle"],"city":"Brooklyn","state":"MD","zip":"21225","phone":"(410) 636-2967","low":"6","high":"8","students":"875","cost":"No","url":"https:\/\/www.aacps.org\/domain\/1368","review":"https:\/\/www.publicschoolreview.com\/brooklyn-park-middle-school-profile","virtual":"Yes"},{"title":"Brown Station Elementary School","lat":"39.141757","lon":"-77.227601","type":"Traditional Public School","address":"851 Quince Orchard Blvd","grades":["Pre-K","Elementary"],"city":"Gaithersburg","state":"MD","zip":"20878","phone":"(240) 740-0260","low":"PK","high":"5","students":"612","cost":"No","url":"https:\/\/www.montgomeryschoolsmd.org\/schools\/brownstationes\/","review":"https:\/\/www.publicschoolreview.com\/brown-station-elementary-school-profile","virtual":"Yes"},{"title":"Brunswick Elementary School","lat":"39.31858","lon":"-77.633805","type":"Traditional Public School","address":"400 Central Ave","grades":["Pre-K","Elementary"],"city":"Brunswick","state":"MD","zip":"21716","phone":"(240) 236-2900","low":"PK","high":"5","students":"694","cost":"No","url":"https:\/\/education.fcps.org:443\/bes\/","review":"https:\/\/www.publicschoolreview.com\/brunswick-elementary-school-profile","virtual":"Yes"},{"title":"Brunswick High School","lat":"39.31743","lon":"-77.611574","type":"Traditional Public School","address":"101 Cummings Dr","grades":["High"],"city":"Brunswick","state":"MD","zip":"21716","phone":"(240) 236-8600","low":"9","high":"12","students":"797","cost":"No","url":"https:\/\/education.fcps.org:443\/bhs\/","review":"https:\/\/www.publicschoolreview.com\/brunswick-high-school-profile\/21716","virtual":"Yes"},{"title":"Brunswick Middle School","lat":"39.313892","lon":"-77.608225","type":"Traditional Public School","address":"301 Cummings Dr","grades":["Middle"],"city":"Brunswick","state":"MD","zip":"21716","phone":"(240) 236-5400","low":"6","high":"8","students":"610","cost":"No","url":"https:\/\/education.fcps.org:443\/bms\/","review":"https:\/\/www.publicschoolreview.com\/brunswick-middle-school-profile","virtual":"Yes"},{"title":"Bryant Woods Elementary School","lat":"39.221713","lon":"-76.866701","type":"Traditional Public School","address":"5450 Blue Heron Ln","grades":["Pre-K","Elementary"],"city":"Columbia","state":"MD","zip":"21044","phone":"(410) 313-6859","low":"PK","high":"5","students":"360","cost":"No","url":"http:\/\/bwes.hcpss.org\/","review":"https:\/\/www.publicschoolreview.com\/bryant-woods-elementary-school-profile","virtual":"Yes"},{"title":"Bryant Woods Montessori Childrens House","lat":"39.2223363","lon":"-76.8653363","type":"Private School","address":"10449 Green Mountain Cir","grades":["Pre-K","Elementary"],"city":"Columbia","state":"MD","zip":"21044","phone":"(410) 730-7525","low":"PK","high":"K","students":"28","cost":"Yes","url":"https:\/\/bryantwoodsmontessori.com\/","review":"https:\/\/www.privateschoolreview.com\/bryant-woods-montessori-childrens-house-profile","virtual":"No"},{"title":"Buck Lodge Middle School","lat":"39.0119","lon":"-76.960343","type":"Traditional Public School","address":"2611 Buck Lodge Rd","grades":["Middle"],"city":"Hyattsville","state":"MD","zip":"20783","phone":"(301) 431-6290","low":"6","high":"8","students":"1295","cost":"No","url":"https:\/\/schools.pgcps.org\/bucklodge\/","review":"https:\/\/www.publicschoolreview.com\/buck-lodge-middle-school-profile","virtual":"Yes"},{"title":"Buckingham Elementary School","lat":"38.319925","lon":"-75.221817","type":"Traditional Public School","address":"100 Buckingham Rd","grades":["Pre-K","Elementary"],"city":"Berlin","state":"MD","zip":"21811","phone":"(410) 632-5300","low":"PK","high":"4","students":"494","cost":"No","url":"https:\/\/www.buckinghamelementary.com\/","review":"https:\/\/www.publicschoolreview.com\/buckingham-elementary-school-profile","virtual":"Yes"},{"title":"Budds Creek Amish Parochial School","lat":"38.403211","lon":"-76.811797","type":"Private School","address":"Bethel Church Rd.","grades":["Elementary","Middle"],"city":"Mechanicsville","state":"MD","zip":"20659","phone":"","low":"1","high":"8","students":"23","cost":"Yes","url":"","review":"","virtual":"No"},{"title":"Bullis School","lat":"39.02746807","lon":"-77.20223734","type":"Private School","address":"10601 Falls Rd","grades":["Elementary","Middle","High"],"city":"Potomac","state":"MD","zip":"20854","phone":"(301) 299-8500","low":"K","high":"12","students":"837","cost":"Yes","url":"https:\/\/www.bullis.org","review":"https:\/\/www.privateschoolreview.com\/bullis-school-profile","virtual":"No"},{"title":"Burleigh Manor Middle School","lat":"39.254514","lon":"-76.866558","type":"Traditional Public School","address":"4200 Centennial Lane","grades":["Middle"],"city":"Ellicott City","state":"MD","zip":"21042","phone":"(410) 313-2507","low":"6","high":"8","students":"844","cost":"No","url":"http:\/\/bmms.hcpss.org\/","review":"https:\/\/www.publicschoolreview.com\/burleigh-manor-middle-school-profile","virtual":"Yes"},{"title":"Burning Tree Elementary School","lat":"38.989184","lon":"-77.142252","type":"Traditional Public School","address":"7900 Beech Tree Rd","grades":["Elementary"],"city":"Bethesda","state":"MD","zip":"20817","phone":"(240) 740-1750","low":"K","high":"5","students":"420","cost":"No","url":"https:\/\/www.montgomeryschoolsmd.org\/schools\/burningtreees\/","review":"https:\/\/www.publicschoolreview.com\/burning-tree-elementary-school-profile","virtual":"Yes"},