[{"title":"360 High School","lat":"41.834776","lon":"-71.401992","type":"Traditional Public School","address":"182 Thurbers Avenue","grades":["High"],"city":"Providence","state":"RI","zip":"2905","phone":"(401) 274-4603","low":"9","high":"12","students":"284","cost":"No","url":"https:\/\/www.providenceschools.org\/","review":"https:\/\/www.publicschoolreview.com\/360-high-school-profile","virtual":"No"},{"title":"A Childs University","lat":"41.777839","lon":"-71.42861","type":"Private School","address":"695 Park Ave","grades":["Pre-K","Elementary"],"city":"Cranston","state":"RI","zip":"2910","phone":"(401) 461-1880","low":"PK","high":"K","students":"136","cost":"Yes","url":"https:\/\/www.achildsuniversity.com\/","review":"","virtual":"No"},{"title":"Academy For Little Children","lat":"41.66580388","lon":"-71.51546078","type":"Private School","address":"10 James P Murphy Ind Hwy","grades":["Pre-K","Elementary"],"city":"West Warwick","state":"RI","zip":"2893","phone":"(401) 823-5000","low":"PK","high":"K","students":"22","cost":"Yes","url":"https:\/\/www.a4lc.net\/","review":"","virtual":"No"},{"title":"Achievement First Iluminar","lat":"41.8174462","lon":"-71.4562119","type":"Public Charter School","address":"85 Garfield Avenue","grades":["Elementary"],"city":"Cranston","state":"RI","zip":"2920","phone":"(401) 347-1116","low":"K","high":"4","students":"471","cost":"No","url":"","review":"https:\/\/www.publicschoolreview.com\/achievement-first-iluminar-profile","virtual":"No"},{"title":"Achievement First Promesa","lat":"41.81724","lon":"-71.456336","type":"Public Charter School","address":"370 Hartford Ave","grades":["Elementary"],"city":"Providence","state":"RI","zip":"2909","phone":"(401) 347-1116","low":"K","high":"1","students":"185","cost":"No","url":"","review":"https:\/\/www.publicschoolreview.com\/achievement-first-promesa-profile","virtual":"No"},{"title":"Achievement First Providence","lat":"41.817417","lon":"-71.456242","type":"Public Charter School","address":"370 Hartford Avenue","grades":["Elementary"],"city":"Providence","state":"RI","zip":"2909","phone":"(401) 347-1106","low":"K","high":"4","students":"486","cost":"No","url":"https:\/\/www.achievementfirst.org\/schools\/rhode-island\/","review":"https:\/\/www.publicschoolreview.com\/achievement-first-providence-profile","virtual":"No"},{"title":"Af Iluminar Mayoral Middle School","lat":"41.80031","lon":"-71.443127","type":"Public Charter School","address":"85 Garfield Avenue","grades":["Elementary","Middle"],"city":"Cranston","state":"RI","zip":"2920","phone":"(401) 347-1116","low":"5","high":"6","students":"206","cost":"No","url":"","review":"https:\/\/www.publicschoolreview.com\/af-iluminar-mayoral-middle-school-profile","virtual":"No"},{"title":"Af Providence Mayoral Middle School","lat":"41.817417","lon":"-71.456242","type":"Public Charter School","address":"370 Hartford Avenue","grades":["Elementary","Middle"],"city":"Providence","state":"RI","zip":"2909","phone":"(401) 347-1120","low":"5","high":"8","students":"417","cost":"No","url":"","review":"https:\/\/www.publicschoolreview.com\/af-providence-mayoral-middle-school-profile","virtual":"No"},{"title":"Agnes B. Hennessey School","lat":"41.812524","lon":"-71.381988","type":"Traditional Public School","address":"75 Fort Street","grades":["Elementary"],"city":"East Providence","state":"RI","zip":"2914","phone":"(401) 435-7831","low":"K","high":"5","students":"244","cost":"No","url":"http:\/\/www.epschoolsri.com\/hennessey\/","review":"https:\/\/www.publicschoolreview.com\/agnes-b-hennessey-school-profile","virtual":"No"},{"title":"Agnes E. Little School","lat":"41.876356","lon":"-71.372671","type":"Traditional Public School","address":"60 South Bend Street","grades":["Elementary"],"city":"Pawtucket","state":"RI","zip":"2860","phone":"(401) 729-6256","low":"K","high":"5","students":"336","cost":"No","url":"http:\/\/pawtucket.little.schooldesk.net\/","review":"https:\/\/www.publicschoolreview.com\/agnes-e-little-school-profile","virtual":"No"},{"title":"Alan Shawn Feinstein Elementary School","lat":"41.787746","lon":"-71.403007","type":"Traditional Public School","address":"1450 Broad Street","grades":["Elementary"],"city":"Providence","state":"RI","zip":"2905","phone":"(401) 456-9367","low":"K","high":"5","students":"378","cost":"No","url":"https:\/\/www.providenceschools.org\/broadstreet","review":"https:\/\/www.publicschoolreview.com\/alan-shawn-feinstein-elementary-school-profile","virtual":"No"},{"title":"Alan Shawn Feinstein Ms Of Cov","lat":"41.695579","lon":"-71.558237","type":"Traditional Public School","address":"15 Foster Drive","grades":["Middle"],"city":"Coventry","state":"RI","zip":"2816","phone":"(401) 822-9426","low":"6","high":"8","students":"1031","cost":"No","url":"http:\/\/asfms.net\/","review":"https:\/\/www.publicschoolreview.com\/alan-shawn-feinstein-ms-of-cov-profile","virtual":"No"},{"title":"Alfred Lima Sr. Elementary School","lat":"41.804041","lon":"-71.427957","type":"Traditional Public School","address":"222 Daboll Street","grades":["Elementary"],"city":"Providence","state":"RI","zip":"2907","phone":"(401) 278-0504","low":"2","high":"5","students":"454","cost":"No","url":"https:\/\/www.providenceschools.org\/lima","review":"https:\/\/www.publicschoolreview.com\/alfred-lima-sr-el-school-profile","virtual":"No"},{"title":"All Saints Steam Academy","lat":"41.525249","lon":"-71.292534","type":"Private School","address":"915 West Main Road","grades":["Pre-K","Elementary","Middle"],"city":"Middletown","state":"RI","zip":"2842","phone":"(401) 848-4300","low":"PK","high":"8","students":"See website","cost":"Yes","url":"https:\/\/allsaintsacademy.org\/","review":"https:\/\/www.privateschoolreview.com\/all-saints-steam-academy-profile","virtual":"No"},{"title":"Anna M. Mccabe School","lat":"41.881521","lon":"-71.540513","type":"Traditional Public School","address":"100 Pleasant View Avenue","grades":["Pre-K","Elementary"],"city":"Smithfield","state":"RI","zip":"2917","phone":"(401) 949-2058","low":"PK","high":"5","students":"309","cost":"No","url":"https:\/\/sites.google.com\/a\/smithfield-ps.org\/anna-mccabe-elementary-school\/","review":"https:\/\/www.publicschoolreview.com\/anna-m-mccabe-school-profile","virtual":"No"},{"title":"Anthony Carnevale Elementary School","lat":"41.818464","lon":"-71.464871","type":"Traditional Public School","address":"50 Springfield Street","grades":["Pre-K","Elementary"],"city":"Providence","state":"RI","zip":"2909","phone":"(401) 278-0554","low":"PK","high":"5","students":"454","cost":"No","url":"https:\/\/www.providenceschools.org\/Carnevale","review":"https:\/\/www.publicschoolreview.com\/anthony-carnevale-elementary-school-profile","virtual":"No"},{"title":"Apponaug Christian Academy","lat":"41.701259","lon":"-71.4561","type":"Private School","address":"75 Prospect St","grades":["Middle","High"],"city":"Warwick","state":"RI","zip":"2886","phone":"(401) 739-2499","low":"6","high":"11","students":"20","cost":"Yes","url":"","review":"https:\/\/www.privateschoolreview.com\/apponaug-christian-academy-profile","virtual":"No"},{"title":"Aquidneck School","lat":"41.496161","lon":"-71.281244","type":"Traditional Public School","address":"70 Reservoir Avenue","grades":["Pre-K","Elementary"],"city":"Middletown","state":"RI","zip":"2842","phone":"(401) 847-4921","low":"PK","high":"3","students":"291","cost":"No","url":"https:\/\/www.mpsri.net\/o\/aes","review":"https:\/\/www.publicschoolreview.com\/aquidneck-school-profile","virtual":"No"},{"title":"Archie R. Cole Middleschool","lat":"41.651681","lon":"-71.461294","type":"Traditional Public School","address":"100 Cedar Avenue","grades":["Middle"],"city":"East Greenwich","state":"RI","zip":"2818","phone":"(401) 398-1333","low":"6","high":"8","students":"639","cost":"No","url":"https:\/\/www.egsd.net\/","review":"https:\/\/www.publicschoolreview.com\/archie-r-cole-middleschool-profile","virtual":"No"},{"title":"Arlington School","lat":"41.794403","lon":"-71.455302","type":"Traditional Public School","address":"155 Princess Avenue","grades":["Pre-K","Elementary"],"city":"Cranston","state":"RI","zip":"2920","phone":"(401) 270-8179","low":"PK","high":"5","students":"217","cost":"No","url":"","review":"https:\/\/www.publicschoolreview.com\/arlington-school-profile","virtual":"No"},{"title":"Asa Messer El. School","lat":"41.811136","lon":"-71.435453","type":"Traditional Public School","address":"1655 Westminster Street","grades":["Pre-K","Elementary"],"city":"Providence","state":"RI","zip":"2909","phone":"(401) 456-9401","low":"PK","high":"4","students":"498","cost":"No","url":"https:\/\/www.providenceschools.org\/messer","review":"https:\/\/www.publicschoolreview.com\/asa-messer-el-school-profile","virtual":"No"},{"title":"Ashaway Elementary School","lat":"41.419558","lon":"-71.793258","type":"Traditional Public School","address":"12a Hillside Avenue","grades":["Elementary"],"city":"Ashaway","state":"RI","zip":"2804","phone":"(401) 377-2211","low":"K","high":"4","students":"195","cost":"No","url":"https:\/\/www.chariho.k12.ri.us\/ash","review":"https:\/\/www.publicschoolreview.com\/ashaway-elementary-school-profile","virtual":"No"},{"title":"Ashton School","lat":"41.947914","lon":"-71.427054","type":"Traditional Public School","address":"130 Scott Road","grades":["Elementary"],"city":"Cumberland","state":"RI","zip":"2864","phone":"(401) 333-0554","low":"K","high":"5","students":"270","cost":"No","url":"http:\/\/www.cumberlandschools.org\/content\/Ashton","review":"https:\/\/www.publicschoolreview.com\/ashton-school-profile","virtual":"No"},{"title":"Austin T. Levy School","lat":"41.965588","lon":"-71.676985","type":"Traditional Public School","address":"135 Harrisville Main Street","grades":["Pre-K","Elementary"],"city":"Harrisville","state":"RI","zip":"2830","phone":"(401) 568-1340","low":"PK","high":"1","students":"296","cost":"No","url":"http:\/\/www.bsd-ri.net\/schools","review":"https:\/\/www.publicschoolreview.com\/austin-t-levy-school-profile","virtual":"No"},{"title":"B.F. Norton Elementary School","lat":"41.909367","lon":"-71.394511","type":"Traditional Public School","address":"364 Broad Street","grades":["Elementary"],"city":"Cumberland","state":"RI","zip":"2864","phone":"(401) 722-7610","low":"K","high":"5","students":"322","cost":"No","url":"https:\/\/cumberlandschools.org\/","review":"https:\/\/www.publicschoolreview.com\/b-f-norton-elementary-school-profile","virtual":"No"},{"title":"Barrington Christian Academy","lat":"41.75512156","lon":"-71.32777192","type":"Private School","address":"9 Old County Road","grades":["Elementary","Middle","High"],"city":"Barrington","state":"RI","zip":"2806","phone":"(401) 246-0113","low":"K","high":"12","students":"173","cost":"Yes","url":"https:\/\/www.bcacademy.org\/","review":"https:\/\/www.privateschoolreview.com\/barrington-christian-academy-profile","virtual":"No"},{"title":"Barrington High School","lat":"41.74607","lon":"-71.321055","type":"Traditional Public School","address":"220 Lincoln Avenue","grades":["High"],"city":"Barrington","state":"RI","zip":"2806","phone":"(401) 247-3150","low":"9","high":"12","students":"1100","cost":"No","url":"https:\/\/www.barringtonhigh.org\/","review":"https:\/\/www.publicschoolreview.com\/barrington-high-school-profile\/02806","virtual":"No"},{"title":"Barrington Middle School","lat":"41.764651","lon":"-71.331568","type":"Traditional Public School","address":"261 Middle Highway","grades":["Middle"],"city":"Barrington","state":"RI","zip":"2806","phone":"(401) 247-3160","low":"6","high":"8","students":"839","cost":"No","url":"https:\/\/www.barringtonmiddle.org\/","review":"https:\/\/www.publicschoolreview.com\/barrington-middle-school-profile\/02806","virtual":"No"},{"title":"Beacon Charter School","lat":"42.004966","lon":"-71.512654","type":"Public Charter School","address":"320 Main Street","grades":["High"],"city":"Woonsocket","state":"RI","zip":"2895","phone":"(401) 671-6261","low":"9","high":"12","students":"230","cost":"No","url":"https:\/\/www.beaconart.org\/","review":"https:\/\/www.publicschoolreview.com\/beacon-charter-school-profile","virtual":"No"},{"title":"Beautiful Beginnings Child Care Center","lat":"41.793267","lon":"-71.423336","type":"Private School","address":"700 Elmwood Avenue","grades":["Pre-K","Elementary"],"city":"Providence","state":"RI","zip":"2907","phone":"(401) 785-8485","low":"NS","high":"K","students":"46","cost":"Yes","url":"https:\/\/www.bbchildcareri.org\/","review":"https:\/\/www.privateschoolreview.com\/beautiful-beginnings-child-care-center-profile","virtual":"No"},{"title":"Beginnings - The Children's School","lat":"41.5854","lon":"-71.2522","type":"Private School","address":"1985 East Main Road","grades":["Elementary"],"city":"Portsmouth","state":"RI","zip":"2871","phone":"(401) 683-5850","low":"K","high":"K","students":"See website","cost":"Yes","url":"https:\/\/portsmouthmontessori.com\/","review":"","virtual":"No"},{"title":"Bernon Heights School","lat":"41.994475","lon":"-71.503783","type":"Traditional Public School","address":"657 Logee Street","grades":["Elementary"],"city":"Woonsocket","state":"RI","zip":"2895","phone":"(401) 767-4864","low":"K","high":"5","students":"406","cost":"No","url":"https:\/\/www.woonsocketschools.com\/","review":"https:\/\/www.publicschoolreview.com\/bernon-heights-school-profile","virtual":"No"},{"title":"Birchwood Middle School","lat":"41.867109","lon":"-71.450706","type":"Traditional Public School","address":"10 Birchwood Drive","grades":["Middle"],"city":"Providence","state":"RI","zip":"2904","phone":"(401) 233-1120","low":"6","high":"8","students":"426","cost":"No","url":"http:\/\/npsd.k12.ri.us\/","review":"https:\/\/www.publicschoolreview.com\/birchwood-middle-school-profile","virtual":"No"},{"title":"Bishop Hendricken High School","lat":"41.70667926","lon":"-71.39585852","type":"Private School","address":"2615 Warwick Avenue","grades":["Middle","High"],"city":"Warwick","state":"RI","zip":"2889","phone":"(401) 889-5422","low":"8","high":"12","students":"663","cost":"Yes","url":"https:\/\/hendricken.com\/","review":"https:\/\/www.privateschoolreview.com\/bishop-hendricken-high-school-profile","virtual":"No"},{"title":"Bishop Mcvinney School","lat":"41.801631","lon":"-71.415098","type":"Private School","address":"155 Gordon Ave","grades":["Pre-K","Elementary","Middle"],"city":"Providence","state":"RI","zip":"2905","phone":"(401) 781-2370","low":"NS","high":"8","students":"225","cost":"Yes","url":"https:\/\/bmv-school.org\/","review":"","virtual":"No"},{"title":"Blackrock School","lat":"41.712261","lon":"-71.551768","type":"Traditional Public School","address":"12 Lacasa Drive","grades":["Elementary"],"city":"Coventry","state":"RI","zip":"2816","phone":"(401) 822-9450","low":"K","high":"5","students":"318","cost":"No","url":"https:\/\/sites.google.com\/view\/blackrock-school\/home","review":"https:\/\/www.publicschoolreview.com\/blackrock-school-profile","virtual":"No"},{"title":"Blackstone Academy Charter","lat":"41.868862","lon":"-71.385274","type":"Public Charter School","address":"334 Pleasant Street","grades":["High"],"city":"Pawtucket","state":"RI","zip":"2860","phone":"(401) 726-1750","low":"9","high":"12","students":"351","cost":"No","url":"https:\/\/www.blackstoneacademy.org\/","review":"https:\/\/www.publicschoolreview.com\/blackstone-academy-charter-profile","virtual":"No"},{"title":"Blackstone Valley Prep","lat":"41.906666","lon":"-71.392953","type":"Public Charter School","address":"291 Broad Street","grades":["Elementary"],"city":"Cumberland","state":"RI","zip":"2864","phone":"(401) 335-3133","low":"K","high":"4","students":"409","cost":"No","url":"https:\/\/blackstonevalleyprep.org\/","review":"https:\/\/www.publicschoolreview.com\/blackstone-valley-prep-profile","virtual":"No"},{"title":"Blackstone Valley Prep E. 2","lat":"41.9074989","lon":"-71.3933276","type":"Public Charter School","address":"52 Broad St.","grades":["Elementary"],"city":"Cumberland","state":"RI","zip":"2864","phone":"(401) 305-6860","low":"K","high":"4","students":"410","cost":"No","url":"https:\/\/blackstonevalleyprep.org\/","review":"https:\/\/www.publicschoolreview.com\/blackstone-valley-prep-e-2-profile","virtual":"No"},{"title":"Blackstone Valley Prep Element","lat":"41.886142","lon":"-71.41584","type":"Public Charter School","address":"3357 Mendon Rd.","grades":["Elementary"],"city":"Cumberland","state":"RI","zip":"2864","phone":"(401) 335-3133","low":"K","high":"4","students":"259","cost":"No","url":"","review":"https:\/\/www.publicschoolreview.com\/blackstone-valley-prep-element-profile","virtual":"No"},{"title":"Blackstone Valley Prep High School","lat":"41.9061","lon":"-71.3923","type":"Public Charter School","address":"65 Macondray St.","grades":["High"],"city":"Cumberland","state":"RI","zip":"2864","phone":"(401) 405-0320","low":"9","high":"12","students":"363","cost":"No","url":"https:\/\/blackstonevalleyprep.org\/about\/contact\/","review":"https:\/\/www.publicschoolreview.com\/blackstone-valley-prep-high-school-profile","virtual":"No"},{"title":"Blackstone Valley Prep Jr High School","lat":"41.886142","lon":"-71.41584","type":"Public Charter School","address":"909 Lonsdale","grades":["Middle"],"city":"Central Falls","state":"RI","zip":"2863","phone":"(401) 475-8829","low":"7","high":"8","students":"294","cost":"No","url":"https:\/\/blackstonevalleyprep.org\/","review":"https:\/\/www.publicschoolreview.com\/blackstone-valley-prep-jr-high-school-profile","virtual":"No"},{"title":"Blackstone Valley Prep Upper E","lat":"41.886142","lon":"-71.41584","type":"Public Charter School","address":"3 Fairlawn Way","grades":["Elementary","Middle"],"city":"Lincoln","state":"RI","zip":"2865","phone":"(401) 871-5429","low":"5","high":"6","students":"358","cost":"No","url":"","review":"https:\/\/www.publicschoolreview.com\/blackstone-valley-prep-upper-e-profile","virtual":"No"},{"title":"Blessed Sacrament School","lat":"41.82912569","lon":"-71.44368339","type":"Private School","address":"240 Regent Avenue","grades":["Pre-K","Elementary","Middle"],"city":"Providence","state":"RI","zip":"2908","phone":"(401) 831-3993","low":"PK","high":"8","students":"196","cost":"Yes","url":"https:\/\/www.blessedschoolpvd.com\/","review":"https:\/\/www.privateschoolreview.com\/blessed-sacrament-school-profile\/02908","virtual":"No"},{"title":"Block Island School","lat":"41.166177","lon":"-71.560478","type":"Traditional Public School","address":"Block Island School, High Stre","grades":["Elementary","Middle","High"],"city":"Block Island","state":"RI","zip":"2807","phone":"(401) 466-5600","low":"K","high":"12","students":"147","cost":"No","url":"https:\/\/www.bischool.net\/","review":"https:\/\/www.publicschoolreview.com\/block-island-school-profile","virtual":"No"},{"title":"Bradley School - East Providence","lat":"41.7914","lon":"-71.3655","type":"Private School","address":"1011 Veterans Memorial Pkwy","grades":["Elementary","Middle","High"],"city":"Riverside","state":"RI","zip":"2915","phone":"(401) 432-1169","low":"K","high":"12","students":"281","cost":"Yes","url":"https:\/\/www.lifespan.org\/centers-services\/bradley-learning-exchange","review":"","virtual":"No"},{"title":"Bradley School - Westerly Site","lat":"41.37946","lon":"-71.814101","type":"Private School","address":"93 Tower St","grades":["Elementary","Middle","High"],"city":"Westerly","state":"RI","zip":"2891","phone":"(401) 637-4205","low":"2","high":"12","students":"16","cost":"Yes","url":"","review":"https:\/\/www.privateschoolreview.com\/bradley-school-westerly-site-profile","virtual":"No"},{"title":"Bradley School Providence","lat":"41.82155","lon":"-71.421301","type":"Private School","address":"130 Broadway","grades":["Middle","High"],"city":"Providence","state":"RI","zip":"2903","phone":"(401) 606-2250","low":"6","high":"12","students":"114","cost":"Yes","url":"https:\/\/www.bradleyschool.org\/bradley-school-providence","review":"","virtual":"No"},{"title":"Breezy Knoll Child Care Center","lat":"41.90901585","lon":"-71.52426321","type":"Private School","address":"311 Stillwater Rd","grades":["Elementary"],"city":"Smithfield","state":"RI","zip":"2917","phone":"(401) 232-7177","low":"K","high":"K","students":"See website","cost":"Yes","url":"http:\/\/breezyknollchildcarecenter.com\/","review":"","virtual":"No"},{"title":"Bright Horizons","lat":"41.809793","lon":"-71.413272","type":"Private School","address":"225 Blackstone Street","grades":["Pre-K"],"city":"Providence","state":"RI","zip":"2905","phone":"(401) 454-0312","low":"NS","high":"PK","students":"See website","cost":"Yes","url":"https:\/\/www.brighthorizons.com\/","review":"https:\/\/www.privateschoolreview.com\/bright-horizons-profile\/02905","virtual":"No"},{"title":"Bright Ideas Preschool","lat":"41.534013","lon":"-71.293474","type":"Private School","address":"1272 W Main Rd","grades":["Pre-K","Elementary"],"city":"Middletown","state":"RI","zip":"2842","phone":"(401) 849-0055","low":"NS","high":"K","students":"50","cost":"Yes","url":"https:\/\/brightideaspreschool.com\/","review":"https:\/\/www.privateschoolreview.com\/bright-ideas-preschool-profile","virtual":"No"},{"title":"Broad Rock Middle School","lat":"41.45551","lon":"-71.485965","type":"Traditional Public School","address":"351 Broad Rock Road","grades":["Elementary","Middle"],"city":"Wakefield","state":"RI","zip":"2879","phone":"(401) 360-1800","low":"5","high":"6","students":"417","cost":"No","url":"https:\/\/br.skschools.net\/","review":"https:\/\/www.publicschoolreview.com\/broad-rock-middle-school-profile","virtual":"No"},{"title":"Brown Avenue School","lat":"41.834124","lon":"-71.548357","type":"Traditional Public School","address":"14 Brown Avenue","grades":["Elementary"],"city":"Johnston","state":"RI","zip":"2919","phone":"(401) 934-0270","low":"1","high":"5","students":"218","cost":"No","url":"https:\/\/prek-5.johnstonschools.org\/cms\/One.aspx?portalId=19680572&pageId=20092259","review":"https:\/\/www.publicschoolreview.com\/brown-avenue-school-profile","virtual":"No"},{"title":"Brown\/Fox Point Early Childhood Education Center","lat":"41.824654","lon":"-71.397504","type":"Private School","address":"150 Hope St","grades":["Pre-K"],"city":"Providence","state":"RI","zip":"2906","phone":"(401) 521-5460","low":"NS","high":"PK","students":"72","cost":"Yes","url":"https:\/\/brownfoxpoint.org\/","review":"https:\/\/www.privateschoolreview.com\/brown-fox-point-early-childhood-education-center-profile","virtual":"No"},{"title":"Burrillville High School","lat":"41.969877","lon":"-71.6586","type":"Traditional Public School","address":"425 East Avenue","grades":["High"],"city":"Harrisville","state":"RI","zip":"2830","phone":"(401) 568-1310","low":"9","high":"12","students":"686","cost":"No","url":"https:\/\/bhs.bsd-ri.net\/","review":"https:\/\/www.publicschoolreview.com\/burrillville-high-school-profile","virtual":"No"},{"title":"Burrillville Middle School","lat":"41.981916","lon":"-71.616031","type":"Traditional Public School","address":"2220 Broncos Highway","grades":["Middle"],"city":"Harrisville","state":"RI","zip":"2830","phone":"(401) 568-1320","low":"6","high":"8","students":"496","cost":"No","url":"https:\/\/bms.bsd-ri.net\/","review":"https:\/\/www.publicschoolreview.com\/burrillville-middle-school-profile","virtual":"No"},{"title":"Buttonwoods School For Young Children","lat":"41.69810056","lon":"-71.42922389","type":"Private School","address":"311 Buttonwoods Ave","grades":["Pre-K","Elementary"],"city":"Warwick","state":"RI","zip":"2886","phone":"(401) 732-2009","low":"PK","high":"K","students":"69","cost":"Yes","url":"https:\/\/buttonwoodsschool.com\/","review":"https:\/\/www.privateschoolreview.com\/buttonwoods-school-for-young-children-profile","virtual":"No"},{"title":"C.H.I.L.D., Inc","lat":"41.702984","lon":"-71.378688","type":"Private School","address":"160 Draper Avenue","grades":["Pre-K","Elementary"],"city":"Warwick","state":"RI","zip":"2889","phone":"(401) 737-0403","low":"PK","high":"K","students":"200","cost":"Yes","url":"http:\/\/childincri.org\/","review":"","virtual":"No"},{"title":"Cadence Academy Preschool","lat":"41.768006","lon":"-71.457915","type":"Private School","address":"546 Budlong Rd","grades":["Pre-K","Elementary"],"city":"Cranston","state":"RI","zip":"2920","phone":"(401) 228-3317","low":"PK","high":"K","students":"41","cost":"Yes","url":"https:\/\/www.cadence-academy.com\/schools\/cranston-ri-preschool\/","review":"https:\/\/www.privateschoolreview.com\/cadence-academy-preschool-profile\/02920","virtual":"No"},{"title":"Calcutt Middle School","lat":"41.889564","lon":"-71.3915","type":"Traditional Public School","address":"112 Washington Street","grades":["Elementary","Middle"],"city":"Central Falls","state":"RI","zip":"2863","phone":"(401) 727-7726","low":"5","high":"8","students":"753","cost":"No","url":"https:\/\/www.cfschools.net\/o\/calcutt-middle-school","review":"https:\/\/www.publicschoolreview.com\/calcutt-middle-school-profile","virtual":"No"},{"title":"Camp E Hun Tee","lat":"41.598204","lon":"-71.710457","type":"Private School","address":"1 Camp E Huntee Place","grades":["Middle","High"],"city":"Exeter","state":"RI","zip":"2822","phone":"(401) 539-7775","low":"7","high":"10","students":"17","cost":"Yes","url":"https:\/\/eckerd.org\/","review":"","virtual":"No"},{"title":"Cane Child Development Center","lat":"41.429809","lon":"-71.518953","type":"Private School","address":"281 Post Road","grades":["Pre-K","Elementary"],"city":"Wakefield","state":"RI","zip":"2879","phone":"(401) 789-7210","low":"PK","high":"K","students":"42","cost":"Yes","url":"https:\/\/www.canechilddevelopmentcenter.org\/","review":"","virtual":"No"},{"title":"Capt. Isaac Paine El. School","lat":"41.812774","lon":"-71.732437","type":"Traditional Public School","address":"160 Foster Center Road","grades":["Pre-K","Elementary"],"city":"Foster","state":"RI","zip":"2825","phone":"(401) 710-7500","low":"PK","high":"5","students":"208","cost":"No","url":"http:\/\/paineschool.org\/","review":"https:\/\/www.publicschoolreview.com\/capt-isaac-paine-el-school-profile","virtual":"No"},{"title":"Carl G. Lauro El. School","lat":"41.821054","lon":"-71.426014","type":"Traditional Public School","address":"99 Kenyon Street","grades":["Elementary"],"city":"Providence","state":"RI","zip":"2903","phone":"(401) 456-9391","low":"K","high":"5","students":"621","cost":"No","url":"https:\/\/www.providenceschools.org\/lauro","review":"https:\/\/www.publicschoolreview.com\/carl-g-lauro-el-school-profile","virtual":"No"},{"title":"Cedar Hill School","lat":"41.683234","lon":"-71.463478","type":"Traditional Public School","address":"35 Red Chimney Drive","grades":["Elementary"],"city":"Warwick","state":"RI","zip":"2886","phone":"(401) 734-3535","low":"K","high":"5","students":"310","cost":"No","url":"https:\/\/cedarhill.warwickschools.org\/","review":"https:\/\/www.publicschoolreview.com\/cedar-hill-school-profile\/02886","virtual":"No"},{"title":"Central Falls Sr High School","lat":"41.88723","lon":"-71.391615","type":"Traditional Public School","address":"24 Summer Street","grades":["High"],"city":"Central Falls","state":"RI","zip":"2863","phone":"(401) 727-7710","low":"9","high":"12","students":"820","cost":"No","url":"https:\/\/www.cfschools.net\/o\/central-falls-high-school","review":"https:\/\/www.publicschoolreview.com\/central-falls-sr-high-school-profile","virtual":"No"},{"title":"Central High School","lat":"41.816182","lon":"-71.421412","type":"Traditional Public School","address":"70 Fricker St","grades":["High"],"city":"Providence","state":"RI","zip":"2903","phone":"(401) 456-9111","low":"9","high":"12","students":"1200","cost":"No","url":"https:\/\/www.providenceschools.org\/central","review":"https:\/\/www.publicschoolreview.com\/central-high-school-profile\/02903","virtual":"No"},{"title":"Centredale School","lat":"41.856756","lon":"-71.477876","type":"Traditional Public School","address":"41 Angell Avenue","grades":["Pre-K","Elementary"],"city":"North Providence","state":"RI","zip":"2911","phone":"(401) 233-1145","low":"PK","high":"5","students":"220","cost":"No","url":"http:\/\/centredale.nprovschools.org\/","review":"https:\/\/www.publicschoolreview.com\/centredale-school-profile","virtual":"No"},{"title":"Charette Charter School","lat":"41.821952","lon":"-71.414486","type":"Public Charter School","address":"335 Westminster St.","grades":["High"],"city":"Providence","state":"RI","zip":"2903","phone":"(401) 270-1183","low":"9","high":"12","students":"167","cost":"No","url":"","review":"https:\/\/www.publicschoolreview.com\/charette-charter-school-profile","virtual":"No"},{"title":"Chariho Alternative Learning A","lat":"41.445763","lon":"-71.693765","type":"Traditional Public School","address":"455c Switch Road","grades":["Elementary","Middle","High"],"city":"Wood River Junction","state":"RI","zip":"2894","phone":"(401) 315-2880","low":"1","high":"12","students":"61","cost":"No","url":"","review":"https:\/\/www.publicschoolreview.com\/chariho-alternative-learning-a-profile","virtual":"No"},{"title":"Chariho Career And Tech Center","lat":"41.445763","lon":"-71.693765","type":"Public Magnet School","address":"459 Switch Road","grades":["High"],"city":"Wood River Junction","state":"RI","zip":"2894","phone":"(401) 364-6869","low":"9","high":"12","students":"See website","cost":"No","url":"https:\/\/www.chariho.k12.ri.us\/ctc","review":"https:\/\/www.publicschoolreview.com\/chariho-career-and-tech-center-profile","virtual":"No"},{"title":"Chariho High School","lat":"41.446024","lon":"-71.693856","type":"Traditional Public School","address":"453 Switch Road","grades":["High"],"city":"Wood River Junction","state":"RI","zip":"2894","phone":"(401) 364-7778","low":"9","high":"12","students":"1129","cost":"No","url":"https:\/\/www.chariho.k12.ri.us\/chs","review":"https:\/\/www.publicschoolreview.com\/chariho-high-school-profile","virtual":"No"},{"title":"Chariho Regional Middle School","lat":"41.445899","lon":"-71.69381","type":"Traditional Public School","address":"455b Switch Road","grades":["Elementary","Middle"],"city":"Wood River Junction","state":"RI","zip":"2894","phone":"(401) 364-0651","low":"5","high":"8","students":"884","cost":"No","url":"https:\/\/www.chariho.k12.ri.us\/middle-school","review":"https:\/\/www.publicschoolreview.com\/chariho-regional-middle-school-profile","virtual":"No"},{"title":"Charles E. Shea High School","lat":"41.865516","lon":"-71.38741","type":"Traditional Public School","address":"485 East Avenue","grades":["High"],"city":"Pawtucket","state":"RI","zip":"2860","phone":"(401) 729-6445","low":"9","high":"12","students":"905","cost":"No","url":"http:\/\/pawtucket.slater.schooldesk.net\/","review":"https:\/\/www.publicschoolreview.com\/charles-e-shea-high-school-profile","virtual":"No"},{"title":"Charles N. Fortes Academy","lat":"41.804089","lon":"-71.428985","type":"Traditional Public School","address":"234 Daboll Street","grades":["Pre-K","Elementary"],"city":"Providence","state":"RI","zip":"2907","phone":"(401) 278-0501","low":"PK","high":"1","students":"311","cost":"No","url":"https:\/\/www.providenceschools.org\/fortes","review":"https:\/\/www.publicschoolreview.com\/charles-n-fortes-academy-profile","virtual":"No"},{"title":"Charlestown Early Learning Center","lat":"41.385102","lon":"-71.649362","type":"Private School","address":"4605 Old Post Rd","grades":["Elementary"],"city":"Charlestown","state":"RI","zip":"2813","phone":"(401) 364-0645","low":"K","high":"K","students":"66","cost":"Yes","url":"http:\/\/www.charlestownearlylearning.org\/","review":"","virtual":"No"},{"title":"Charlestown Elementary School","lat":"41.4488","lon":"-71.656182","type":"Traditional Public School","address":"363 Carolina Back Road","grades":["Elementary"],"city":"Charlestown","state":"RI","zip":"2813","phone":"(401) 364-7716","low":"K","high":"4","students":"233","cost":"No","url":"https:\/\/www.chariho.k12.ri.us\/chamain","review":"https:\/\/www.publicschoolreview.com\/charlestown-elementary-school-profile\/02813","virtual":"No"},{"title":"Child Dev Center At University Of Rhode Island","lat":"41.48178804","lon":"-71.53010305","type":"Private School","address":"10 Lower College Rd","grades":["Pre-K","Elementary"],"city":"Kingston","state":"RI","zip":"2881","phone":"(401) 874-2758","low":"PK","high":"K","students":"32","cost":"Yes","url":"https:\/\/web.uri.edu\/child-development-centers\/","review":"","virtual":"No"},{"title":"Child's Play","lat":"41.828857","lon":"-71.396008","type":"Private School","address":"296 Angell Street","grades":["Pre-K"],"city":"Providence","state":"RI","zip":"2906","phone":"(401) 331-8443","low":"NS","high":"PK","students":"45","cost":"Yes","url":"https:\/\/www.childsplayri.org\/","review":"https:\/\/www.privateschoolreview.com\/child-s-play-profile","virtual":"No"},{"title":"Children's Learning Express","lat":"41.593396","lon":"-71.457061","type":"Private School","address":"7525 Post Rd","grades":["Elementary"],"city":"North Kingstown","state":"RI","zip":"2852","phone":"(401) 667-2575","low":"K","high":"1","students":"33","cost":"Yes","url":"https:\/\/www.childrenslearningexpressri.com\/","review":"","virtual":"No"},{"title":"Christie Giroux","lat":"41.598229","lon":"-71.276081","type":"Private School","address":"324 Cory\\'s Lane","grades":["Pre-K","Elementary","Middle"],"city":"Portsmouth","state":"RI","zip":"2871","phone":"(401) 683-0268","low":"NS","high":"8","students":"436","cost":"Yes","url":"https:\/\/www.saintphilomena.org\/","review":"https:\/\/www.privateschoolreview.com\/christie-giroux-profile","virtual":"No"},{"title":"Claiborne Pell Elementary School","lat":"41.5083","lon":"-71.3047","type":"Traditional Public School","address":"35 Dexter Street","grades":["Pre-K","Elementary"],"city":"Newport","state":"RI","zip":"2840","phone":"(401) 842-1900","low":"PK","high":"4","students":"740","cost":"No","url":"https:\/\/www.npsri.net\/pell","review":"https:\/\/www.publicschoolreview.com\/claiborne-pell-elementary-school-profile","virtual":"No"},{"title":"Classical High School","lat":"41.817591","lon":"-71.421523","type":"Traditional Public School","address":"770 Westminster Street","grades":["High"],"city":"Providence","state":"RI","zip":"2903","phone":"(401) 456-9145","low":"9","high":"12","students":"1115","cost":"No","url":"https:\/\/www.providenceschools.org\/classical","review":"https:\/\/www.publicschoolreview.com\/classical-high-school-profile","virtual":"No"},{"title":"Clayville School","lat":"41.772355","lon":"-71.67013","type":"Traditional Public School","address":"3 George Washington Highway","grades":["Pre-K","Elementary"],"city":"Clayville","state":"RI","zip":"2815","phone":"(401) 647-4115","low":"PK","high":"5","students":"136","cost":"No","url":"https:\/\/clayville.scituateschoolsri.net\/","review":"https:\/\/www.publicschoolreview.com\/clayville-school-profile","virtual":"No"},{"title":"Colt Andrews School","lat":"41.671964","lon":"-71.277037","type":"Traditional Public School","address":"570-574 Hope Street","grades":["Elementary"],"city":"Bristol","state":"RI","zip":"2809","phone":"(401) 254-5987","low":"K","high":"5","students":"319","cost":"No","url":"https:\/\/www.bwrsd.org\/Domain\/11","review":"https:\/\/www.publicschoolreview.com\/colt-andrews-school-profile","virtual":"No"},{"title":"Community Christian School","lat":"41.95841196","lon":"-71.70538753","type":"Private School","address":"113 Church St","grades":["Pre-K","Elementary","Middle"],"city":"Pascoag","state":"RI","zip":"2859","phone":"(401) 568-5263","low":"PK","high":"8","students":"61","cost":"Yes","url":"http:\/\/www.christianschoolri.org\/","review":"","virtual":"No"},{"title":"Community Preparatory School","lat":"41.810711","lon":"-71.415662","type":"Private School","address":"135 Prairie Avenue","grades":["Elementary","Middle"],"city":"Providence","state":"RI","zip":"2905","phone":"(401) 521-9696","low":"4","high":"8","students":"127","cost":"Yes","url":"https:\/\/www.communityprep.org\/","review":"https:\/\/www.privateschoolreview.com\/community-preparatory-school-profile","virtual":"No"},{"title":"Community School","lat":"41.977094","lon":"-71.398798","type":"Traditional Public School","address":"15 Arnold Mills Road","grades":["Elementary"],"city":"Cumberland","state":"RI","zip":"2864","phone":"(401) 333-5724","low":"K","high":"5","students":"640","cost":"No","url":"http:\/\/communityschoolri.com\/","review":"https:\/\/www.publicschoolreview.com\/community-school-profile\/02864","virtual":"No"},{"title":"Cornel Young & Charlotte Woods","lat":"41.795706","lon":"-71.410531","type":"Traditional Public School","address":"674 Prairie Avenue","grades":["Elementary"],"city":"Providence","state":"RI","zip":"2905","phone":"(401) 278-0515","low":"K","high":"5","students":"540","cost":"No","url":"https:\/\/www.providenceschools.org\/","review":"https:\/\/www.publicschoolreview.com\/cornel-young-charlotte-woods-profile","virtual":"No"},{"title":"Cornerstone Montessori School","lat":"41.563785","lon":"-71.464971","type":"Private School","address":"415 Tower Hill Rd","grades":["Elementary"],"city":"North Kingstown","state":"RI","zip":"2852","phone":"(401) 294-6458","low":"K","high":"K","students":"24","cost":"Yes","url":"https:\/\/www.countyoffice.org\/cornerstone-montessori-north-kingstown-ri-bf9\/","review":"https:\/\/www.privateschoolreview.com\/cornerstone-montessori-school-profile\/02852","virtual":"No"},{"title":"Cornerstone School","lat":"41.794581","lon":"-71.458376","type":"Private School","address":"665 Dyer Ave","grades":["Elementary"],"city":"Cranston","state":"RI","zip":"2920","phone":"(401) 942-2388","low":"K","high":"K","students":"76","cost":"Yes","url":"https:\/\/accesspointri.org\/Cornerstone_School.htm","review":"","virtual":"No"},{"title":"Coventry High School","lat":"41.683389","lon":"-71.587978","type":"Traditional Public School","address":"40 Reservoir Road","grades":["High"],"city":"Coventry","state":"RI","zip":"2816","phone":"(401) 822-9499","low":"9","high":"12","students":"1434","cost":"No","url":"https:\/\/sites.google.com\/a\/coventryschools.net\/coventryhsri\/","review":"https:\/\/www.publicschoolreview.com\/coventry-high-school-profile\/02816","virtual":"No"},{"title":"Cranston Career & Tech Center","lat":"41.771789","lon":"-71.478022","type":"Public Magnet School","address":"100 Metropolitan Avenue","grades":["High"],"city":"Cranston","state":"RI","zip":"2920","phone":"(401) 270-8070","low":"10","high":"12","students":"See website","cost":"No","url":"https:\/\/cactc.cpsed.net\/","review":"https:\/\/www.publicschoolreview.com\/cranston-career-tech-center-profile","virtual":"No"},{"title":"Cranston Early Learning Center","lat":"41.786099","lon":"-71.437388","type":"Traditional Public School","address":"45 Sprague Avenue","grades":["Pre-K"],"city":"Cranston","state":"RI","zip":"2910","phone":"(401) 270-8057","low":"PK","high":"PK","students":"See website","cost":"No","url":"","review":"https:\/\/www.publicschoolreview.com\/cranston-early-learning-center-profile","virtual":"No"},{"title":"Cranston High School East","lat":"41.779939","lon":"-71.438084","type":"Traditional Public School","address":"899 Park Avenue","grades":["High"],"city":"Cranston","state":"RI","zip":"2910","phone":"(401) 270-8126","low":"9","high":"12","students":"1568","cost":"No","url":"https:\/\/chse.cpsed.net\/","review":"https:\/\/www.publicschoolreview.com\/cranston-high-school-east-profile","virtual":"No"},{"title":"Cranston High School West","lat":"41.771958","lon":"-71.478624","type":"Traditional Public School","address":"80 Metropolitan Avenue","grades":["High"],"city":"Cranston","state":"RI","zip":"2920","phone":"(401) 270-8049","low":"9","high":"12","students":"1629","cost":"No","url":"https:\/\/chsw.cpsed.net\/","review":"https:\/\/www.publicschoolreview.com\/cranston-high-school-west-profile","virtual":"No"},{"title":"Ctr For Individualized Training & Education","lat":"41.81622823","lon":"-71.44192454","type":"Private School","address":"15 Bough St","grades":["Elementary","Middle","High"],"city":"Providence","state":"RI","zip":"2909","phone":"(401) 351-0610","low":"K","high":"12","students":"24","cost":"Yes","url":"","review":"https:\/\/www.privateschoolreview.com\/ctr-for-individualized-training-education-profile","virtual":"No"},{"title":"Cumberland High School","lat":"41.967299","lon":"-71.447418","type":"Traditional Public School","address":"2600 Mendon Road","grades":["High"],"city":"Cumberland","state":"RI","zip":"2864","phone":"(401) 658-2600","low":"9","high":"12","students":"1440","cost":"No","url":"http:\/\/www.cumberlandschools.org\/content\/cumberland-high-school","review":"https:\/\/www.publicschoolreview.com\/cumberland-high-school-profile\/02864","virtual":"No"},{"title":"Cumberland Preschool Center","lat":"41.909367","lon":"-71.394511","type":"Traditional Public School","address":"130 Scott Road","grades":["Pre-K"],"city":"Cumberland","state":"RI","zip":"2864","phone":"(401) 658-1600","low":"PK","high":"PK","students":"90","cost":"No","url":"","review":"https:\/\/www.publicschoolreview.com\/cumberland-preschool-center-profile","virtual":"No"},{"title":"Cunningham School","lat":"41.875255","lon":"-71.401268","type":"Traditional Public School","address":"40 Baldwin Street","grades":["Elementary"],"city":"Pawtucket","state":"RI","zip":"2860","phone":"(401) 729-6262","low":"K","high":"5","students":"388","cost":"No","url":"http:\/\/pawtucket.cunningham.schooldesk.net\/","review":"https:\/\/www.publicschoolreview.com\/cunningham-school-profile\/02860","virtual":"No"},{"title":"Curtis Corner Middle School","lat":"41.459479","lon":"-71.518904","type":"Traditional Public School","address":"301 Curtis Corner Road","grades":["Middle"],"city":"Wakefield","state":"RI","zip":"2879","phone":"(401) 360-1333","low":"7","high":"8","students":"422","cost":"No","url":"https:\/\/cc.skschools.net\/","review":"https:\/\/www.publicschoolreview.com\/curtis-corner-middle-school-profile","virtual":"No"},{"title":"Curvin - Mccabe School","lat":"41.888532","lon":"-71.363853","type":"Traditional Public School","address":"466 Cottage Street","grades":["Elementary"],"city":"Pawtucket","state":"RI","zip":"2861","phone":"(401) 729-6258","low":"K","high":"5","students":"365","cost":"No","url":"http:\/\/pawtucket.mccabe.schooldesk.net\/","review":"https:\/\/www.publicschoolreview.com\/curvin-mccabe-school-profile","virtual":"No"},{"title":"Daniel D. Waterman School","lat":"41.766422","lon":"-71.44048","type":"Traditional Public School","address":"722 Pontiac Avenue","grades":["Elementary"],"city":"Cranston","state":"RI","zip":"2910","phone":"(401) 270-8013","low":"K","high":"5","students":"233","cost":"No","url":"http:\/\/ddwatermanschool.weebly.com\/","review":"https:\/\/www.publicschoolreview.com\/daniel-d-waterman-school-profile","virtual":"No"},{"title":"Darlington Early Childhood Center","lat":"41.87494545","lon":"-71.3545","type":"Private School","address":"680 Newport Ave","grades":["Pre-K","Elementary"],"city":"Pawtucket","state":"RI","zip":"2861","phone":"(401) 725-6240","low":"PK","high":"K","students":"28","cost":"Yes","url":"https:\/\/darlingtonearlychildhood.com\/","review":"","virtual":"No"},{"title":"Davies Career - Tech High School","lat":"41.903363","lon":"-71.455231","type":"Public Magnet School","address":"50 Jenckes Hill Road","grades":["High"],"city":"Lincoln","state":"RI","zip":"2865","phone":"(401) 728-1500","low":"9","high":"12","students":"905","cost":"No","url":"https:\/\/www.daviestech.org\/","review":"https:\/\/www.publicschoolreview.com\/davies-career-tech-high-school-profile","virtual":"No"},{"title":"Davisville Middle School","lat":"41.619521","lon":"-71.466315","type":"Traditional Public School","address":"200 School Street","grades":["Middle"],"city":"North Kingstown","state":"RI","zip":"2852","phone":"(401) 541-6300","low":"6","high":"8","students":"516","cost":"No","url":"https:\/\/dms.nksd.net\/","review":"https:\/\/www.publicschoolreview.com\/davisville-middle-school-profile","virtual":"No"},{"title":"Dcyf Alternative Ed. Program","lat":"41.748923","lon":"-71.45947","type":"Traditional Public School","address":"57 Power Road","grades":["Middle","High"],"city":"Cranston","state":"RI","zip":"2920","phone":"(401) 462-7253","low":"8","high":"12","students":"19","cost":"No","url":"","review":"https:\/\/www.publicschoolreview.com\/dcyf-alternative-ed-program-profile","virtual":"No"},{"title":"Discovery Years Learning Center","lat":"41.698033","lon":"-71.477656","type":"Private School","address":"501 Centerville Rd","grades":["Pre-K","Elementary"],"city":"Warwick","state":"RI","zip":"2886","phone":"(401) 732-1122","low":"PK","high":"K","students":"63","cost":"Yes","url":"https:\/\/discoveryyearslearningcenter.com\/","review":"","virtual":"No"},{"title":"Dr Pat Feinstein Child Development Center","lat":"41.8233451","lon":"-71.4139601","type":"Private School","address":"80 Washington St","grades":["Elementary"],"city":"Providence","state":"RI","zip":"2903","phone":"(401) 277-5264","low":"K","high":"K","students":"26","cost":"Yes","url":"","review":"https:\/\/www.privateschoolreview.com\/dr-pat-feinstein-child-development-center-profile","virtual":"No"},{"title":"Dr. Edward Ricci School","lat":"41.846986","lon":"-71.471102","type":"Traditional Public School","address":"51 Intervale Avenue","grades":["Middle"],"city":"North Providence","state":"RI","zip":"2911","phone":"(401) 233-1170","low":"6","high":"8","students":"412","cost":"No","url":"https:\/\/kimditusa.tripod.com\/","review":"https:\/\/www.publicschoolreview.com\/dr-edward-ricci-school-profile","virtual":"No"},{"title":"Dr. Jorge Alvarez High School","lat":"41.794436","lon":"-71.429641","type":"Traditional Public School","address":"375 Adelaide Avenue","grades":["High"],"city":"Providence","state":"RI","zip":"2907","phone":"(401) 456-0676","low":"9","high":"12","students":"737","cost":"No","url":"https:\/\/www.providenceschools.org\/alvarez","review":"https:\/\/www.publicschoolreview.com\/dr-jorge-alvarez-high-school-profile","virtual":"No"},{"title":"Dunn's Corners School","lat":"41.348074","lon":"-71.776779","type":"Traditional Public School","address":"8 1\/2 Plateau Road","grades":["Elementary"],"city":"Westerly","state":"RI","zip":"2891","phone":"(401) 348-2320","low":"K","high":"4","students":"282","cost":"No","url":"https:\/\/www.westerly.k12.ri.us\/Domain\/212","review":"https:\/\/www.publicschoolreview.com\/dunn-s-corners-school-profile","virtual":"No"},{"title":"E - Cubed Academy","lat":"41.854681","lon":"-71.434143","type":"Traditional Public School","address":"812 Branch Avenue","grades":["High"],"city":"Providence","state":"RI","zip":"2904","phone":"(401) 456-0694","low":"9","high":"12","students":"389","cost":"No","url":"https:\/\/www.providenceschools.org\/ecubed","review":"https:\/\/www.publicschoolreview.com\/e-cubed-academy-profile","virtual":"No"},{"title":"Early Childhood Center","lat":"41.826287","lon":"-71.507649","type":"Traditional Public School","address":"10 Memorial Avenue","grades":["Elementary"],"city":"Johnston","state":"RI","zip":"2919","phone":"(401) 233-0054","low":"K","high":"K","students":"195","cost":"No","url":"","review":"https:\/\/www.publicschoolreview.com\/early-childhood-center-profile\/02919","virtual":"No"},{"title":"Early Years Learning Center","lat":"41.84798","lon":"-71.4797446","type":"Private School","address":"33 Maple Street","grades":["Pre-K"],"city":"North Providence","state":"RI","zip":"2911","phone":"(401) 444-0769","low":"NS","high":"PK","students":"33","cost":"Yes","url":"https:\/\/bgcprov.org\/","review":"https:\/\/www.privateschoolreview.com\/early-years-learning-center-profile","virtual":"No"},{"title":"East Bay Career Academy","lat":"41.73971932","lon":"-71.27371698","type":"Private School","address":"317 Market St","grades":["Middle","High"],"city":"Warren","state":"RI","zip":"2885","phone":"(401) 245-7978","low":"7","high":"12","students":"49","cost":"Yes","url":"https:\/\/ebecri.org\/ebec","review":"https:\/\/www.privateschoolreview.com\/east-bay-career-academy-profile","virtual":"No"},{"title":"East Greenwich High School","lat":"41.638711","lon":"-71.484561","type":"Traditional Public School","address":"300 Avenger Drive","grades":["High"],"city":"East Greenwich","state":"RI","zip":"2818","phone":"(401) 398-1574","low":"9","high":"12","students":"809","cost":"No","url":"https:\/\/sites.google.com\/egsd.net\/egsd\/schools\/east-greenwich-high-school","review":"https:\/\/www.publicschoolreview.com\/east-greenwich-high-school-profile","virtual":"No"},{"title":"East Providence Career Tech","lat":"41.821244","lon":"-71.356325","type":"Public Magnet School","address":"1998 Pawtucket Avenue","grades":["High"],"city":"East Providence","state":"RI","zip":"2914","phone":"(401) 435-7815","low":"9","high":"12","students":"See website","cost":"No","url":"http:\/\/eastprovidencehighschool.com\/web\/","review":"https:\/\/www.publicschoolreview.com\/east-providence-career-tech-profile","virtual":"No"},{"title":"East Providence High School","lat":"41.819233","lon":"-71.356068","type":"Traditional Public School","address":"2000 Pawtucket Avenue","grades":["High"],"city":"East Providence","state":"RI","zip":"2914","phone":"(401) 435-7806","low":"9","high":"12","students":"1526","cost":"No","url":"http:\/\/eastprovidencehighschool.com\/web\/","review":"https:\/\/www.publicschoolreview.com\/east-providence-high-school-profile","virtual":"No"},{"title":"Eden Park School","lat":"41.772619","lon":"-71.445663","type":"Traditional Public School","address":"180 Oakland Avenue","grades":["Elementary"],"city":"Cranston","state":"RI","zip":"2910","phone":"(401) 270-8029","low":"K","high":"5","students":"257","cost":"No","url":"https:\/\/edenparkelementary.weebly.com\/","review":"https:\/\/www.publicschoolreview.com\/eden-park-school-profile","virtual":"No"},{"title":"Edgewood Highland","lat":"41.781296","lon":"-71.396989","type":"Traditional Public School","address":"160 Pawtuxet Avenue","grades":["Pre-K","Elementary"],"city":"Providence","state":"RI","zip":"2905","phone":"(401) 270-8065","low":"PK","high":"5","students":"282","cost":"No","url":"https:\/\/edgewoodhighlandschool.weebly.com\/","review":"https:\/\/www.publicschoolreview.com\/edgewood-highland-profile","virtual":"No"},{"title":"Edward R. Martin Middle Annex","lat":"41.806998","lon":"-71.36582","type":"Traditional Public School","address":"111 Brown Street","grades":["Pre-K"],"city":"East Providence","state":"RI","zip":"2914","phone":"(401) 270-2321","low":"PK","high":"PK","students":"80","cost":"No","url":"","review":"https:\/\/www.publicschoolreview.com\/edward-r-martin-middle-annex-profile","virtual":"No"},{"title":"Edward S. Rhodes School","lat":"41.775049","lon":"-71.396577","type":"Traditional Public School","address":"160 Shaw Avenue","grades":["Elementary"],"city":"Providence","state":"RI","zip":"2905","phone":"(401) 270-8110","low":"K","high":"5","students":"281","cost":"No","url":"http:\/\/edwardsrhodeselementary.weebly.com\/","review":"https:\/\/www.publicschoolreview.com\/edward-s-rhodes-school-profile","virtual":"No"},{"title":"Eleanor Briggs School","lat":"41.69655737","lon":"-71.43280159","type":"Private School","address":"116 Long St","grades":["Elementary","Middle","High"],"city":"Warwick","state":"RI","zip":"2886","phone":"(401) 732-1540","low":"1","high":"10","students":"18","cost":"Yes","url":"https:\/\/www.thrivebhri.org\/programs-services\/eleanor-briggs-school-","review":"https:\/\/www.privateschoolreview.com\/eleanor-briggs-school-profile","virtual":"No"},{"title":"Elizabeth Baldwin School","lat":"41.868265","lon":"-71.397029","type":"Traditional Public School","address":"50 Whitman Street","grades":["Elementary"],"city":"Pawtucket","state":"RI","zip":"2860","phone":"(401) 729-6264","low":"K","high":"5","students":"571","cost":"No","url":"http:\/\/pawtucket.baldwin.schooldesk.net\/","review":"https:\/\/www.publicschoolreview.com\/elizabeth-baldwin-school-profile","virtual":"No"},{"title":"Ella Risk School","lat":"41.889304","lon":"-71.399634","type":"Traditional Public School","address":"949 Dexter Street","grades":["Elementary"],"city":"Central Falls","state":"RI","zip":"2863","phone":"(401) 727-7730","low":"K","high":"4","students":"366","cost":"No","url":"https:\/\/www.cfschools.net\/o\/ella-risk-elementary-school","review":"https:\/\/www.publicschoolreview.com\/ella-risk-school-profile","virtual":"No"},{"title":"Elmwood Community School","lat":"41.79063333","lon":"-71.42213333","type":"Private School","address":"801 Elmwood Ave","grades":["High"],"city":"Providence","state":"RI","zip":"2907","phone":"(401) 785-8440","low":"9","high":"11","students":"11","cost":"Yes","url":"https:\/\/www.jammatri.org\/child-care-center\/","review":"","virtual":"No"},{"title":"Emma G. Whiteknact School","lat":"41.816057","lon":"-71.364644","type":"Traditional Public School","address":"261 Grosvenor Avenue","grades":["Elementary"],"city":"East Providence","state":"RI","zip":"2914","phone":"(401) 435-7828","low":"K","high":"5","students":"252","cost":"No","url":"http:\/\/www.epschoolsri.com\/whiteknact\/","review":"https:\/\/www.publicschoolreview.com\/emma-g-whiteknact-school-profile","virtual":"No"},{"title":"Esek Hopkins Middle School","lat":"41.848417","lon":"-71.419684","type":"Traditional Public School","address":"480 Charles Street","grades":["Middle"],"city":"Providence","state":"RI","zip":"2904","phone":"(401) 456-9203","low":"6","high":"8","students":"518","cost":"No","url":"https:\/\/www.providenceschools.org\/EsekHopkins","review":"https:\/\/www.publicschoolreview.com\/esek-hopkins-middle-school-profile","virtual":"No"},{"title":"Exeter - West Greenwich Reg. Jr.","lat":"41.610331","lon":"-71.637808","type":"Traditional Public School","address":"930 Nooseneck Hill Road","grades":["Middle"],"city":"West Greenwich","state":"RI","zip":"2817","phone":"(401) 397-6897","low":"7","high":"8","students":"225","cost":"No","url":"https:\/\/sites.google.com\/ewg.k12.ri.us\/jhs\/home","review":"https:\/\/www.publicschoolreview.com\/exeter-west-greenwich-reg-jr-profile","virtual":"No"},{"title":"Exeter - West Greenwich Regional","lat":"41.610331","lon":"-71.637808","type":"Traditional Public School","address":"930 Nooseneck Hill Road","grades":["High"],"city":"West Greenwich","state":"RI","zip":"2817","phone":"(401) 397-6893","low":"9","high":"12","students":"506","cost":"No","url":"https:\/\/sites.google.com\/site\/ewgseniorhigh\/","review":"https:\/\/www.publicschoolreview.com\/exeter-west-greenwich-regional-profile","virtual":"No"},{"title":"Fallon Memorial School","lat":"41.868593","lon":"-71.36069","type":"Traditional Public School","address":"62 Lincoln Avenue","grades":["Pre-K","Elementary"],"city":"Pawtucket","state":"RI","zip":"2861","phone":"(401) 729-6254","low":"PK","high":"5","students":"539","cost":"No","url":"http:\/\/fallon.pawtucket.schooldesk.net\/","review":"https:\/\/www.publicschoolreview.com\/fallon-memorial-school-profile","virtual":"No"},{"title":"Federal Hill House Early Learning Center","lat":"41.8221767","lon":"-71.4328805","type":"Private School","address":"9 Courtland St","grades":["Elementary","Middle","High"],"city":"Providence","state":"RI","zip":"2909","phone":"(401) 421-4722","low":"K","high":"9","students":"72","cost":"Yes","url":"https:\/\/www.federalhillhouse.org\/","review":"https:\/\/www.privateschoolreview.com\/federal-hill-house-early-learning-center-profile","virtual":"No"},{"title":"Fedward Martin Middle School","lat":"41.809005","lon":"-71.364048","type":"Traditional Public School","address":"111 Brown Street","grades":["Middle"],"city":"East Providence","state":"RI","zip":"2914","phone":"(401) 435-7819","low":"6","high":"8","students":"584","cost":"No","url":"","review":"https:\/\/www.publicschoolreview.com\/fedward-martin-middle-school-profile","virtual":"No"},{"title":"First Step At Kingston","lat":"41.483173","lon":"-71.539641","type":"Private School","address":"25 W Independence Way","grades":["Pre-K"],"city":"Kingston","state":"RI","zip":"2881","phone":"(401) 782-6600","low":"NS","high":"NS","students":"47","cost":"Yes","url":"https:\/\/firststepkingston.org\/","review":"https:\/\/www.privateschoolreview.com\/first-step-at-kingston-profile","virtual":"No"},{"title":"Fishing Cove El. School","lat":"41.586509","lon":"-71.445969","type":"Traditional Public School","address":"110 Wickford Point Road","grades":["Pre-K","Elementary"],"city":"North Kingstown","state":"RI","zip":"2852","phone":"(401) 268-6580","low":"PK","high":"5","students":"316","cost":"No","url":"https:\/\/fc.nksd.net\/","review":"https:\/\/www.publicschoolreview.com\/fishing-cove-el-school-profile","virtual":"No"},{"title":"Flora S. Curtis School","lat":"41.891854","lon":"-71.34804","type":"Traditional Public School","address":"582 Benefit Street","grades":["Pre-K","Elementary"],"city":"Pawtucket","state":"RI","zip":"2861","phone":"(401) 729-6252","low":"PK","high":"5","students":"251","cost":"No","url":"http:\/\/pawtucket.curtis.schooldesk.net\/","review":"https:\/\/www.publicschoolreview.com\/flora-s-curtis-school-profile","virtual":"No"},{"title":"Fogarty Memorial","lat":"41.879024","lon":"-71.635089","type":"Traditional Public School","address":"736 Snake Hill Road","grades":["Elementary"],"city":"North Scituate","state":"RI","zip":"2857","phone":"(401) 568-6211","low":"K","high":"5","students":"303","cost":"No","url":"https:\/\/www.glocesterri.org\/school.htm","review":"https:\/\/www.publicschoolreview.com\/fogarty-memorial-profile","virtual":"No"},{"title":"Forest Avenue School","lat":"41.525636","lon":"-71.285932","type":"Traditional Public School","address":"315 Forest Avenue","grades":["Elementary"],"city":"Middletown","state":"RI","zip":"2842","phone":"(401) 849-9434","low":"K","high":"3","students":"302","cost":"No","url":"https:\/\/www.mpsri.net\/o\/faes","review":"https:\/\/www.publicschoolreview.com\/forest-avenue-school-profile\/02842","virtual":"No"},{"title":"Forest Park El. School","lat":"41.621149","lon":"-71.452652","type":"Traditional Public School","address":"50 Woodlawn Drive","grades":["Elementary"],"city":"North Kingstown","state":"RI","zip":"2852","phone":"(401) 541-6380","low":"K","high":"5","students":"237","cost":"No","url":"https:\/\/fp.nksd.net\/","review":"https:\/\/www.publicschoolreview.com\/forest-park-el-school-profile","virtual":"No"},{"title":"Fort Barton School","lat":"41.625582","lon":"-71.209876","type":"Traditional Public School","address":"99 Lawton Avenue","grades":["Elementary"],"city":"Tiverton","state":"RI","zip":"2878","phone":"(401) 624-6114","low":"K","high":"4","students":"208","cost":"No","url":"https:\/\/fortbarton.tivertonschools.org\/","review":"https:\/\/www.publicschoolreview.com\/fort-barton-school-profile","virtual":"No"},{"title":"Founders Academy","lat":"42.005742","lon":"-71.512015","type":"Public Charter School","address":"1 Social Street","grades":["Middle"],"city":"Woonsocket","state":"RI","zip":"2895","phone":"(401) 671-6261","low":"6","high":"8","students":"160","cost":"No","url":"","review":"https:\/\/www.publicschoolreview.com\/founders-academy-profile","virtual":"No"},{"title":"Four Corners Ymca Early Learning Center","lat":"41.9491","lon":"-71.38552547","type":"Private School","address":"160 Bear Hill Rd","grades":["Elementary"],"city":"Cumberland","state":"RI","zip":"2864","phone":"(401) 333-6402","low":"K","high":"K","students":"75","cost":"Yes","url":"https:\/\/ymcapawtucket.org\/maccoll-ymca\/maccoll-childcare\/","review":"","virtual":"No"},{"title":"Fr John V Doyle School","lat":"41.6804266","lon":"-71.57485266","type":"Private School","address":"343 S Main St","grades":["Pre-K","Elementary","Middle"],"city":"Coventry","state":"RI","zip":"2816","phone":"(401) 821-3756","low":"PK","high":"8","students":"204","cost":"Yes","url":"https:\/\/fjvd.org\/","review":"https:\/\/www.privateschoolreview.com\/fr-john-v-doyle-school-profile","virtual":"No"},{"title":"Francis J. Varieur School","lat":"41.864777","lon":"-71.383659","type":"Traditional Public School","address":"486 Pleasant Street","grades":["Elementary","Middle"],"city":"Pawtucket","state":"RI","zip":"2860","phone":"(401) 729-6266","low":"K","high":"6","students":"315","cost":"No","url":"http:\/\/varieur.pawtucket.schooldesk.net\/","review":"https:\/\/www.publicschoolreview.com\/francis-j-varieur-school-profile","virtual":"No"},{"title":"Frank D. Spaziano Annex","lat":"41.814473","lon":"-71.456396","type":"Traditional Public School","address":"240 Laban Street","grades":["Elementary"],"city":"Providence","state":"RI","zip":"2909","phone":"(401) 456-1783","low":"K","high":"1","students":"169","cost":"No","url":"https:\/\/www.providenceschools.org\/spaziano","review":"https:\/\/www.publicschoolreview.com\/frank-d-spaziano-annex-profile","virtual":"No"},{"title":"Frank D. Spaziano Elementary School","lat":"41.815585","lon":"-71.455813","type":"Traditional Public School","address":"85 Laurel Hill Avenue","grades":["Elementary"],"city":"Providence","state":"RI","zip":"2909","phone":"(401) 456-9389","low":"2","high":"5","students":"336","cost":"No","url":"https:\/\/www.providenceschools.org\/spaziano","review":"https:\/\/www.publicschoolreview.com\/frank-d-spaziano-elementary-school-profile","virtual":"No"},{"title":"Frank E. Thompson Middle School","lat":"41.491621","lon":"-71.311832","type":"Traditional Public School","address":"55 Broadway","grades":["Elementary","Middle"],"city":"Newport","state":"RI","zip":"2840","phone":"(401) 847-1493","low":"5","high":"8","students":"582","cost":"No","url":"https:\/\/www.npsri.net\/Domain\/9","review":"https:\/\/www.publicschoolreview.com\/frank-e-thompson-middle-school-profile","virtual":"No"},{"title":"French - American School Of Rhode Island","lat":"41.82167183","lon":"-71.39687172","type":"Private School","address":"75 John Street","grades":["Pre-K","Elementary","Middle"],"city":"Providence","state":"RI","zip":"2906","phone":"(401) 274-3325","low":"NS","high":"8","students":"See website","cost":"Yes","url":"https:\/\/www.fasri.org","review":"https:\/\/www.privateschoolreview.com\/french-american-school-of-rhode-island-profile","virtual":"No"},{"title":"Frenchtown School","lat":"41.625838","lon":"-71.505059","type":"Traditional Public School","address":"1100 Frenchtown Road","grades":["Elementary"],"city":"East Greenwich","state":"RI","zip":"2818","phone":"(401) 398-1402","low":"K","high":"2","students":"232","cost":"No","url":"https:\/\/www.egsd.net\/schools\/frenchtown-elementary-school","review":"https:\/\/www.publicschoolreview.com\/frenchtown-school-profile","virtual":"No"},{"title":"G. Harold Hunt School","lat":"41.885312","lon":"-71.398128","type":"Traditional Public School","address":"12 Kendall Street","grades":["Pre-K"],"city":"Central Falls","state":"RI","zip":"2863","phone":"(401) 727-7720","low":"PK","high":"PK","students":"158","cost":"No","url":"https:\/\/www.cfschools.net\/o\/captain-hunt-preschool","review":"https:\/\/www.publicschoolreview.com\/g-harold-hunt-school-profile","virtual":"No"},{"title":"Garden City School","lat":"41.76152","lon":"-71.452431","type":"Traditional Public School","address":"70 Plantations Drive","grades":["Pre-K","Elementary"],"city":"Cranston","state":"RI","zip":"2920","phone":"(401) 270-8073","low":"PK","high":"5","students":"287","cost":"No","url":"https:\/\/gardencity.cpsed.net\/","review":"https:\/\/www.publicschoolreview.com\/garden-city-school-profile","virtual":"No"},{"title":"Garvin Memorial","lat":"41.929481","lon":"-71.401613","type":"Traditional Public School","address":"1364 Diamond Hill Road","grades":["Elementary"],"city":"Cumberland","state":"RI","zip":"2864","phone":"(401) 333-2557","low":"K","high":"5","students":"342","cost":"No","url":"https:\/\/cumberlandschools.org\/garvin-memorial-elementary-school\/","review":"https:\/\/www.publicschoolreview.com\/garvin-memorial-profile","virtual":"No"},{"title":"George Hanaford School","lat":"41.651599","lon":"-71.469317","type":"Traditional Public School","address":"200 Middle Road","grades":["Elementary"],"city":"East Greenwich","state":"RI","zip":"2818","phone":"(401) 398-1351","low":"3","high":"5","students":"269","cost":"No","url":"https:\/\/www.egsd.net\/schools\/george-r-hanaford","review":"https:\/\/www.publicschoolreview.com\/george-hanaford-school-profile","virtual":"No"},{"title":"George J. Peters School","lat":"41.782358","lon":"-71.471001","type":"Traditional Public School","address":"15 Mayberry Street","grades":["Elementary"],"city":"Cranston","state":"RI","zip":"2920","phone":"(401) 270-8199","low":"K","high":"5","students":"294","cost":"No","url":"https:\/\/www.icloud.com\/","review":"https:\/\/www.publicschoolreview.com\/george-j-peters-school-profile","virtual":"No"},{"title":"George J. West El. School","lat":"41.83036","lon":"-71.450282","type":"Traditional Public School","address":"145 Beaufort Street","grades":["Elementary"],"city":"Providence","state":"RI","zip":"2908","phone":"(401) 456-9337","low":"K","high":"5","students":"635","cost":"No","url":"https:\/\/www.providenceschools.org\/West","review":"https:\/\/www.publicschoolreview.com\/george-j-west-el-school-profile","virtual":"No"},{"title":"George N Hunt Campus School","lat":"41.84983005","lon":"-71.46493863","type":"Private School","address":"420 Fruit Hill Ave","grades":["Elementary","Middle","High"],"city":"North Providence","state":"RI","zip":"2911","phone":"(401) 353-3900","low":"2","high":"12","students":"37","cost":"Yes","url":"https:\/\/www.smhfc.org\/","review":"https:\/\/www.privateschoolreview.com\/george-n-hunt-campus-school-profile","virtual":"No"},{"title":"Gilbert Stuart Middle School","lat":"41.805301","lon":"-71.426031","type":"Traditional Public School","address":"188 Princeton Avenue","grades":["Middle"],"city":"Providence","state":"RI","zip":"2907","phone":"(401) 456-9341","low":"6","high":"8","students":"899","cost":"No","url":"https:\/\/www.providenceschools.org\/Stuart","review":"https:\/\/www.publicschoolreview.com\/gilbert-stuart-middle-school-profile","virtual":"No"},{"title":"Gladstone Street School","lat":"41.79928","lon":"-71.450063","type":"Traditional Public School","address":"50 Gladstone Street","grades":["Elementary"],"city":"Cranston","state":"RI","zip":"2920","phone":"(401) 270-8080","low":"K","high":"5","students":"502","cost":"No","url":"https:\/\/gladstone.cpsed.net\/","review":"https:\/\/www.publicschoolreview.com\/gladstone-street-school-profile","virtual":"No"},{"title":"Glen Hills School","lat":"41.757025","lon":"-71.467839","type":"Traditional Public School","address":"50 Glen Hills Drive","grades":["Elementary"],"city":"Cranston","state":"RI","zip":"2920","phone":"(401) 270-8005","low":"K","high":"5","students":"238","cost":"No","url":"https:\/\/glenhills.cpsed.net\/","review":"https:\/\/www.publicschoolreview.com\/glen-hills-school-profile","virtual":"No"},{"title":"Globe Park School","lat":"41.989089","lon":"-71.524886","type":"Traditional Public School","address":"192 Avenue A","grades":["Pre-K","Elementary"],"city":"Woonsocket","state":"RI","zip":"2895","phone":"(401) 767-4830","low":"PK","high":"5","students":"493","cost":"No","url":"https:\/\/www.woonsocketschools.com\/","review":"https:\/\/www.publicschoolreview.com\/globe-park-school-profile","virtual":"No"},{"title":"Good Shepherd Catholic Regional School","lat":"42.002849","lon":"-71.479954","type":"Private School","address":"1210 Mendon Road","grades":["Pre-K","Elementary","Middle"],"city":"Woonsocket","state":"RI","zip":"2895","phone":"(401) 767-5906","low":"PK","high":"8","students":"218","cost":"Yes","url":"https:\/\/www.gwcrs.org\/","review":"https:\/\/www.privateschoolreview.com\/good-shepherd-catholic-regional-school-profile\/02895","virtual":"No"},{"title":"Governor Christopher Delsesto","lat":"41.818981","lon":"-71.465132","type":"Traditional Public School","address":"152 Springfield Street","grades":["Middle"],"city":"Providence","state":"RI","zip":"2909","phone":"(401) 278-0557","low":"6","high":"8","students":"872","cost":"No","url":"","review":"https:\/\/www.publicschoolreview.com\/governor-christopher-delsesto-profile","virtual":"No"},{"title":"Graniteville School","lat":"41.863027","lon":"-71.494132","type":"Traditional Public School","address":"6 Collins Avenue","grades":["Pre-K"],"city":"Johnston","state":"RI","zip":"2919","phone":"(401) 231-8790","low":"PK","high":"PK","students":"107","cost":"No","url":"","review":"https:\/\/www.publicschoolreview.com\/graniteville-school-profile","virtual":"No"},{"title":"Greenbush Elementary School","lat":"41.671662","lon":"-71.524734","type":"Traditional Public School","address":"127 Greenbush Road","grades":["Elementary"],"city":"West Warwick","state":"RI","zip":"2893","phone":"(401) 822-8454","low":"K","high":"4","students":"435","cost":"No","url":"https:\/\/sites.google.com\/westwarwickpublicschools.com\/greenbushelementaryschool","review":"https:\/\/www.publicschoolreview.com\/greenbush-elementary-school-profile\/02893","virtual":"No"},{"title":"Greenwich Village School","lat":"41.64741316","lon":"-71.60893742","type":"Private School","address":"227 Nooseneck Hill Rd","grades":["Pre-K","Elementary"],"city":"West Greenwich","state":"RI","zip":"2817","phone":"(401) 397-7832","low":"PK","high":"K","students":"26","cost":"Yes","url":"http:\/\/www.greenwichvillageschool.com\/","review":"https:\/\/www.privateschoolreview.com\/greenwich-village-school-profile","virtual":"No"},{"title":"Greenwood School","lat":"41.71085","lon":"-71.453886","type":"Traditional Public School","address":"93 Sharon Street","grades":["Elementary"],"city":"Warwick","state":"RI","zip":"2886","phone":"(401) 734-3290","low":"K","high":"5","students":"273","cost":"No","url":"","review":"https:\/\/www.publicschoolreview.com\/greenwood-school-profile","virtual":"No"},{"title":"Greystone School","lat":"41.861729","lon":"-71.484264","type":"Traditional Public School","address":"100 Morgan Avenue","grades":["Pre-K","Elementary"],"city":"North Providence","state":"RI","zip":"2911","phone":"(401) 233-1130","low":"PK","high":"5","students":"286","cost":"No","url":"http:\/\/greystone.nprovschools.org\/","review":"https:\/\/www.publicschoolreview.com\/greystone-school-profile","virtual":"No"},{"title":"Growing Children Of Ri","lat":"41.462761","lon":"-71.526197","type":"Private School","address":"1175 South Road","grades":["Pre-K","Elementary"],"city":"Wakefield","state":"RI","zip":"2879","phone":"(401) 783-1401","low":"PK","high":"K","students":"24","cost":"Yes","url":"https:\/\/www.growingchildrenofri.com\/home.htm","review":"","virtual":"No"},{"title":"Guiteras School","lat":"41.676986","lon":"-71.276937","type":"Traditional Public School","address":"35 Washington Street","grades":["Elementary"],"city":"Bristol","state":"RI","zip":"2809","phone":"(401) 254-5932","low":"K","high":"5","students":"245","cost":"No","url":"https:\/\/www.bwrsd.org\/Domain\/12","review":"https:\/\/www.publicschoolreview.com\/guiteras-school-profile","virtual":"No"},{"title":"Hamilton School","lat":"41.548269","lon":"-71.440149","type":"Traditional Public School","address":"25 Salisbury Avenue","grades":["Elementary"],"city":"North Kingstown","state":"RI","zip":"2852","phone":"(401) 268-6520","low":"K","high":"5","students":"422","cost":"No","url":"https:\/\/he.nksd.net\/","review":"https:\/\/www.publicschoolreview.com\/hamilton-school-profile\/02852","virtual":"No"},{"title":"Hamlet Learning Center","lat":"42.00185","lon":"-71.505154","type":"Private School","address":"73 Hamlet Ave","grades":["Elementary"],"city":"Woonsocket","state":"RI","zip":"2895","phone":"(401) 766-7203","low":"K","high":"K","students":"54","cost":"Yes","url":"","review":"https:\/\/www.privateschoolreview.com\/hamlet-learning-center-profile","virtual":"No"},{"title":"Hampden Meadows School","lat":"41.754648","lon":"-71.303046","type":"Traditional Public School","address":"297 New Meadow Road","grades":["Elementary"],"city":"Barrington","state":"RI","zip":"2806","phone":"(401) 247-3166","low":"4","high":"5","students":"501","cost":"No","url":"https:\/\/www.hampdenmeadows.org\/","review":"https:\/\/www.publicschoolreview.com\/hampden-meadows-school-profile","virtual":"No"},{"title":"Harmony Hill School","lat":"41.9155","lon":"-71.62382109","type":"Private School","address":"63 Harmony Hill Rd","grades":["Elementary","Middle","High"],"city":"Chepachet","state":"RI","zip":"2814","phone":"(401) 949-0690","low":"5","high":"12","students":"60","cost":"Yes","url":"http:\/\/www.harmonyhillschool.org","review":"https:\/\/www.privateschoolreview.com\/harmony-hill-school-profile","virtual":"No"},{"title":"Harris School","lat":"42.007282","lon":"-71.51546","type":"Traditional Public School","address":"60 High School Street","grades":["Elementary"],"city":"Woonsocket","state":"RI","zip":"2895","phone":"(401) 767-4856","low":"K","high":"5","students":"412","cost":"No","url":"https:\/\/sites.google.com\/a\/woonsocketschools.com\/harris-elementary\/","review":"https:\/\/www.publicschoolreview.com\/harris-school-profile\/02895","virtual":"No"},{"title":"Harry Kizirian Elementary School","lat":"41.836952","lon":"-71.425961","type":"Traditional Public School","address":"60 Camden Avenue","grades":["Elementary"],"city":"Providence","state":"RI","zip":"2908","phone":"(401) 456-9369","low":"K","high":"5","students":"527","cost":"No","url":"https:\/\/www.providenceschools.org\/kizirian","review":"https:\/\/www.publicschoolreview.com\/harry-kizirian-elementary-school-profile","virtual":"No"},{"title":"Henry Barnard School At Ri College","lat":"41.84264292","lon":"-71.45289798","type":"Private School","address":"600 Mount Pleasant Ave","grades":["Pre-K","Elementary"],"city":"Providence","state":"RI","zip":"2908","phone":"(401) 456-8801","low":"PK","high":"5","students":"298","cost":"Yes","url":"http:\/\/henrybarnardschool.org\/","review":"","virtual":"No"},{"title":"Henry J. Winters School","lat":"41.886835","lon":"-71.375158","type":"Traditional Public School","address":"481 Broadway","grades":["Elementary"],"city":"Pawtucket","state":"RI","zip":"2860","phone":"(401) 729-6272","low":"K","high":"5","students":"348","cost":"No","url":"https:\/\/www.psdri.net\/","review":"https:\/\/www.publicschoolreview.com\/henry-j-winters-school-profile","virtual":"No"},{"title":"High Road School Of Providence","lat":"41.8575","lon":"-71.4365","type":"Private School","address":"100 Houghton St","grades":["Elementary","Middle","High"],"city":"Providence","state":"RI","zip":"2904","phone":"(401) 751-5800","low":"5","high":"12","students":"27","cost":"Yes","url":"https:\/\/catapultlearning.com\/schools\/high-road-school-providence\/","review":"https:\/\/www.privateschoolreview.com\/high-road-school-of-providence-profile","virtual":"No"},{"title":"Highlander Elementary Charter","lat":"41.79931","lon":"-71.418127","type":"Public Charter School","address":"42 Lexington Avenue","grades":["Pre-K","Elementary","Middle"],"city":"Providence","state":"RI","zip":"2907","phone":"(401) 277-2600","low":"PK","high":"6","students":"269","cost":"No","url":"","review":"https:\/\/www.publicschoolreview.com\/highlander-elementary-charter-profile","virtual":"No"},{"title":"Highlander Secondary Charter S","lat":"41.746319","lon":"-71.275074","type":"Public Charter School","address":"360 Market Street","grades":["Middle","High"],"city":"Warren","state":"RI","zip":"2885","phone":"(401) 247-3585","low":"7","high":"12","students":"333","cost":"No","url":"","review":"https:\/\/www.publicschoolreview.com\/highlander-secondary-charter-s-profile","virtual":"No"},{"title":"Hillside Alternative Program","lat":"41.8496","lon":"-71.4859","type":"Private School","address":"141 Main St","grades":["Middle","High"],"city":"Woonsocket","state":"RI","zip":"2895","phone":"(401) 767-5959","low":"7","high":"12","students":"11","cost":"Yes","url":"https:\/\/www.actionbasedenterprises.org\/","review":"https:\/\/www.privateschoolreview.com\/hillside-alternative-program-profile","virtual":"No"},{"title":"Holliman School","lat":"41.74882","lon":"-71.414347","type":"Traditional Public School","address":"70 Deborah Road","grades":["Elementary"],"city":"Warwick","state":"RI","zip":"2888","phone":"(401) 734-3170","low":"K","high":"5","students":"313","cost":"No","url":"","review":"https:\/\/www.publicschoolreview.com\/holliman-school-profile","virtual":"No"},{"title":"Holy Ghost School","lat":"41.823197","lon":"-71.4339959","type":"Private School","address":"35 Swiss Street","grades":["Pre-K","Elementary","Middle"],"city":"Providence","state":"RI","zip":"2909","phone":"(401) 421-4455","low":"PK","high":"8","students":"240","cost":"Yes","url":"https:\/\/holyghostschool.com\/","review":"https:\/\/www.privateschoolreview.com\/holy-ghost-school-profile","virtual":"No"},{"title":"Hope High School","lat":"41.834776","lon":"-71.401992","type":"Traditional Public School","address":"324 Hope Street","grades":["High"],"city":"Providence","state":"RI","zip":"2906","phone":"(401) 456-9161","low":"9","high":"12","students":"949","cost":"No","url":"https:\/\/www.providenceschools.org\/hope","review":"https:\/\/www.publicschoolreview.com\/hope-high-school-profile\/02906","virtual":"No"},{"title":"Hope Highlands Middle School","lat":"41.753177","lon":"-71.507479","type":"Traditional Public School","address":"300 Hope Road","grades":["Middle"],"city":"Cranston","state":"RI","zip":"2921","phone":"(401) 270-8148","low":"6","high":"8","students":"357","cost":"No","url":"","review":"https:\/\/www.publicschoolreview.com\/hope-highlands-middle-school-profile","virtual":"No"},{"title":"Hope School","lat":"41.735353","lon":"-71.563332","type":"Traditional Public School","address":"391 North Road","grades":["Elementary"],"city":"Hope","state":"RI","zip":"2831","phone":"(401) 821-3651","low":"K","high":"5","students":"161","cost":"No","url":"https:\/\/hopeschoolri.weebly.com\/","review":"https:\/\/www.publicschoolreview.com\/hope-school-profile\/02831","virtual":"No"},{"title":"Hope Valley Elementary School","lat":"41.511332","lon":"-71.713434","type":"Traditional Public School","address":"15 Thelma Drive","grades":["Pre-K","Elementary"],"city":"Hope Valley","state":"RI","zip":"2832","phone":"(401) 539-2321","low":"PK","high":"4","students":"247","cost":"No","url":"https:\/\/www.chariho.k12.ri.us\/hv","review":"https:\/\/www.publicschoolreview.com\/hope-valley-elementary-school-profile\/02832","virtual":"No"},{"title":"Hopkins Hill School","lat":"41.674502","lon":"-71.560535","type":"Traditional Public School","address":"95 Johnson Boulevard","grades":["Elementary"],"city":"Coventry","state":"RI","zip":"2816","phone":"(401) 822-9477","low":"K","high":"5","students":"315","cost":"No","url":"https:\/\/hopkinshillelementaryschool.weebly.com\/","review":"https:\/\/www.publicschoolreview.com\/hopkins-hill-school-profile","virtual":"No"},{"title":"Howard Hathaway School","lat":"41.617181","lon":"-71.24081","type":"Traditional Public School","address":"53 Tallman Avenue","grades":["Elementary"],"city":"Portsmouth","state":"RI","zip":"2871","phone":"(401) 683-0500","low":"K","high":"4","students":"416","cost":"No","url":"","review":"https:\/\/www.publicschoolreview.com\/howard-hathaway-school-profile","virtual":"No"},{"title":"Hoxsie School","lat":"41.729913","lon":"-71.398185","type":"Traditional Public School","address":"55 Glenwood Drive","grades":["Elementary"],"city":"Warwick","state":"RI","zip":"2889","phone":"(401) 734-3555","low":"K","high":"5","students":"265","cost":"No","url":"https:\/\/hoxsie.warwickschools.org\/","review":"https:\/\/www.publicschoolreview.com\/hoxsie-school-profile","virtual":"No"},{"title":"Hugh B. Bain Middle School","lat":"41.786568","lon":"-71.45155","type":"Traditional Public School","address":"135 Gansett Avenue","grades":["Middle"],"city":"Cranston","state":"RI","zip":"2910","phone":"(401) 270-8010","low":"6","high":"8","students":"624","cost":"No","url":"https:\/\/bain.cpsed.net\/","review":"https:\/\/www.publicschoolreview.com\/hugh-b-bain-middle-school-profile","virtual":"No"},{"title":"Hugh Cole School","lat":"41.725916","lon":"-71.255138","type":"Traditional Public School","address":"50 Asylum Road","grades":["Pre-K","Elementary"],"city":"Warren","state":"RI","zip":"2885","phone":"(401) 245-1460","low":"PK","high":"5","students":"529","cost":"No","url":"https:\/\/www.bwrsd.org\/Domain\/10","review":"https:\/\/www.publicschoolreview.com\/hugh-cole-school-profile","virtual":"No"},{"title":"Immaculate Conception Catholic Regional School","lat":"41.7618191","lon":"-71.45565281","type":"Private School","address":"235 Garden Hills Dr","grades":["Pre-K","Elementary","Middle"],"city":"Providence","state":"RI","zip":"2902","phone":"(401) 942-7245","low":"NS","high":"8","students":"346","cost":"Yes","url":"https:\/\/www.iccatholicschool.org\/about-us","review":"https:\/\/www.privateschoolreview.com\/immaculate-conception-catholic-regional-school-profile","virtual":"No"},{"title":"International Charter School","lat":"41.868862","lon":"-71.385274","type":"Public Charter School","address":"334 Pleasant Street","grades":["Elementary"],"city":"Pawtucket","state":"RI","zip":"2860","phone":"(401) 721-0824","low":"K","high":"5","students":"374","cost":"No","url":"https:\/\/internationalcharterschool.org\/","review":"https:\/\/www.publicschoolreview.com\/international-charter-school-profile","virtual":"No"},{"title":"Islamic School Of Rhode Island","lat":"41.72455333","lon":"-71.49146333","type":"Private School","address":"840 Providence St","grades":["Pre-K","Elementary","Middle","High"],"city":"West Warwick","state":"RI","zip":"2893","phone":"(401) 821-8700","low":"PK","high":"10","students":"123","cost":"Yes","url":"https:\/\/www.iisri.org\/","review":"https:\/\/www.privateschoolreview.com\/islamic-school-of-rhode-island-profile","virtual":"No"},{"title":"Jacqueline M. Walsh School","lat":"41.874759","lon":"-71.371494","type":"Traditional Public School","address":"350 Divison Street","grades":["High"],"city":"Pawtucket","state":"RI","zip":"2860","phone":"(401) 721-2148","low":"9","high":"12","students":"211","cost":"No","url":"http:\/\/pawtucket.walsh.schooldesk.net\/","review":"https:\/\/www.publicschoolreview.com\/jacqueline-m-walsh-school-profile","virtual":"No"},{"title":"James H. Eldredge School","lat":"41.655235","lon":"-71.454026","type":"Traditional Public School","address":"101 First Avenue","grades":["Elementary"],"city":"East Greenwich","state":"RI","zip":"2818","phone":"(401) 886-3246","low":"3","high":"5","students":"296","cost":"No","url":"https:\/\/www.egsd.net\/schools\/james-h-eldredge-elementary-school","review":"https:\/\/www.publicschoolreview.com\/james-h-eldredge-school-profile","virtual":"No"},{"title":"James L. Mcguire School","lat":"41.85557","lon":"-71.467461","type":"Traditional Public School","address":"55 Central Avenue, North Provi","grades":["Elementary"],"city":"North Providence","state":"RI","zip":"2911","phone":"(401) 233-1135","low":"K","high":"5","students":"360","cost":"No","url":"http:\/\/mcguire.nprovschools.org\/","review":"https:\/\/www.publicschoolreview.com\/james-l-mcguire-school-profile","virtual":"No"},{"title":"James R. D. Oldham School","lat":"41.773133","lon":"-71.343952","type":"Traditional Public School","address":"60 Bart Drive","grades":["Pre-K"],"city":"Riverside","state":"RI","zip":"2915","phone":"(401) 270-2321","low":"PK","high":"PK","students":"93","cost":"No","url":"","review":"https:\/\/www.publicschoolreview.com\/james-r-d-oldham-school-profile","virtual":"No"},{"title":"Jamestown School - Lawn","lat":"41.499899","lon":"-71.378015","type":"Traditional Public School","address":"55 Lawn Avenue","grades":["Elementary","Middle"],"city":"Jamestown","state":"RI","zip":"2835","phone":"(401) 423-7010","low":"5","high":"8","students":"204","cost":"No","url":"https:\/\/lawn.jamestownschools.org\/","review":"https:\/\/www.publicschoolreview.com\/jamestown-school-lawn-profile","virtual":"No"},{"title":"Jamestown School - Melrose","lat":"41.500149","lon":"-71.380955","type":"Traditional Public School","address":"76 Melrose Avenue","grades":["Pre-K","Elementary"],"city":"Jamestown","state":"RI","zip":"2835","phone":"(401) 423-7020","low":"PK","high":"4","students":"254","cost":"No","url":"","review":"https:\/\/www.publicschoolreview.com\/jamestown-school-melrose-profile","virtual":"No"},{"title":"Jewish Community Center Of R.I","lat":"41.841993","lon":"-71.3923609","type":"Private School","address":"401 Elmgrove Ave","grades":["Pre-K","Elementary"],"city":"Providence","state":"RI","zip":"2906","phone":"(401) 861-8800","low":"PK","high":"K","students":"52","cost":"Yes","url":"https:\/\/www.jewishallianceri.org\/","review":"https:\/\/www.privateschoolreview.com\/jewish-community-center-of-r-i-profile","virtual":"No"},{"title":"Jewish Community Day School Of Rhode Island","lat":"41.84169713","lon":"-71.3962","type":"Private School","address":"85 Taft Ave","grades":["Pre-K","Elementary"],"city":"Providence","state":"RI","zip":"2906","phone":"(401) 751-2470","low":"PK","high":"5","students":"77","cost":"Yes","url":"https:\/\/jcdsri.com\/","review":"https:\/\/www.privateschoolreview.com\/jewish-community-day-school-of-rhode-island-profile","virtual":"No"},{"title":"Jo - Ann Caffey Mcdowell Elc At John Hope","lat":"41.816948","lon":"-71.425217","type":"Private School","address":"7 Thomas P Whitten Way","grades":["Pre-K","Elementary"],"city":"Providence","state":"RI","zip":"2903","phone":"(401) 421-6993","low":"PK","high":"K","students":"43","cost":"Yes","url":"https:\/\/www.johnhope.org\/early-learning-center","review":"","virtual":"No"},{"title":"John F. Deering Middle School","lat":"41.706425","lon":"-71.516827","type":"Traditional Public School","address":"2 Webster Knight Drive","grades":["Elementary","Middle"],"city":"West Warwick","state":"RI","zip":"2893","phone":"(401) 822-8445","low":"5","high":"8","students":"1141","cost":"No","url":"https:\/\/sites.google.com\/a\/westwarwickpublicschools.com\/john-f-deering-ms\/","review":"https:\/\/www.publicschoolreview.com\/john-f-deering-middle-school-profile","virtual":"No"},{"title":"John F. Horgan School","lat":"41.714002","lon":"-71.516809","type":"Traditional Public School","address":"124 Providence Street","grades":["Elementary"],"city":"West Warwick","state":"RI","zip":"2893","phone":"(401) 822-8449","low":"K","high":"4","students":"512","cost":"No","url":"https:\/\/sites.google.com\/a\/westwarwickpublicschools.com\/horgan\/","review":"https:\/\/www.publicschoolreview.com\/john-f-horgan-school-profile","virtual":"No"},{"title":"John J. Mclaughlin Cumberland","lat":"41.976364","lon":"-71.461297","type":"Traditional Public School","address":"205 Manville Hill Road","grades":["Elementary"],"city":"Cumberland","state":"RI","zip":"2864","phone":"(401) 658-1660","low":"K","high":"5","students":"382","cost":"No","url":"https:\/\/cumberlandschools.org\/jjm-cumberland-hill-elementary-school\/","review":"https:\/\/www.publicschoolreview.com\/john-j-mclaughlin-cumberland-profile","virtual":"No"},{"title":"Johnston Child Care Center","lat":"41.8623","lon":"-71.4931","type":"Private School","address":"87 Putnam Pike","grades":["Pre-K"],"city":"Johnston","state":"RI","zip":"2919","phone":"(401) 233-3360","low":"NS","high":"NS","students":"36","cost":"Yes","url":"https:\/\/www.johnstonchildcare.com\/","review":"","virtual":"No"},{"title":"Johnston Senior High School","lat":"41.830833","lon":"-71.49891","type":"Traditional Public School","address":"345 Cherry Hill Road","grades":["High"],"city":"Johnston","state":"RI","zip":"2919","phone":"(401) 233-1920","low":"9","high":"12","students":"796","cost":"No","url":"http:\/\/johnstonhighschool.com\/","review":"https:\/\/www.publicschoolreview.com\/johnston-senior-high-school-profile\/02919","virtual":"No"},{"title":"Joseph A. Whelan School","lat":"41.866231","lon":"-71.442119","type":"Traditional Public School","address":"1440 Mineral Spring Avenue","grades":["Elementary"],"city":"Providence","state":"RI","zip":"2904","phone":"(401) 233-1180","low":"K","high":"5","students":"257","cost":"No","url":"http:\/\/whelan.nprovschools.org\/","review":"https:\/\/www.publicschoolreview.com\/joseph-a-whelan-school-profile","virtual":"No"},{"title":"Joseph Gaudet Academy","lat":"41.518199","lon":"-71.283117","type":"Traditional Public School","address":"1113 Aquidneck Ave.","grades":["Elementary"],"city":"Middletown","state":"RI","zip":"2842","phone":"(401) 846-6395","low":"4","high":"4","students":"151","cost":"No","url":"https:\/\/www.mpsri.net\/o\/jgms","review":"https:\/\/www.publicschoolreview.com\/joseph-gaudet-academy-profile","virtual":"No"},{"title":"Joseph H. Gaudet School","lat":"41.518199","lon":"-71.283117","type":"Traditional Public School","address":"1113 Aquidneck Avenue","grades":["Elementary","Middle"],"city":"Middletown","state":"RI","zip":"2842","phone":"(401) 846-6395","low":"5","high":"8","students":"619","cost":"No","url":"https:\/\/www.mpsri.net\/o\/jgms","review":"https:\/\/www.publicschoolreview.com\/joseph-h-gaudet-school-profile","virtual":"No"},{"title":"Joseph Jenks Middle School","lat":"41.874759","lon":"-71.371494","type":"Traditional Public School","address":"350 Division Street","grades":["Middle"],"city":"Pawtucket","state":"RI","zip":"2860","phone":"(401) 729-6520","low":"6","high":"8","students":"699","cost":"No","url":"http:\/\/pawtucket.jenks.schooldesk.net\/","review":"https:\/\/www.publicschoolreview.com\/joseph-jenks-middle-school-profile","virtual":"No"},{"title":"Joseph L. Mccourt Middleschool","lat":"41.919479","lon":"-71.393533","type":"Traditional Public School","address":"45 Highland Avenue","grades":["Middle"],"city":"Cumberland","state":"RI","zip":"2864","phone":"(401) 725-2092","low":"6","high":"8","students":"450","cost":"No","url":"http:\/\/www.cumberlandschools.org\/content\/joseph-l-mccourt-middle-school","review":"https:\/\/www.publicschoolreview.com\/joseph-l-mccourt-middleschool-profile","virtual":"No"},{"title":"Joyful Noise Inc","lat":"41.692725","lon":"-71.520076","type":"Private School","address":"9 New London Avenue","grades":["Pre-K"],"city":"West Warwick","state":"RI","zip":"2893","phone":"(401) 828-8210","low":"NS","high":"PK","students":"167","cost":"Yes","url":"https:\/\/joyfulnoiseinc.com\/contact-us.php","review":"https:\/\/www.privateschoolreview.com\/joyful-noise-inc-profile","virtual":"No"},{"title":"Kent Heights School","lat":"41.801955","lon":"-71.361929","type":"Traditional Public School","address":"2680 Pawtucket Avenue","grades":["Elementary"],"city":"East Providence","state":"RI","zip":"2914","phone":"(401) 435-7824","low":"K","high":"5","students":"248","cost":"No","url":"http:\/\/www.epschoolsri.com\/kent","review":"https:\/\/www.publicschoolreview.com\/kent-heights-school-profile","virtual":"No"},{"title":"Kevin K. Coleman School","lat":"41.999267","lon":"-71.525979","type":"Traditional Public School","address":"96 Second Avenue","grades":["Elementary"],"city":"Woonsocket","state":"RI","zip":"2895","phone":"(401) 767-4859","low":"K","high":"5","students":"256","cost":"No","url":"http:\/\/kevinkcoleman.weebly.com\/","review":"https:\/\/www.publicschoolreview.com\/kevin-k-coleman-school-profile","virtual":"No"},{"title":"Keystone Montessori School","lat":"41.696128","lon":"-71.504653","type":"Private School","address":"245 Legris Ave","grades":["Pre-K"],"city":"West Warwick","state":"RI","zip":"2893","phone":"(401) 424-5400","low":"NS","high":"NS","students":"See website","cost":"Yes","url":"https:\/\/www.keystonemontessori.us","review":"","virtual":"No"},{"title":"Kickemuit Middle School","lat":"41.730439","lon":"-71.259145","type":"Traditional Public School","address":"525 Child Street","grades":["Middle"],"city":"Warren","state":"RI","zip":"2885","phone":"(401) 245-2010","low":"6","high":"8","students":"697","cost":"No","url":"https:\/\/www.bwrsd.org\/Domain\/9","review":"https:\/\/www.publicschoolreview.com\/kickemuit-middle-school-profile","virtual":"No"},{"title":"Kid's Kingdom","lat":"41.79318","lon":"-71.455676","type":"Private School","address":"116 Puritan Avenue","grades":["Pre-K","Elementary"],"city":"Cranston","state":"RI","zip":"2920","phone":"(401) 464-9665","low":"PK","high":"K","students":"21","cost":"Yes","url":"https:\/\/www.facebook.com\/Kids-Kingdom-101575193317681\/info\/?tab=page_info","review":"","virtual":"No"},{"title":"Kinderart Preschool","lat":"41.493457","lon":"-71.284722","type":"Private School","address":"146 Aquidneck Ave","grades":["Elementary"],"city":"Middletown","state":"RI","zip":"2842","phone":"(401) 847-0685","low":"K","high":"K","students":"43","cost":"Yes","url":"https:\/\/www.kinderartkids.com\/","review":"","virtual":"No"},{"title":"Kingston Hill Academy","lat":"41.501305","lon":"-71.514737","type":"Public Charter School","address":"850 Stony Fort Road","grades":["Elementary"],"city":"Saunderstown","state":"RI","zip":"2874","phone":"(401) 783-8282","low":"K","high":"5","students":"259","cost":"No","url":"http:\/\/kingstonhill.org\/drupal\/bios","review":"https:\/\/www.publicschoolreview.com\/kingston-hill-academy-profile","virtual":"No"},{"title":"La Salle Academy","lat":"41.84257519","lon":"-71.44539846","type":"Private School","address":"612 Academy Ave","grades":["Middle","High"],"city":"Providence","state":"RI","zip":"2908","phone":"(401) 351-7750","low":"6","high":"12","students":"1540","cost":"Yes","url":"https:\/\/www.lasalle-academy.org\/page","review":"https:\/\/www.privateschoolreview.com\/la-salle-academy-profile\/02908","virtual":"No"},{"title":"Learning Brooke Ece Center","lat":"41.75235429","lon":"-71.45090801","type":"Private School","address":"1170 Pontiac Ave Ste 200","grades":["Pre-K"],"city":"Cranston","state":"RI","zip":"2920","phone":"(401) 941-3705","low":"NS","high":"PK","students":"108","cost":"Yes","url":"https:\/\/learningbrooke.com\/","review":"","virtual":"No"},{"title":"Leo A. Savoie School","lat":"42.005473","lon":"-71.478046","type":"Traditional Public School","address":"990 Mendon Road","grades":["Elementary"],"city":"Woonsocket","state":"RI","zip":"2895","phone":"(401) 767-4820","low":"K","high":"5","students":"340","cost":"No","url":"http:\/\/leosavoieelementaryschool.weebly.com\/","review":"https:\/\/www.publicschoolreview.com\/leo-a-savoie-school-profile","virtual":"No"},{"title":"Leviton Dual Language School","lat":"41.802304","lon":"-71.429137","type":"Traditional Public School","address":"65 Greenwich Street","grades":["Elementary"],"city":"Providence","state":"RI","zip":"2907","phone":"(401) 278-2872","low":"K","high":"5","students":"289","cost":"No","url":"https:\/\/www.providenceschools.org\/Leviton","review":"https:\/\/www.publicschoolreview.com\/leviton-dual-language-school-profile","virtual":"No"},{"title":"Lillian Feinstein El. School","lat":"41.79401","lon":"-71.419292","type":"Traditional Public School","address":"159 Sackett Street","grades":["Elementary"],"city":"Providence","state":"RI","zip":"2907","phone":"(401) 456-9407","low":"K","high":"5","students":"410","cost":"No","url":"https:\/\/www.providenceschools.org\/sackett","review":"https:\/\/www.publicschoolreview.com\/lillian-feinstein-el-school-profile","virtual":"No"},{"title":"Lincoln Central Elementary School","lat":"41.92788","lon":"-71.446977","type":"Traditional Public School","address":"1081 Great Road","grades":["Elementary"],"city":"Lincoln","state":"RI","zip":"2865","phone":"(401) 334-2800","low":"K","high":"5","students":"399","cost":"No","url":"https:\/\/www.lincolnihs.org\/","review":"https:\/\/www.publicschoolreview.com\/lincoln-central-elementary-school-profile\/02865","virtual":"No"},{"title":"Lincoln Middle School","lat":"41.909893","lon":"-71.471729","type":"Traditional Public School","address":"152 Jenckes Hill Road","grades":["Middle"],"city":"Lincoln","state":"RI","zip":"2865","phone":"(401) 721-3400","low":"6","high":"8","students":"769","cost":"No","url":"https:\/\/www.lincolnps.org\/Domain\/12","review":"https:\/\/www.publicschoolreview.com\/lincoln-middle-school-profile\/02865","virtual":"No"},{"title":"Lincoln School","lat":"41.832703","lon":"-71.3829372","type":"Private School","address":"301 Butler Ave","grades":["Pre-K","Elementary","Middle","High"],"city":"Providence","state":"RI","zip":"2906","phone":"(401) 331-9696","low":"NS","high":"12","students":"386","cost":"Yes","url":"https:\/\/www.lincolnschool.org\/","review":"https:\/\/www.privateschoolreview.com\/lincoln-school-profile","virtual":"No"},{"title":"Lincoln Senior High School","lat":"41.936216","lon":"-71.45222","type":"Traditional Public School","address":"135 Old River Road","grades":["High"],"city":"Lincoln","state":"RI","zip":"2865","phone":"(401) 334-7500","low":"9","high":"12","students":"957","cost":"No","url":"http:\/\/www.lincolnlions.org\/","review":"https:\/\/www.publicschoolreview.com\/lincoln-senior-high-school-profile\/02865","virtual":"No"},{"title":"Lincoln Seventh - Day Adventist School","lat":"41.921111","lon":"-71.435","type":"Private School","address":"1000 Smithfield Ave","grades":["Elementary","Middle","High"],"city":"Lincoln","state":"RI","zip":"2865","phone":"(401) 723-7999","low":"K","high":"9","students":"59","cost":"Yes","url":"https:\/\/lincolnri.adventistchurch.org\/ministries\/sabbath-school","review":"https:\/\/www.privateschoolreview.com\/lincoln-seventh-day-adventist-school-profile","virtual":"No"},{"title":"Lippitt School","lat":"41.70786","lon":"-71.42226","type":"Traditional Public School","address":"30 Almy Street","grades":["Elementary"],"city":"Warwick","state":"RI","zip":"2886","phone":"(401) 734-3240","low":"K","high":"5","students":"237","cost":"No","url":"","review":"https:\/\/www.publicschoolreview.com\/lippitt-school-profile","virtual":"No"},{"title":"Little Friends Academy","lat":"41.684602","lon":"-71.504591","type":"Private School","address":"297 Cowesett Ave","grades":["Elementary"],"city":"West Warwick","state":"RI","zip":"2893","phone":"(401) 821-3200","low":"K","high":"K","students":"39","cost":"Yes","url":"https:\/\/www.facebook.com\/pages\/Little-Friends-Academy\/106403232137","review":"","virtual":"No"},{"title":"Little Red Hen Preschool & Kindergarten","lat":"41.6629","lon":"-71.487","type":"Private School","address":"358 Old Forge","grades":["Pre-K","Elementary"],"city":"East Greenwich","state":"RI","zip":"2818","phone":"(401) 884-5486","low":"PK","high":"K","students":"52","cost":"Yes","url":"http:\/\/www.littleredhenschool.com","review":"https:\/\/www.privateschoolreview.com\/little-red-hen-preschool-kindergarten-profile","virtual":"No"},{"title":"London Bridge Child Care Center","lat":"41.659466","lon":"-71.44804","type":"Private School","address":"146 Duke St","grades":["Pre-K"],"city":"East Greenwich","state":"RI","zip":"2818","phone":"(401) 886-5347","low":"NS","high":"NS","students":"21","cost":"Yes","url":"","review":"","virtual":"No"},{"title":"Lonsdale Elementary School","lat":"41.908239","lon":"-71.415756","type":"Traditional Public School","address":"270 River Road","grades":["Elementary"],"city":"Lincoln","state":"RI","zip":"2865","phone":"(401) 725-4200","low":"K","high":"5","students":"279","cost":"No","url":"https:\/\/www.lincolnps.org\/Domain\/8","review":"https:\/\/www.publicschoolreview.com\/lonsdale-elementary-school-profile","virtual":"No"},{"title":"Lyman B. Goff Middle School","lat":"41.88156","lon":"-71.354201","type":"Traditional Public School","address":"974 Newport Avenue","grades":["Middle"],"city":"Pawtucket","state":"RI","zip":"2861","phone":"(401) 729-6500","low":"6","high":"8","students":"693","cost":"No","url":"http:\/\/pawtucket.goff.schooldesk.net\/","review":"https:\/\/www.publicschoolreview.com\/lyman-b-goff-middle-school-profile","virtual":"No"},{"title":"Maisie E. Quinn School","lat":"41.690211","lon":"-71.523376","type":"Traditional Public School","address":"1 Brown Street","grades":["Pre-K"],"city":"West Warwick","state":"RI","zip":"2893","phone":"(401) 822-8456","low":"PK","high":"PK","students":"46","cost":"No","url":"","review":"https:\/\/www.publicschoolreview.com\/maisie-e-quinn-school-profile","virtual":"No"},{"title":"Martin Luther King El. School","lat":"41.837341","lon":"-71.403803","type":"Traditional Public School","address":"35 Camp Street","grades":["Pre-K","Elementary"],"city":"Providence","state":"RI","zip":"2906","phone":"(401) 456-9398","low":"PK","high":"5","students":"361","cost":"No","url":"https:\/\/www.providenceschools.org\/King","review":"https:\/\/www.publicschoolreview.com\/martin-luther-king-el-school-profile","virtual":"No"},{"title":"Mary E. Fogarty El. School","lat":"41.802098","lon":"-71.410816","type":"Traditional Public School","address":"199 Oxford Street","grades":["Elementary"],"city":"Providence","state":"RI","zip":"2905","phone":"(401) 456-9381","low":"K","high":"5","students":"401","cost":"No","url":"https:\/\/maryfogarty.webs.com\/","review":"https:\/\/www.publicschoolreview.com\/mary-e-fogarty-el-school-profile","virtual":"No"},{"title":"Matunuck School","lat":"41.386077","lon":"-71.549597","type":"Traditional Public School","address":"380 Matunuck Beach Road","grades":["Elementary"],"city":"Wakefield","state":"RI","zip":"2879","phone":"(401) 360-1234","low":"K","high":"4","students":"165","cost":"No","url":"https:\/\/mt.skschools.net\/","review":"https:\/\/www.publicschoolreview.com\/matunuck-school-profile","virtual":"No"},{"title":"Meadowbrook Farms School","lat":"41.636544","lon":"-71.48095","type":"Traditional Public School","address":"2 Chestnut Drive","grades":["Pre-K","Elementary"],"city":"East Greenwich","state":"RI","zip":"2818","phone":"(401) 398-1602","low":"PK","high":"2","students":"270","cost":"No","url":"https:\/\/www.egsd.net\/schools\/meadowbrook-farms-elementary-school","review":"https:\/\/www.publicschoolreview.com\/meadowbrook-farms-school-profile","virtual":"No"},{"title":"Meadowbrook Waldorf School","lat":"41.501827","lon":"-71.641056","type":"Private School","address":"300 Kingstown Road","grades":["Pre-K","Elementary","Middle"],"city":"West Kingston","state":"RI","zip":"2892","phone":"(401) 491-9570","low":"NS","high":"8","students":"141","cost":"Yes","url":"https:\/\/www.meadowbrookschool.com\/","review":"https:\/\/www.privateschoolreview.com\/meadowbrook-waldorf-school-profile","virtual":"No"},{"title":"Melville School","lat":"41.580538","lon":"-71.27004","type":"Traditional Public School","address":"1351 West Main Road","grades":["Pre-K","Elementary"],"city":"Portsmouth","state":"RI","zip":"2871","phone":"(401) 683-1650","low":"PK","high":"4","students":"335","cost":"No","url":"","review":"https:\/\/www.publicschoolreview.com\/melville-school-profile\/02871","virtual":"No"},{"title":"Mercymount Country Day School","lat":"42.00799277","lon":"-71.41543001","type":"Private School","address":"35 Wrentham Rd","grades":["Pre-K","Elementary","Middle"],"city":"Cumberland","state":"RI","zip":"2864","phone":"(401) 333-5919","low":"NS","high":"8","students":"280","cost":"Yes","url":"https:\/\/www.mercymount.org\/","review":"https:\/\/www.privateschoolreview.com\/mercymount-country-day-school-profile","virtual":"No"},{"title":"Metcalf School","lat":"41.600122","lon":"-71.644233","type":"Traditional Public School","address":"30 Nooseneck Hill Road","grades":["Elementary","Middle"],"city":"Exeter","state":"RI","zip":"2822","phone":"(401) 397-3375","low":"2","high":"6","students":"575","cost":"No","url":"https:\/\/metcalf.ewgrsd.org\/","review":"https:\/\/www.publicschoolreview.com\/metcalf-school-profile","virtual":"No"},{"title":"Metropolitan Career Tech Center","lat":"41.806298","lon":"-71.411872","type":"Public Magnet School","address":"325 Public Street","grades":["High"],"city":"Providence","state":"RI","zip":"2905","phone":"(401) 752-2600","low":"9","high":"12","students":"811","cost":"No","url":"https:\/\/www.themethighschool.org\/","review":"https:\/\/www.publicschoolreview.com\/metropolitan-career-tech-center-profile","virtual":"No"},{"title":"Middletown High School","lat":"41.516211","lon":"-71.291777","type":"Traditional Public School","address":"130 Valley Road","grades":["High"],"city":"Middletown","state":"RI","zip":"2842","phone":"(401) 846-7250","low":"9","high":"12","students":"592","cost":"No","url":"https:\/\/www.mpsri.net\/o\/mhs","review":"https:\/\/www.publicschoolreview.com\/middletown-high-school-profile\/02842","virtual":"No"},{"title":"Mildred E. Lineham School","lat":"41.615036","lon":"-71.635407","type":"Traditional Public School","address":"859 Nooseneck Hill Road","grades":["Pre-K"],"city":"West Greenwich","state":"RI","zip":"2817","phone":"(401) 397-3771","low":"PK","high":"PK","students":"44","cost":"No","url":"https:\/\/sites.google.com\/ewg.k12.ri.us\/lineham\/home","review":"https:\/\/www.publicschoolreview.com\/mildred-e-lineham-school-profile","virtual":"No"},{"title":"Miss Lee","lat":"41.770704","lon":"-71.469472","type":"Private School","address":"180 Oaklawn Ave","grades":["Pre-K","Elementary"],"city":"Cranston","state":"RI","zip":"2920","phone":"(401) 942-3331","low":"PK","high":"K","students":"27","cost":"Yes","url":"http:\/\/www.missleeanns.com\/","review":"","virtual":"No"},{"title":"Monsignor Matthew Clarke Catholic Regional School","lat":"41.4381721","lon":"-71.5015546","type":"Private School","address":"5074 Tower Hill Rd","grades":["Pre-K","Elementary","Middle"],"city":"Wakefield","state":"RI","zip":"2879","phone":"(401) 789-0860","low":"PK","high":"8","students":"361","cost":"Yes","url":"https:\/\/monsignorclarkeschool.org\/","review":"https:\/\/www.privateschoolreview.com\/monsignor-matthew-clarke-catholic-regional-school-profile","virtual":"No"},{"title":"Montessori Centre Of Barrington","lat":"41.75365962","lon":"-71.29428297","type":"Private School","address":"303 Sowams Rd","grades":["Pre-K","Elementary"],"city":"Barrington","state":"RI","zip":"2806","phone":"(401) 245-4754","low":"PK","high":"K","students":"76","cost":"Yes","url":"https:\/\/www.montessori-centre.com\/","review":"https:\/\/www.privateschoolreview.com\/montessori-centre-of-barrington-profile","virtual":"No"},{"title":"Montessori Children's House","lat":"41.83519524","lon":"-71.38644339","type":"Private School","address":"518 Lloyd Avenue","grades":["Pre-K","Elementary","Middle"],"city":"Providence","state":"RI","zip":"2906","phone":"(401) 331-6120","low":"PK","high":"6","students":"See website","cost":"Yes","url":"https:\/\/www.montessorichildrenshouse.org\/","review":"https:\/\/www.privateschoolreview.com\/montessori-children-s-house-profile\/02906","virtual":"No"},{"title":"Montessori Of Greenwich Bay","lat":"41.607624","lon":"-71.493687","type":"Private School","address":"3285 S County Trl","grades":["Pre-K","Elementary"],"city":"East Greenwich","state":"RI","zip":"2818","phone":"(401) 234-1243","low":"PK","high":"K","students":"26","cost":"Yes","url":"https:\/\/montessorigb.com\/","review":"https:\/\/www.privateschoolreview.com\/montessori-of-greenwich-bay-profile","virtual":"No"},{"title":"Moses Brown School","lat":"41.83232729","lon":"-71.39821544","type":"Private School","address":"250 Lloyd Ave","grades":["Pre-K","Elementary","Middle","High"],"city":"Providence","state":"RI","zip":"2906","phone":"(401) 831-7350","low":"NS","high":"12","students":"753","cost":"Yes","url":"","review":"https:\/\/www.privateschoolreview.com\/moses-brown-school-profile","virtual":"No"},{"title":"Mount Pleasant Academy","lat":"41.83249534","lon":"-71.44973085","type":"Private School","address":"1246 Chalkstone Ave","grades":["Elementary","Middle"],"city":"Providence","state":"RI","zip":"2908","phone":"(401) 521-4335","low":"K","high":"8","students":"30","cost":"Yes","url":"http:\/\/mountpleasantacademy.org\/","review":"https:\/\/www.privateschoolreview.com\/mount-pleasant-academy-profile","virtual":"No"},{"title":"Mount Pleasant High School","lat":"41.840522","lon":"-71.45226","type":"Traditional Public School","address":"434 Mt. Pleasant Avenue","grades":["High"],"city":"Providence","state":"RI","zip":"2908","phone":"(401) 456-9181","low":"9","high":"12","students":"1161","cost":"No","url":"https:\/\/www.providenceschools.org\/mtpleasant","review":"https:\/\/www.publicschoolreview.com\/mount-pleasant-high-school-profile\/02908","virtual":"No"},{"title":"Mount St Charles Academy","lat":"41.9945113","lon":"-71.50111218","type":"Private School","address":"800 Logee St","grades":["Middle","High"],"city":"Woonsocket","state":"RI","zip":"2895","phone":"(401) 769-0310","low":"6","high":"12","students":"505","cost":"Yes","url":"","review":"https:\/\/www.privateschoolreview.com\/mount-st-charles-academy-profile","virtual":"No"},{"title":"Mt. Hope Child Care Center","lat":"41.837712","lon":"-71.400193","type":"Private School","address":"421 Hope Street","grades":["Pre-K"],"city":"Providence","state":"RI","zip":"2906","phone":"(401) 521-7252","low":"NS","high":"PK","students":"58","cost":"Yes","url":"https:\/\/ymcagreaterprovidence.org\/","review":"https:\/\/www.privateschoolreview.com\/mt-hope-child-care-center-profile","virtual":"No"},{"title":"Mt. Hope High School","lat":"41.686974","lon":"-71.26947","type":"Traditional Public School","address":"199 Chestnut Street","grades":["High"],"city":"Bristol","state":"RI","zip":"2809","phone":"(401) 254-5980","low":"9","high":"12","students":"980","cost":"No","url":"https:\/\/www.bwrsd.org\/Domain\/8","review":"https:\/\/www.publicschoolreview.com\/mt-hope-high-school-profile","virtual":"No"},{"title":"Myron J. Francis Elementary School","lat":"41.842151","lon":"-71.360229","type":"Traditional Public School","address":"64 Bourne Avenue","grades":["Elementary"],"city":"Rumford","state":"RI","zip":"2916","phone":"(401) 435-7829","low":"K","high":"5","students":"373","cost":"No","url":"http:\/\/www.epschoolsri.com\/francis\/","review":"https:\/\/www.publicschoolreview.com\/myron-j-francis-elementary-school-profile","virtual":"No"},{"title":"Nafi Ri Network Alternatives","lat":"41.8438765","lon":"-71.3813813","type":"Private School","address":"350 Duncan Dr","grades":["Middle","High"],"city":"Providence","state":"RI","zip":"2906","phone":"(401) 453-4740","low":"8","high":"12","students":"28","cost":"Yes","url":"https:\/\/www.nafi.com\/","review":"https:\/\/www.privateschoolreview.com\/nafi-ri-network-alternatives-profile","virtual":"No"},{"title":"Narragansett Elementary School","lat":"41.437361","lon":"-71.472439","type":"Traditional Public School","address":"55 Mumford Road","grades":["Pre-K","Elementary"],"city":"Narragansett","state":"RI","zip":"2882","phone":"(401) 792-9420","low":"PK","high":"4","students":"387","cost":"No","url":"https:\/\/www.nes.nssk12.org\/","review":"https:\/\/www.publicschoolreview.com\/narragansett-elementary-school-profile\/02882","virtual":"No"},{"title":"Narragansett High School","lat":"41.427102","lon":"-71.471043","type":"Traditional Public School","address":"245 South Pier Road","grades":["High"],"city":"Narragansett","state":"RI","zip":"2882","phone":"(401) 792-9400","low":"9","high":"12","students":"494","cost":"No","url":"https:\/\/www.nhs.nssk12.org\/","review":"https:\/\/www.publicschoolreview.com\/narragansett-high-school-profile","virtual":"No"},{"title":"Narragansett Pier School","lat":"41.42686","lon":"-71.47043","type":"Traditional Public School","address":"235 South Pier Road","grades":["Elementary","Middle"],"city":"Narragansett","state":"RI","zip":"2882","phone":"(401) 792-9430","low":"5","high":"8","students":"328","cost":"No","url":"https:\/\/www.nps.nssk12.org\/","review":"https:\/\/www.publicschoolreview.com\/narragansett-pier-school-profile","virtual":"No"},{"title":"Nathan Bishop Middle School","lat":"41.841165","lon":"-71.394387","type":"Traditional Public School","address":"101 Sessions Street","grades":["Middle"],"city":"Providence","state":"RI","zip":"2906","phone":"(401) 456-9344","low":"6","high":"8","students":"646","cost":"No","url":"https:\/\/www.providenceschools.org\/bishop","review":"https:\/\/www.publicschoolreview.com\/nathan-bishop-middle-school-profile","virtual":"No"},{"title":"Nathanael Greene Middle School","lat":"41.833972","lon":"-71.431377","type":"Traditional Public School","address":"721 Chalkstone Avenue","grades":["Middle"],"city":"Providence","state":"RI","zip":"2908","phone":"(401) 456-9347","low":"6","high":"8","students":"943","cost":"No","url":"https:\/\/www.providenceschools.org\/Greene","review":"https:\/\/www.publicschoolreview.com\/nathanael-greene-middle-school-profile","virtual":"No"},{"title":"Nathanael Greene School","lat":"41.868027","lon":"-71.413065","type":"Traditional Public School","address":"285 Smithfield Ave Pawtucket ","grades":["Pre-K","Elementary"],"city":"Pawtucket","state":"RI","zip":"2861","phone":"(401) 729-6260","low":"PK","high":"5","students":"406","cost":"No","url":"http:\/\/pawtucket.greene.schooldesk.net\/","review":"https:\/\/www.publicschoolreview.com\/nathanael-greene-school-profile","virtual":"No"},{"title":"Nayatt School","lat":"41.728984","lon":"-71.306948","type":"Traditional Public School","address":"400 Nayatt Road","grades":["Elementary"],"city":"Barrington","state":"RI","zip":"2806","phone":"(401) 247-3175","low":"K","high":"3","students":"342","cost":"No","url":"https:\/\/www.nayattschool.org\/","review":"https:\/\/www.publicschoolreview.com\/nayatt-school-profile","virtual":"No"},{"title":"Nel\/Cps Construction Career","lat":"41.742174","lon":"-71.452902","type":"Public Charter School","address":"4 Sharpe Drive","grades":["High"],"city":"Cranston","state":"RI","zip":"2920","phone":"(401) 270-8692","low":"9","high":"12","students":"169","cost":"No","url":"https:\/\/www.nelscharterschool.net\/","review":"https:\/\/www.publicschoolreview.com\/nel-cps-construction-career-profile","virtual":"No"},{"title":"Newport Area Career Tech Center","lat":"41.467373","lon":"-71.322727","type":"Public Magnet School","address":"15 Wickham Rd","grades":["High"],"city":"Newport","state":"RI","zip":"2840","phone":"(401) 847-2100","low":"9","high":"12","students":"See website","cost":"No","url":"https:\/\/www.bhcs.org\/","review":"https:\/\/www.publicschoolreview.com\/newport-area-career-tech-center-profile","virtual":"No"},{"title":"Nfi\/Aco Inst","lat":"41.74742","lon":"-71.470029","type":"Private School","address":"735 New London Avenue","grades":["Elementary","Middle"],"city":"Cranston","state":"RI","zip":"2920","phone":"(401) 946-2020","low":"5","high":"8","students":"See website","cost":"Yes","url":"https:\/\/www.nafiri.org\/","review":"https:\/\/www.privateschoolreview.com\/nfi-aco-inst-profile","virtual":"No"},{"title":"Nicholas A. Ferri Middle School","lat":"41.826287","lon":"-71.507649","type":"Traditional Public School","address":"10 Memorial Avenue","grades":["Middle"],"city":"Johnston","state":"RI","zip":"2919","phone":"(401) 233-1930","low":"6","high":"8","students":"767","cost":"No","url":"https:\/\/fms.johnstonschools.org\/","review":"https:\/\/www.publicschoolreview.com\/nicholas-a-ferri-middle-school-profile","virtual":"No"},{"title":"North Cumberland Middle School","lat":"41.981121","lon":"-71.42494","type":"Traditional Public School","address":"400 Nate Whipple Highway","grades":["Middle"],"city":"Cumberland","state":"RI","zip":"2864","phone":"(401) 333-6306","low":"6","high":"8","students":"629","cost":"No","url":"http:\/\/www.cumberlandschools.org\/content\/north-cumberland-middle-school","review":"https:\/\/www.publicschoolreview.com\/north-cumberland-middle-school-profile","virtual":"No"},{"title":"North Kingstown Sr. High School","lat":"41.557101","lon":"-71.448709","type":"Traditional Public School","address":"150 Fairway Drive","grades":["High"],"city":"North Kingstown","state":"RI","zip":"2852","phone":"(401) 268-6236","low":"9","high":"12","students":"1480","cost":"No","url":"https:\/\/nkhs.nksd.net\/","review":"https:\/\/www.publicschoolreview.com\/north-kingstown-sr-high-school-profile","virtual":"No"},{"title":"North Providence High School","lat":"41.861896","lon":"-71.459608","type":"Traditional Public School","address":"1828 Mineral Spring Avenue","grades":["High"],"city":"Providence","state":"RI","zip":"2904","phone":"(401) 233-1150","low":"9","high":"12","students":"1107","cost":"No","url":"http:\/\/nprovschools.org\/","review":"https:\/\/www.publicschoolreview.com\/north-providence-high-school-profile","virtual":"No"},{"title":"North Scituate School","lat":"41.834025","lon":"-71.585548","type":"Traditional Public School","address":"46 Institute Lane","grades":["Elementary"],"city":"North Scituate","state":"RI","zip":"2857","phone":"(401) 647-4110","low":"K","high":"5","students":"213","cost":"No","url":"https:\/\/nses.scituateschoolsri.net\/","review":"https:\/\/www.publicschoolreview.com\/north-scituate-school-profile","virtual":"No"},{"title":"North Smitfield High School","lat":"41.954823","lon":"-71.545247","type":"Traditional Public School","address":"412 Greenville Road","grades":["High"],"city":"North Smithfield","state":"RI","zip":"2896","phone":"(401) 766-2500","low":"9","high":"12","students":"505","cost":"No","url":"https:\/\/nshs.nsps.us\/","review":"https:\/\/www.publicschoolreview.com\/north-smitfield-high-school-profile","virtual":"No"},{"title":"North Smithfield Elementary School","lat":"41.941337","lon":"-71.542319","type":"Traditional Public School","address":"2214 Providence Pike","grades":["Pre-K","Elementary"],"city":"North Smithfield","state":"RI","zip":"2896","phone":"(401) 765-2260","low":"PK","high":"4","students":"556","cost":"No","url":"https:\/\/nses.nsps.us\/","review":"https:\/\/www.publicschoolreview.com\/north-smithfield-elementary-school-profile","virtual":"No"},{"title":"North Smithfield Middleschool","lat":"41.952566","lon":"-71.54665","type":"Traditional Public School","address":"1850 Providence Pike","grades":["Elementary","Middle"],"city":"North Smithfield","state":"RI","zip":"2896","phone":"(401) 597-6100","low":"5","high":"8","students":"542","cost":"No","url":"https:\/\/nsms.nsps.us\/","review":"https:\/\/www.publicschoolreview.com\/north-smithfield-middleschool-profile","virtual":"No"},{"title":"Northern Lincoln Elementary School","lat":"41.963137","lon":"-71.467277","type":"Traditional Public School","address":"315 New River Road","grades":["Pre-K","Elementary"],"city":"Manville","state":"RI","zip":"2838","phone":"(401) 769-0261","low":"PK","high":"5","students":"499","cost":"No","url":"https:\/\/www.lincolnps.org\/Domain\/11","review":"https:\/\/www.publicschoolreview.com\/northern-lincoln-elementary-school-profile","virtual":"No"},{"title":"Norwood School","lat":"41.749182","lon":"-71.426508","type":"Traditional Public School","address":"266 Norwood Avenue","grades":["Elementary"],"city":"Warwick","state":"RI","zip":"2888","phone":"(401) 734-3525","low":"K","high":"5","students":"241","cost":"No","url":"https:\/\/norwood.warwickschools.org\/","review":"https:\/\/www.publicschoolreview.com\/norwood-school-profile\/02888","virtual":"No"},{"title":"Oak Lawn School","lat":"41.746332","lon":"-71.481629","type":"Traditional Public School","address":"36 Stoneham Street","grades":["Elementary"],"city":"Cranston","state":"RI","zip":"2920","phone":"(401) 270-8004","low":"K","high":"5","students":"257","cost":"No","url":"http:\/\/oaklawnschool.wix.com\/index","review":"https:\/\/www.publicschoolreview.com\/oak-lawn-school-profile","virtual":"No"},{"title":"Oakland Beach School","lat":"41.698655","lon":"-71.398855","type":"Traditional Public School","address":"383 Oakland Beach Avenue","grades":["Pre-K","Elementary"],"city":"Warwick","state":"RI","zip":"2889","phone":"(401) 734-3420","low":"PK","high":"5","students":"334","cost":"No","url":"","review":"https:\/\/www.publicschoolreview.com\/oakland-beach-school-profile","virtual":"No"},{"title":"Ocean State Montessori School","lat":"41.818197","lon":"-71.372513","type":"Private School","address":"100 Grove Avenue","grades":["Pre-K","Elementary","Middle"],"city":"East Providence","state":"RI","zip":"2914","phone":"(401) 434-6913","low":"PK","high":"6","students":"122","cost":"Yes","url":"https:\/\/www.oceanstatemontessori.org\/","review":"https:\/\/www.privateschoolreview.com\/ocean-state-montessori-school-profile","virtual":"No"},{"title":"Ocean Tides School","lat":"41.40104807","lon":"-71.46432596","type":"Private School","address":"635 Ocean Rd","grades":["High"],"city":"Narragansett","state":"RI","zip":"2882","phone":"(401) 789-1016","low":"9","high":"12","students":"30","cost":"Yes","url":"https:\/\/oceantides.org\/","review":"https:\/\/www.privateschoolreview.com\/ocean-tides-school-profile","virtual":"No"},{"title":"Old County Road School","lat":"41.881031","lon":"-71.509841","type":"Traditional Public School","address":"200 Old County Road","grades":["Elementary"],"city":"Smithfield","state":"RI","zip":"2917","phone":"(401) 231-6613","low":"K","high":"5","students":"214","cost":"No","url":"https:\/\/ocres.smithfield-ps.org\/","review":"https:\/\/www.publicschoolreview.com\/old-county-road-school-profile","virtual":"No"},{"title":"Orchard Farms El. School","lat":"41.77605","lon":"-71.527081","type":"Traditional Public School","address":"1555 Scituate Avenue","grades":["Elementary"],"city":"Cranston","state":"RI","zip":"2921","phone":"(401) 270-8801","low":"K","high":"5","students":"451","cost":"No","url":"https:\/\/accounts.google.com\/ServiceLogin?continue=https%3A%2F%2Fsites.google.com%2Fsite%2Forchardfarmselementaryschool%2F&followup=https%3A%2F%2Fsites.google.com%2Fsite%2Forchardfarmselementaryschool%2F&service=jotspot&passive=true&ul=1","review":"https:\/\/www.publicschoolreview.com\/orchard-farms-el-school-profile","virtual":"No"},{"title":"Orlo Avenue School","lat":"41.825279","lon":"-71.364129","type":"Traditional Public School","address":"25 Orlo Avenue","grades":["Elementary"],"city":"East Providence","state":"RI","zip":"2914","phone":"(401) 433-7836","low":"K","high":"5","students":"231","cost":"No","url":"https:\/\/epschoolsri.org\/eporlo\/","review":"https:\/\/www.publicschoolreview.com\/orlo-avenue-school-profile","virtual":"No"},{"title":"Our Lady Of Mercy Regional School","lat":"41.65463444","lon":"-71.45752167","type":"Private School","address":"55 4th Ave","grades":["Pre-K","Elementary","Middle"],"city":"East Greenwich","state":"RI","zip":"2818","phone":"(401) 884-1618","low":"PK","high":"8","students":"228","cost":"Yes","url":"https:\/\/olmschool.org\/","review":"","virtual":"No"},{"title":"Our Lady Of Mt Carmel","lat":"41.67115224","lon":"-71.27365861","type":"Private School","address":"127 State St","grades":["Pre-K","Elementary","Middle"],"city":"Bristol","state":"RI","zip":"2809","phone":"(401) 253-8455","low":"PK","high":"8","students":"120","cost":"Yes","url":"https:\/\/olmcri.org\/","review":"https:\/\/www.privateschoolreview.com\/our-lady-of-mt-carmel-profile\/02809","virtual":"No"},{"title":"Park School","lat":"41.693274","lon":"-71.418803","type":"Traditional Public School","address":"40 Asylum Road","grades":["Elementary"],"city":"Warwick","state":"RI","zip":"2886","phone":"(401) 734-3690","low":"K","high":"5","students":"199","cost":"No","url":"https:\/\/sites.google.com\/a\/warwickschools.org\/park-elementary\/","review":"https:\/\/www.publicschoolreview.com\/park-school-profile\/02886","virtual":"No"},{"title":"Park View Middle School","lat":"41.772344","lon":"-71.415431","type":"Traditional Public School","address":"25 Park View Boulevard","grades":["Middle"],"city":"Cranston","state":"RI","zip":"2910","phone":"(401) 270-8090","low":"6","high":"8","students":"720","cost":"No","url":"https:\/\/pview.cpsed.net\/","review":"https:\/\/www.publicschoolreview.com\/park-view-middle-school-profile\/02910","virtual":"No"},{"title":"Pathways Strategic Teaching Center","lat":"41.661625","lon":"-71.569491","type":"Private School","address":"75 Centre Of New England Blvd","grades":["Pre-K","Elementary","Middle","High"],"city":"Coventry","state":"RI","zip":"2816","phone":"(401) 615-2775","low":"PK","high":"12","students":"65","cost":"Yes","url":"https:\/\/trudeaucenter.org\/pathways-strategic-teaching-center\/","review":"https:\/\/www.privateschoolreview.com\/pathways-strategic-teaching-center-profile","virtual":"No"},{"title":"Paul Cuffee Lower School","lat":"41.829372","lon":"-71.4276","type":"Public Charter School","address":"459 Promenade Street","grades":["Elementary"],"city":"Providence","state":"RI","zip":"2908","phone":"(401) 453-2626","low":"K","high":"5","students":"361","cost":"No","url":"","review":"https:\/\/www.publicschoolreview.com\/paul-cuffee-lower-school-profile","virtual":"No"},{"title":"Paul Cuffee Middle School","lat":"41.817048","lon":"-71.436563","type":"Public Charter School","address":"30 Barton Street","grades":["Middle"],"city":"Providence","state":"RI","zip":"2909","phone":"(401) 453-2711","low":"6","high":"8","students":"192","cost":"No","url":"","review":"https:\/\/www.publicschoolreview.com\/paul-cuffee-middle-school-profile","virtual":"No"},{"title":"Paul Cuffee Upper School","lat":"41.797688","lon":"-71.425398","type":"Public Charter School","address":"544 Elmwood Avenue","grades":["High"],"city":"Providence","state":"RI","zip":"2907","phone":"(401) 781-2727","low":"9","high":"12","students":"268","cost":"No","url":"","review":"https:\/\/www.publicschoolreview.com\/paul-cuffee-upper-school-profile","virtual":"No"},{"title":"Pawtucket Day Child Development Center","lat":"41.8760398","lon":"-71.3973926","type":"Private School","address":"25 Thornley Street","grades":["Pre-K","Elementary"],"city":"Pawtucket","state":"RI","zip":"2860","phone":"(401) 722-7000","low":"PK","high":"4","students":"122","cost":"Yes","url":"https:\/\/www.drdaycare.com\/locations\/pawtucket-thornley-st\/","review":"https:\/\/www.privateschoolreview.com\/pawtucket-day-child-development-center-profile","virtual":"No"},{"title":"Peace Dale School","lat":"41.453004","lon":"-71.499538","type":"Traditional Public School","address":"109 Kersey Road","grades":["Elementary"],"city":"Wakefield","state":"RI","zip":"2879","phone":"(401) 360-1600","low":"K","high":"4","students":"384","cost":"No","url":"https:\/\/pd.skschools.net\/","review":"https:\/\/www.publicschoolreview.com\/peace-dale-school-profile","virtual":"No"},{"title":"Pilgrim High School","lat":"41.744954","lon":"-71.410284","type":"Traditional Public School","address":"111 Pilgrim Parkway","grades":["High"],"city":"Warwick","state":"RI","zip":"2888","phone":"(401) 734-3250","low":"9","high":"12","students":"1224","cost":"No","url":"https:\/\/sites.google.com\/a\/warwickschools.org\/pilgrim-high-school\/","review":"https:\/\/www.publicschoolreview.com\/pilgrim-high-school-profile","virtual":"No"},{"title":"Pleasant View School","lat":"41.835066","lon":"-71.45921","type":"Traditional Public School","address":"50 Obediah Brown Road","grades":["Pre-K","Elementary"],"city":"Providence","state":"RI","zip":"2909","phone":"(401) 456-9325","low":"PK","high":"5","students":"388","cost":"No","url":"https:\/\/pleasantviewschool.weebly.com\/","review":"https:\/\/www.publicschoolreview.com\/pleasant-view-school-profile","virtual":"No"},{"title":"Pocasset School","lat":"41.667125","lon":"-71.186701","type":"Traditional Public School","address":"242 Main Road","grades":["Pre-K","Elementary"],"city":"Tiverton","state":"RI","zip":"2878","phone":"(401) 624-6654","low":"PK","high":"4","students":"216","cost":"No","url":"https:\/\/pocasset.tivertonschools.org\/","review":"https:\/\/www.publicschoolreview.com\/pocasset-school-profile","virtual":"No"},{"title":"Ponaganset High School","lat":"41.862888","lon":"-71.712153","type":"Traditional Public School","address":"137 Anan Wade Road","grades":["High"],"city":"North Scituate","state":"RI","zip":"2857","phone":"(401) 710-7500","low":"9","high":"12","students":"935","cost":"No","url":"https:\/\/fosterponaganseths.ss11.sharpschool.com\/","review":"https:\/\/www.publicschoolreview.com\/ponaganset-high-school-profile","virtual":"No"},{"title":"Ponaganset Middle School","lat":"41.870397","lon":"-71.689281","type":"Traditional Public School","address":"7 Rustic Hill Road","grades":["Middle"],"city":"North Scituate","state":"RI","zip":"2857","phone":"(401) 710-7500","low":"6","high":"8","students":"445","cost":"No","url":"https:\/\/fosterponagansetms.ss11.sharpschool.com\/","review":"https:\/\/www.publicschoolreview.com\/ponaganset-middle-school-profile","virtual":"No"},{"title":"Portsmouth Abbey School","lat":"41.59852222","lon":"-71.27111667","type":"Private School","address":"285 Corys Ln","grades":["High"],"city":"Portsmouth","state":"RI","zip":"2871","phone":"(401) 643-1248","low":"9","high":"12","students":"337","cost":"Yes","url":"https:\/\/www.portsmouthabbey.org\/","review":"https:\/\/www.privateschoolreview.com\/portsmouth-abbey-school-profile","virtual":"No"},{"title":"Portsmouth High School","lat":"41.612642","lon":"-71.250034","type":"Traditional Public School","address":"120 Education Lane","grades":["High"],"city":"Portsmouth","state":"RI","zip":"2871","phone":"(401) 683-2124","low":"9","high":"12","students":"861","cost":"No","url":"","review":"https:\/\/www.publicschoolreview.com\/portsmouth-high-school-profile\/02871","virtual":"No"},{"title":"Portsmouth Middle School","lat":"41.555818","lon":"-71.283826","type":"Traditional Public School","address":"125 Jepson Lane","grades":["Elementary","Middle"],"city":"Portsmouth","state":"RI","zip":"2871","phone":"(401) 849-3700","low":"5","high":"8","students":"650","cost":"No","url":"","review":"https:\/\/www.publicschoolreview.com\/portsmouth-middle-school-profile\/02871","virtual":"No"},{"title":"Pothier - Citizens Elementary Campus","lat":"42.011669","lon":"-71.493348","type":"Traditional Public School","address":"250 Winthrop Street","grades":[],"city":"Woonsocket","state":"RI","zip":"2895","phone":"(401) 767-4850","low":"N","high":"N","students":"752","cost":"No","url":"","review":"https:\/\/www.publicschoolreview.com\/pothier-citizens-elementary-campus-profile","virtual":"No"},{"title":"Potter - Burns School","lat":"41.881826","lon":"-71.354196","type":"Traditional Public School","address":"973 Newport Avenue","grades":["Elementary"],"city":"Pawtucket","state":"RI","zip":"2861","phone":"(401) 729-6250","low":"K","high":"5","students":"446","cost":"No","url":"http:\/\/pawtucket.burns.schooldesk.net\/","review":"https:\/\/www.publicschoolreview.com\/potter-burns-school-profile","virtual":"No"},{"title":"Precious Angels Child Care Center","lat":"41.75528987","lon":"-71.43400703","type":"Private School","address":"20 Jefferson Park Road","grades":["Elementary"],"city":"Warwick","state":"RI","zip":"2888","phone":"(401) 780-8885","low":"K","high":"K","students":"52","cost":"Yes","url":"http:\/\/precious-angels.com\/","review":"https:\/\/www.privateschoolreview.com\/precious-angels-child-care-center-profile","virtual":"No"},{"title":"Primrose Hill School","lat":"41.764651","lon":"-71.331568","type":"Traditional Public School","address":"60 Middle Highway","grades":["Pre-K","Elementary"],"city":"Barrington","state":"RI","zip":"2806","phone":"(401) 247-3170","low":"PK","high":"3","students":"336","cost":"No","url":"https:\/\/www.primrosehillschool.org\/","review":"https:\/\/www.publicschoolreview.com\/primrose-hill-school-profile","virtual":"No"},{"title":"Progressive Learning For Children","lat":"41.70146962","lon":"-71.47097642","type":"Private School","address":"189 Toll Gate Rd","grades":["Pre-K","Elementary"],"city":"Warwick","state":"RI","zip":"2886","phone":"(401) 737-0920","low":"PK","high":"K","students":"49","cost":"Yes","url":"http:\/\/progressivelearningri.com\/","review":"https:\/\/www.privateschoolreview.com\/progressive-learning-for-children-profile","virtual":"No"},{"title":"Providence Career Technical","lat":"41.815497","lon":"-71.420881","type":"Public Magnet School","address":"41 Fricker Street","grades":["High"],"city":"Providence","state":"RI","zip":"2903","phone":"(401) 456-9136","low":"9","high":"12","students":"671","cost":"No","url":"https:\/\/www.providenceschools.org\/pcta","review":"https:\/\/www.publicschoolreview.com\/providence-career-technical-profile","virtual":"No"},{"title":"Providence Country Day School","lat":"41.81569922","lon":"-71.35529806","type":"Private School","address":"660 Waterman Ave","grades":["Pre-K","Elementary","Middle","High"],"city":"East Providence","state":"RI","zip":"2914","phone":"(401) 438-5170","low":"PK","high":"12","students":"332","cost":"Yes","url":"https:\/\/www.providencecountryday.org\/","review":"https:\/\/www.privateschoolreview.com\/providence-country-day-school-profile","virtual":"No"},{"title":"Providence Hebrew Day School","lat":"41.8438","lon":"-71.3924125","type":"Private School","address":"450 Elmgrove Ave","grades":["Pre-K","Elementary","Middle","High"],"city":"Providence","state":"RI","zip":"2906","phone":"(401) 331-5327","low":"PK","high":"12","students":"160","cost":"Yes","url":"https:\/\/www.phdschool.org","review":"https:\/\/www.privateschoolreview.com\/providence-hebrew-day-school-profile","virtual":"No"},{"title":"Pumpkin Patch Early Learning Center","lat":"41.782429","lon":"-71.515178","type":"Private School","address":"220 Comstock Pkwy","grades":["Pre-K","Elementary"],"city":"Cranston","state":"RI","zip":"2921","phone":"(401) 946-6700","low":"PK","high":"K","students":"62","cost":"Yes","url":"https:\/\/www.pumpkinpatchelc.com\/home\/","review":"","virtual":"No"},{"title":"Quest Montessori School","lat":"41.4887764","lon":"-71.4376521","type":"Private School","address":"1150 Boston Neck Road","grades":["Pre-K","Elementary","Middle"],"city":"Narragansett","state":"RI","zip":"2882","phone":"(401) 783-3222","low":"NS","high":"8","students":"109","cost":"Yes","url":"https:\/\/www.QuestSchool.org\/","review":"https:\/\/www.privateschoolreview.com\/quest-montessori-school-profile","virtual":"No"},{"title":"R.I. School For The Deaf","lat":"41.848378","lon":"-71.427662","type":"Traditional Public School","address":"One Corliss Park","grades":["Pre-K","Elementary","Middle","High"],"city":"Providence","state":"RI","zip":"2908","phone":"(401) 222-3525","low":"PK","high":"12","students":"79","cost":"No","url":"https:\/\/rideaf.ri.gov\/","review":"https:\/\/www.publicschoolreview.com\/r-i-school-for-the-deaf-profile","virtual":"No"},{"title":"Raices Dual Language Academy","lat":"41.89676","lon":"-71.389301","type":"Traditional Public School","address":"135 Hunt Street","grades":["Pre-K","Elementary","Middle"],"city":"Central Falls","state":"RI","zip":"2863","phone":"(401) 727-7733","low":"PK","high":"6","students":"244","cost":"No","url":"","review":"https:\/\/www.publicschoolreview.com\/raices-dual-language-academy-profile","virtual":"No"},{"title":"Ranger School","lat":"41.617835","lon":"-71.165173","type":"Traditional Public School","address":"278 North Brayton Road","grades":["Pre-K","Elementary"],"city":"Tiverton","state":"RI","zip":"2878","phone":"(401) 624-8467","low":"PK","high":"4","students":"234","cost":"No","url":"https:\/\/ranger.tivertonschools.org\/","review":"https:\/\/www.publicschoolreview.com\/ranger-school-profile","virtual":"No"},{"title":"Raymond Laperche School","lat":"41.898876","lon":"-71.505673","type":"Traditional Public School","address":"11 Limerock Road","grades":["Elementary"],"city":"Smithfield","state":"RI","zip":"2917","phone":"(401) 231-6652","low":"K","high":"5","students":"259","cost":"No","url":"https:\/\/rles.smithfield-ps.org\/","review":"https:\/\/www.publicschoolreview.com\/raymond-laperche-school-profile","virtual":"No"},{"title":"Red Brick Nursery School","lat":"41.75603784","lon":"-71.3308","type":"Private School","address":"50 Middle Hwy","grades":["Pre-K","Elementary"],"city":"Barrington","state":"RI","zip":"2806","phone":"(401) 246-2342","low":"PK","high":"K","students":"85","cost":"Yes","url":"http:\/\/www.redbrickschoolri.org\/","review":"https:\/\/www.privateschoolreview.com\/red-brick-nursery-school-profile","virtual":"No"},{"title":"Reservoir Avenue School","lat":"41.791861","lon":"-71.428027","type":"Traditional Public School","address":"156 Reservoir Avenue","grades":["Elementary"],"city":"Providence","state":"RI","zip":"2907","phone":"(401) 456-9406","low":"K","high":"5","students":"264","cost":"No","url":"https:\/\/www.providenceschools.org\/reservoir","review":"https:\/\/www.publicschoolreview.com\/reservoir-avenue-school-profile","virtual":"No"},{"title":"Richmond Elementary School","lat":"41.501796","lon":"-71.668738","type":"Traditional Public School","address":"190 Kingstown Road","grades":["Elementary"],"city":"Wyoming","state":"RI","zip":"2898","phone":"(401) 539-2441","low":"K","high":"4","students":"387","cost":"No","url":"https:\/\/www.chariho.k12.ri.us\/ric","review":"https:\/\/www.publicschoolreview.com\/richmond-elementary-school-profile\/02898","virtual":"No"},{"title":"Rini Middle College","lat":"41.822549","lon":"-71.415161","type":"Public Charter School","address":"150 Washington Street","grades":["High"],"city":"Providence","state":"RI","zip":"2903","phone":"(401) 680-4900","low":"9","high":"12","students":"278","cost":"No","url":"https:\/\/rinimc.org\/","review":"https:\/\/www.publicschoolreview.com\/rini-middle-college-profile","virtual":"No"},{"title":"Rise Prep Mayoral Academy Ele","lat":"42.005742","lon":"-71.512015","type":"Public Charter School","address":"30 Cumberland Street","grades":["Elementary"],"city":"Woonsocket","state":"RI","zip":"2895","phone":"(401) 765-5127","low":"K","high":"4","students":"283","cost":"No","url":"","review":"https:\/\/www.publicschoolreview.com\/rise-prep-mayoral-academy-ele-profile","virtual":"No"},{"title":"Rise Prep Mayoral Academy Middle School","lat":"42.008862","lon":"-71.503058","type":"Public Charter School","address":"30 Cumberland Street","grades":["Elementary"],"city":"Woonsocket","state":"RI","zip":"2895","phone":"(401) 765-5127","low":"5","high":"5","students":"51","cost":"No","url":"","review":"https:\/\/www.publicschoolreview.com\/rise-prep-mayoral-academy-middle-school-profile","virtual":"No"},{"title":"Riverside Middle School","lat":"41.779431","lon":"-71.351071","type":"Traditional Public School","address":"179 Forbes Street","grades":["Middle"],"city":"Riverside","state":"RI","zip":"2915","phone":"(401) 433-6230","low":"6","high":"8","students":"543","cost":"No","url":"https:\/\/epschoolsri.org\/riverside-middle-school\/","review":"https:\/\/www.publicschoolreview.com\/riverside-middle-school-profile\/02915","virtual":"No"},{"title":"Robert F. Kennedy El. School","lat":"41.842832","lon":"-71.444233","type":"Traditional Public School","address":"195 Nelson Street","grades":["Elementary"],"city":"Providence","state":"RI","zip":"2908","phone":"(401) 456-9403","low":"K","high":"5","students":"433","cost":"No","url":"https:\/\/www.providenceschools.org\/Kennedy","review":"https:\/\/www.publicschoolreview.com\/robert-f-kennedy-el-school-profile","virtual":"No"},{"title":"Robert L. Bailey Iv","lat":"41.803679","lon":"-71.415786","type":"Traditional Public School","address":"65 Gordon Avenue","grades":["Elementary"],"city":"Providence","state":"RI","zip":"2905","phone":"(401) 456-1735","low":"K","high":"5","students":"390","cost":"No","url":"https:\/\/www.providenceschools.org\/bailey","review":"https:\/\/www.publicschoolreview.com\/robert-l-bailey-iv-profile","virtual":"No"},{"title":"Robertson School","lat":"41.696919","lon":"-71.439876","type":"Traditional Public School","address":"70 Nausauket Road","grades":["Elementary"],"city":"Warwick","state":"RI","zip":"2886","phone":"(401) 734-3470","low":"K","high":"5","students":"277","cost":"No","url":"","review":"https:\/\/www.publicschoolreview.com\/robertson-school-profile\/02886","virtual":"No"},{"title":"Rockwell School","lat":"41.698621","lon":"-71.27971","type":"Traditional Public School","address":"1225 Hope Street","grades":["Elementary"],"city":"Bristol","state":"RI","zip":"2809","phone":"(401) 254-5930","low":"K","high":"5","students":"255","cost":"No","url":"https:\/\/www.bwrsd.org\/Domain\/13","review":"https:\/\/www.publicschoolreview.com\/rockwell-school-profile","virtual":"No"},{"title":"Rocky Hill School","lat":"41.6584","lon":"-71.427795","type":"Private School","address":"530 Ives Road","grades":["Pre-K","Elementary","Middle","High"],"city":"East Greenwich","state":"RI","zip":"2818","phone":"(401) 884-9070","low":"NS","high":"12","students":"312","cost":"Yes","url":"https:\/\/www.rockyhill.org\/","review":"https:\/\/www.privateschoolreview.com\/rocky-hill-school-profile","virtual":"No"},{"title":"Roger Williams Middle School","lat":"41.798905","lon":"-71.411047","type":"Traditional Public School","address":"278 Thurbers Avenue","grades":["Middle"],"city":"Providence","state":"RI","zip":"2905","phone":"(401) 456-9355","low":"6","high":"8","students":"757","cost":"No","url":"https:\/\/www.providenceschools.org\/rogerwilliams","review":"https:\/\/www.publicschoolreview.com\/roger-williams-middle-school-profile","virtual":"No"},{"title":"Rogers High School","lat":"41.467373","lon":"-71.322727","type":"Traditional Public School","address":"15 Wickham Road","grades":["High"],"city":"Newport","state":"RI","zip":"2840","phone":"(401) 847-6235","low":"9","high":"12","students":"645","cost":"No","url":"https:\/\/www.npsri.net\/Domain\/8","review":"https:\/\/www.publicschoolreview.com\/rogers-high-school-profile\/02840","virtual":"No"},{"title":"Sacred Heart School","lat":"41.8184538","lon":"-71.37793784","type":"Private School","address":"56 Purchase St","grades":["Elementary","Middle"],"city":"East Providence","state":"RI","zip":"2914","phone":"(401) 434-1080","low":"K","high":"8","students":"127","cost":"Yes","url":"https:\/\/www.sacredheartepri.com\/","review":"https:\/\/www.privateschoolreview.com\/sacred-heart-school-profile\/02914","virtual":"No"},{"title":"Samuel Slater Middle School","lat":"41.874042","lon":"-71.400651","type":"Traditional Public School","address":"281 Mineral Spring Avenue","grades":["Middle"],"city":"Pawtucket","state":"RI","zip":"2860","phone":"(401) 729-6480","low":"6","high":"8","students":"774","cost":"No","url":"http:\/\/pawtucket.slater.schooldesk.net\/","review":"https:\/\/www.publicschoolreview.com\/samuel-slater-middle-school-profile","virtual":"No"},{"title":"Sarah Dyer Barnes School","lat":"41.836197","lon":"-71.485854","type":"Traditional Public School","address":"24 Barnes Avenue","grades":["Elementary"],"city":"Johnston","state":"RI","zip":"2919","phone":"(401) 231-8710","low":"K","high":"5","students":"282","cost":"No","url":"https:\/\/prek-5.johnstonschools.org\/cms\/One.aspx?portalId=19680572&pageId=19680580","review":"https:\/\/www.publicschoolreview.com\/sarah-dyer-barnes-school-profile","virtual":"No"},{"title":"Sargent Rehabilitation Center","lat":"41.674292","lon":"-71.498036","type":"Private School","address":"800 Quaker Ln","grades":["Pre-K","Elementary","Middle","High"],"city":"East Greenwich","state":"RI","zip":"2818","phone":"(401) 886-6653","low":"PK","high":"12","students":"47","cost":"Yes","url":"https:\/\/www.sargentcenter.org\/","review":"","virtual":"No"},{"title":"Saylesville Elementary School","lat":"41.893665","lon":"-71.413787","type":"Traditional Public School","address":"50 Woodland Street","grades":["Elementary"],"city":"Lincoln","state":"RI","zip":"2865","phone":"(401) 723-5240","low":"K","high":"5","students":"291","cost":"No","url":"https:\/\/www.lincolnps.org\/Domain\/10","review":"https:\/\/www.publicschoolreview.com\/saylesville-elementary-school-profile","virtual":"No"},{"title":"School One","lat":"41.8345933","lon":"-71.38533349","type":"Private School","address":"220 University Avenue","grades":["High"],"city":"Providence","state":"RI","zip":"2906","phone":"(401) 331-2497","low":"9","high":"12","students":"88","cost":"Yes","url":"https:\/\/school-one.org\/","review":"https:\/\/www.privateschoolreview.com\/school-one-profile","virtual":"No"},{"title":"Scituate High School","lat":"41.824557","lon":"-71.622413","type":"Traditional Public School","address":"94 Trimtown Road","grades":["High"],"city":"North Scituate","state":"RI","zip":"2857","phone":"(401) 647-4120","low":"9","high":"12","students":"395","cost":"No","url":"https:\/\/hs.scituateschoolsri.net\/","review":"https:\/\/www.publicschoolreview.com\/scituate-high-school-profile\/02857","virtual":"No"},{"title":"Scituate Middle School","lat":"41.824557","lon":"-71.622413","type":"Traditional Public School","address":"94 Trimtown Road","grades":["Middle"],"city":"North Scituate","state":"RI","zip":"2857","phone":"(401) 647-4123","low":"6","high":"8","students":"292","cost":"No","url":"https:\/\/ms.scituateschoolsri.net\/","review":"https:\/\/www.publicschoolreview.com\/scituate-middle-school-profile","virtual":"No"},{"title":"Scott School","lat":"41.696854","lon":"-71.490142","type":"Traditional Public School","address":"833 Centerville Road","grades":["Elementary"],"city":"Warwick","state":"RI","zip":"2886","phone":"(401) 734-3585","low":"K","high":"5","students":"240","cost":"No","url":"","review":"https:\/\/www.publicschoolreview.com\/scott-school-profile\/02886","virtual":"No"},{"title":"Segue Inst For Learning","lat":"41.887844","lon":"-71.396909","type":"Public Charter School","address":"325 Cowden Street","grades":["Elementary","Middle"],"city":"Central Falls","state":"RI","zip":"2863","phone":"(401) 721-0964","low":"3","high":"8","students":"232","cost":"No","url":"http:\/\/www.segueifl.org\/","review":"https:\/\/www.publicschoolreview.com\/segue-inst-for-learning-profile","virtual":"No"},{"title":"Sheila Skip Nowell","lat":"41.8192","lon":"-71.4437","type":"Public Charter School","address":"150 Washington Street","grades":["High"],"city":"Providence","state":"RI","zip":"2903","phone":"(401) 751-0405","low":"9","high":"12","students":"177","cost":"No","url":"https:\/\/www.nowellacademy.org\/","review":"https:\/\/www.publicschoolreview.com\/sheila-skip-nowell-profile","virtual":"No"},{"title":"Sherman School","lat":"41.718928","lon":"-71.396558","type":"Traditional Public School","address":"120 Killey Avenue","grades":["Elementary"],"city":"Warwick","state":"RI","zip":"2889","phone":"(401) 734-3565","low":"K","high":"5","students":"320","cost":"No","url":"","review":"https:\/\/www.publicschoolreview.com\/sherman-school-profile\/02889","virtual":"No"},{"title":"Silveira Kindergarten & Nursery School","lat":"41.5195575","lon":"-71.2503","type":"Private School","address":"143 Peckham Ln","grades":["Pre-K","Elementary"],"city":"Middletown","state":"RI","zip":"2842","phone":"(401) 846-9251","low":"PK","high":"K","students":"88","cost":"Yes","url":"https:\/\/silveiraschool.com\/","review":"https:\/\/www.privateschoolreview.com\/silveira-kindergarten-nursery-school-profile","virtual":"No"},{"title":"Silver Spring School","lat":"41.797807","lon":"-71.369503","type":"Traditional Public School","address":"120 Silver Spring Avenue","grades":["Elementary"],"city":"East Providence","state":"RI","zip":"2914","phone":"(401) 435-7836","low":"K","high":"5","students":"234","cost":"No","url":"https:\/\/epschoolsri.org\/eporlo\/","review":"https:\/\/www.publicschoolreview.com\/silver-spring-school-profile","virtual":"No"},{"title":"Smith Hill Early Childhood Lea","lat":"41.8362974","lon":"-71.4263017","type":"Private School","address":"25 Danforth St","grades":["Pre-K","Elementary"],"city":"Providence","state":"RI","zip":"2908","phone":"(401) 455-3890","low":"PK","high":"K","students":"81","cost":"Yes","url":"https:\/\/www.capcitycommunitycenter.org\/our-programs\/smith-hill-early-childhood-learning-center","review":"https:\/\/www.privateschoolreview.com\/smith-hill-early-childhood-lea-profile","virtual":"No"},{"title":"Smithfield Ave Nursery School & Kindergarten","lat":"41.876575","lon":"-71.41491875","type":"Private School","address":"514 Smithfield Ave","grades":["Pre-K","Elementary"],"city":"Pawtucket","state":"RI","zip":"2860","phone":"(401) 728-4470","low":"PK","high":"K","students":"36","cost":"Yes","url":"","review":"https:\/\/www.privateschoolreview.com\/smithfield-ave-nursery-school-kindergarten-profile","virtual":"No"},{"title":"Smithfield High School","lat":"41.879426","lon":"-71.541333","type":"Traditional Public School","address":"90 Pleasant View Avenue","grades":["High"],"city":"Smithfield","state":"RI","zip":"2917","phone":"(401) 949-2050","low":"9","high":"12","students":"736","cost":"No","url":"https:\/\/sentinel.smithfield-ps.org\/","review":"https:\/\/www.publicschoolreview.com\/smithfield-high-school-profile","virtual":"No"},{"title":"Sophia Academy","lat":"41.796498","lon":"-71.4251746","type":"Private School","address":"582 Elmwood Avenue","grades":["Elementary","Middle"],"city":"Providence","state":"RI","zip":"2907","phone":"(401) 784-0021","low":"5","high":"8","students":"62","cost":"Yes","url":"https:\/\/www.sophia-academy.org\/","review":"https:\/\/www.privateschoolreview.com\/sophia-academy-profile\/02907","virtual":"No"},{"title":"South County Montessori School","lat":"41.54289795","lon":"-71.46832437","type":"Private School","address":"1239 Tower Hill Rd","grades":["Pre-K","Elementary"],"city":"North Kingstown","state":"RI","zip":"2852","phone":"(401) 294-3575","low":"PK","high":"3","students":"104","cost":"Yes","url":"https:\/\/www.southcountymontessori.org\/","review":"https:\/\/www.privateschoolreview.com\/south-county-montessori-school-profile","virtual":"No"},{"title":"South Kingstown High School","lat":"41.44579","lon":"-71.496128","type":"Traditional Public School","address":"215 Columbia Street","grades":["High"],"city":"Wakefield","state":"RI","zip":"2879","phone":"(401) 360-1000","low":"9","high":"12","students":"931","cost":"No","url":"https:\/\/hs.skschools.net\/","review":"https:\/\/www.publicschoolreview.com\/south-kingstown-high-school-profile","virtual":"No"},{"title":"Southside Elementary Charter","lat":"41.811157","lon":"-71.4164288","type":"Public Charter School","address":"135 Prairie Ave","grades":["Elementary"],"city":"Providence","state":"RI","zip":"2905","phone":"(401) 270-9007","low":"K","high":"5","students":"140","cost":"No","url":"","review":"https:\/\/www.publicschoolreview.com\/southside-elementary-charter-profile","virtual":"No"},{"title":"Sowams Elementary School","lat":"41.757971","lon":"-71.293443","type":"Traditional Public School","address":"364 Sowams Road","grades":["Elementary"],"city":"Barrington","state":"RI","zip":"2806","phone":"(401) 247-3180","low":"K","high":"3","students":"251","cost":"No","url":"https:\/\/www.sowamsschool.org\/","review":"https:\/\/www.publicschoolreview.com\/sowams-elementary-school-profile","virtual":"No"},{"title":"Springbrook Elementary School","lat":"41.401786","lon":"-71.83382","type":"Traditional Public School","address":"39 Springbrook Road","grades":["Elementary"],"city":"Westerly","state":"RI","zip":"2891","phone":"(401) 348-2296","low":"K","high":"4","students":"248","cost":"No","url":"https:\/\/www.westerly.k12.ri.us\/Domain\/424","review":"https:\/\/www.publicschoolreview.com\/springbrook-elementary-school-profile\/02891","virtual":"No"},{"title":"St. Andrew's School","lat":"41.749","lon":"-71.3192","type":"Private School","address":"63 Federal Rd","grades":["Middle","High"],"city":"Barrington","state":"RI","zip":"2806","phone":"(401) 246-1230","low":"6","high":"12","students":"228","cost":"Yes","url":"https:\/\/www.standrews-ri.org\/page","review":"","virtual":"No"},{"title":"St. Augustine School","lat":"41.84395","lon":"-71.4533","type":"Private School","address":"635 Mount Pleasant Ave","grades":["Pre-K","Elementary","Middle"],"city":"Providence","state":"RI","zip":"2908","phone":"(401) 831-1213","low":"PK","high":"8","students":"250","cost":"Yes","url":"https:\/\/www.staugustinesri.com\/","review":"https:\/\/www.privateschoolreview.com\/st-augustine-school-profile\/02908","virtual":"No"},{"title":"St. Cecilia School","lat":"41.88840294","lon":"-71.3541","type":"Private School","address":"755 Central Ave","grades":["Pre-K","Elementary","Middle"],"city":"Pawtucket","state":"RI","zip":"2861","phone":"(401) 723-9463","low":"PK","high":"8","students":"223","cost":"Yes","url":"https:\/\/www.scsri.org\/","review":"https:\/\/www.privateschoolreview.com\/st-cecilia-school-profile\/02861","virtual":"No"},{"title":"St. George's School","lat":"41.4901024","lon":"-71.3128285","type":"Private School","address":"372 Purgatory Road","grades":["High"],"city":"Middletown","state":"RI","zip":"2842","phone":"(401) 842-6600","low":"9","high":"12","students":"380","cost":"Yes","url":"https:\/\/www.stgeorges.edu\/index.cfm","review":"https:\/\/www.privateschoolreview.com\/st-george-s-school-profile","virtual":"No"},{"title":"St. Joseph School","lat":"41.72513773","lon":"-71.49269604","type":"Private School","address":"850 Wakefield St","grades":["Pre-K","Elementary","Middle"],"city":"West Warwick","state":"RI","zip":"2893","phone":"(401) 821-3450","low":"PK","high":"8","students":"227","cost":"Yes","url":"http:\/\/www.sjsww.org\/","review":"","virtual":"No"},{"title":"St. Kevin School","lat":"41.71231328","lon":"-71.39177564","type":"Private School","address":"39 Cathedral Rd","grades":["Pre-K","Elementary","Middle"],"city":"Warwick","state":"RI","zip":"2889","phone":"(401) 737-7172","low":"PK","high":"8","students":"267","cost":"Yes","url":"https:\/\/www.saintkevinschool.org\/","review":"https:\/\/www.privateschoolreview.com\/st-kevin-school-profile\/02889","virtual":"No"},{"title":"St. Luke's","lat":"41.750827","lon":"-71.339441","type":"Private School","address":"10 Waldron Ave.","grades":["Pre-K","Elementary","Middle"],"city":"Barrington","state":"RI","zip":"2806","phone":"(401) 246-0990","low":"PK","high":"8","students":"161","cost":"Yes","url":"https:\/\/www.stlukesri.org\/site\/default.aspx?PageID=1","review":"https:\/\/www.privateschoolreview.com\/st-luke-s-profile","virtual":"No"},{"title":"St. Margaret School","lat":"41.845","lon":"-71.351","type":"Private School","address":"42 Bishop Ave","grades":["Pre-K","Elementary","Middle"],"city":"Rumford","state":"RI","zip":"2916","phone":"(401) 434-2338","low":"PK","high":"8","students":"190","cost":"Yes","url":"https:\/\/www.stmargaretsch.org\/","review":"https:\/\/www.privateschoolreview.com\/st-margaret-school-profile\/02916","virtual":"No"},{"title":"St. Mary Academy \u00d1 Bay View","lat":"41.79060698","lon":"-71.36523566","type":"Private School","address":"3070 Pawtucket Avenue","grades":["Pre-K","Elementary","Middle","High"],"city":"Riverside","state":"RI","zip":"2915","phone":"(401) 434-0113","low":"NS","high":"12","students":"432","cost":"Yes","url":"https:\/\/www.bayviewacademy.org\/","review":"https:\/\/www.privateschoolreview.com\/st-mary-academy-bay-view-profile","virtual":"No"},{"title":"St. Mary Elementary School","lat":"41.78923825","lon":"-71.46506474","type":"Private School","address":"85 Chester Avenue","grades":["Pre-K","Elementary","Middle"],"city":"Cranston","state":"RI","zip":"2920","phone":"(401) 944-4107","low":"PK","high":"8","students":"188","cost":"Yes","url":"http:\/\/stmaryschoolri.org\/","review":"https:\/\/www.privateschoolreview.com\/st-mary-elementary-school-profile\/02920","virtual":"No"},{"title":"St. Michaels Country Day School","lat":"41.48547557","lon":"-71.30165324","type":"Private School","address":"180 Rhode Island Ave","grades":["Pre-K","Elementary","Middle"],"city":"Newport","state":"RI","zip":"2840","phone":"(401) 849-5970","low":"PK","high":"8","students":"207","cost":"Yes","url":"https:\/\/smcds.org\/","review":"https:\/\/www.privateschoolreview.com\/st-michaels-country-day-school-profile","virtual":"No"},{"title":"St. Patrick Academy","lat":"41.83302857","lon":"-71.42008571","type":"Private School","address":"244 Smith Street","grades":["High"],"city":"Providence","state":"RI","zip":"2908","phone":"(401) 421-9300","low":"9","high":"12","students":"102","cost":"Yes","url":"https:\/\/www.stpatsri.org\/","review":"https:\/\/www.privateschoolreview.com\/st-patrick-academy-profile","virtual":"No"},{"title":"St. Paul School","lat":"41.776855","lon":"-71.399825","type":"Private School","address":"1789 Broad St","grades":["Pre-K","Elementary","Middle"],"city":"Providence","state":"RI","zip":"2905","phone":"(401) 941-2030","low":"PK","high":"8","students":"163","cost":"Yes","url":"https:\/\/www.saintpaulschoolcranston.org\/","review":"https:\/\/www.privateschoolreview.com\/st-paul-school-profile\/02905","virtual":"No"},{"title":"St. Peter School","lat":"41.7543918","lon":"-71.3925437","type":"Private School","address":"120 Mayfair Road","grades":["Pre-K","Elementary","Middle"],"city":"Warwick","state":"RI","zip":"2888","phone":"(401) 781-9242","low":"PK","high":"8","students":"213","cost":"Yes","url":"http:\/\/www.stpeterschoolri.com","review":"https:\/\/www.privateschoolreview.com\/st-peter-school-profile\/02888","virtual":"No"},{"title":"St. Philip School","lat":"41.8711","lon":"-71.55137436","type":"Private School","address":"618 Putnam Pike","grades":["Pre-K","Elementary","Middle"],"city":"Greenville","state":"RI","zip":"2828","phone":"(401) 949-1130","low":"NS","high":"8","students":"204","cost":"Yes","url":"https:\/\/stphilipschool.com\/","review":"https:\/\/www.privateschoolreview.com\/st-philip-school-profile\/02828","virtual":"No"},{"title":"St. Pius V School","lat":"41.840886","lon":"-71.436532","type":"Private School","address":"49 Elmhurst Avenue","grades":["Pre-K","Elementary","Middle"],"city":"Providence","state":"RI","zip":"2908","phone":"(401) 421-9750","low":"NS","high":"8","students":"234","cost":"Yes","url":"https:\/\/www.spvri.org\/","review":"https:\/\/www.privateschoolreview.com\/st-pius-v-school-profile\/02908","virtual":"No"},{"title":"St. Pius X Elementary School","lat":"41.3733","lon":"-71.8289","type":"Private School","address":"32 Elm St","grades":["Pre-K","Elementary","Middle"],"city":"Westerly","state":"RI","zip":"2891","phone":"(401) 596-5735","low":"PK","high":"8","students":"175","cost":"Yes","url":"https:\/\/saintpiuswesterly.org\/","review":"https:\/\/www.privateschoolreview.com\/st-pius-x-elementary-school-profile\/02891","virtual":"No"},{"title":"St. Raphael Academy","lat":"41.87700388","lon":"-71.37606078","type":"Private School","address":"123 Walcott St","grades":["High"],"city":"Pawtucket","state":"RI","zip":"2860","phone":"(401) 723-8100","low":"9","high":"12","students":"509","cost":"Yes","url":"https:\/\/www.saintrays.org\/","review":"https:\/\/www.privateschoolreview.com\/st-raphael-academy-profile","virtual":"No"},{"title":"St. Rocco School","lat":"41.79725118","lon":"-71.48423491","type":"Private School","address":"931 Atwood Ave","grades":["Pre-K","Elementary","Middle"],"city":"Johnston","state":"RI","zip":"2919","phone":"(401) 944-2993","low":"PK","high":"8","students":"169","cost":"Yes","url":"https:\/\/www.stroccoschool.org\/","review":"https:\/\/www.privateschoolreview.com\/st-rocco-school-profile\/02919","virtual":"No"},{"title":"St. Rose Of Lima School","lat":"41.7073675","lon":"-71.43234966","type":"Private School","address":"200 Brentwood Ave","grades":["Pre-K","Elementary","Middle"],"city":"Warwick","state":"RI","zip":"2886","phone":"(401) 739-6937","low":"PK","high":"8","students":"239","cost":"Yes","url":"http:\/\/saintroseschool.com\/","review":"https:\/\/www.privateschoolreview.com\/st-rose-of-lima-school-profile\/02886","virtual":"No"},{"title":"St. Teresa School","lat":"41.86714783","lon":"-71.356","type":"Private School","address":"140 Woodhaven Rd","grades":["Pre-K","Elementary","Middle"],"city":"Pawtucket","state":"RI","zip":"2861","phone":"(401) 726-1414","low":"PK","high":"8","students":"226","cost":"Yes","url":"https:\/\/stspawtucket.org\/","review":"","virtual":"No"},{"title":"St. Thomas Regional School","lat":"41.8365972","lon":"-71.467235","type":"Private School","address":"15 Edendale Avenue","grades":["Pre-K","Elementary","Middle"],"city":"North Providence","state":"RI","zip":"2911","phone":"(401) 351-0403","low":"PK","high":"8","students":"145","cost":"Yes","url":"http:\/\/saintthomasregional.com\/","review":"https:\/\/www.privateschoolreview.com\/st-thomas-regional-school-profile","virtual":"No"},{"title":"Stadium School","lat":"41.78879","lon":"-71.447573","type":"Traditional Public School","address":"100 Crescent Avenue","grades":["Pre-K","Elementary"],"city":"Cranston","state":"RI","zip":"2910","phone":"(401) 270-8188","low":"PK","high":"5","students":"258","cost":"No","url":"http:\/\/stadiumelementary.weebly.com\/","review":"https:\/\/www.publicschoolreview.com\/stadium-school-profile\/02910","virtual":"No"},{"title":"State Street School","lat":"41.364886","lon":"-71.823348","type":"Traditional Public School","address":"35 State Street","grades":["Elementary"],"city":"Westerly","state":"RI","zip":"2891","phone":"(401) 348-2340","low":"K","high":"4","students":"268","cost":"No","url":"https:\/\/www.westerly.k12.ri.us\/Domain\/645","review":"https:\/\/www.publicschoolreview.com\/state-street-school-profile\/02891","virtual":"No"},{"title":"Steere Farm Elementary School","lat":"41.934077","lon":"-71.673526","type":"Traditional Public School","address":"915 Steere Farm Road","grades":["Elementary"],"city":"Pascoag","state":"RI","zip":"2859","phone":"(401) 568-1350","low":"2","high":"5","students":"275","cost":"No","url":"https:\/\/sites.google.com\/a\/bsd-ri.net\/steerefarm\/home","review":"https:\/\/www.publicschoolreview.com\/steere-farm-elementary-school-profile","virtual":"No"},{"title":"Stephen Olney School","lat":"41.86264","lon":"-71.452092","type":"Traditional Public School","address":"1378 Douglas Avenue, North Pro","grades":["Elementary"],"city":"Providence","state":"RI","zip":"2904","phone":"(401) 233-1160","low":"K","high":"5","students":"392","cost":"No","url":"http:\/\/stephenolney.nprovschools.org\/","review":"https:\/\/www.publicschoolreview.com\/stephen-olney-school-profile","virtual":"No"},{"title":"Stone Hill School","lat":"41.78741","lon":"-71.483344","type":"Traditional Public School","address":"21 Village Avenue","grades":["Pre-K","Elementary"],"city":"Cranston","state":"RI","zip":"2920","phone":"(401) 270-8022","low":"PK","high":"5","students":"288","cost":"No","url":"https:\/\/sites.google.com\/cpsed.net\/stonehill\/home","review":"https:\/\/www.publicschoolreview.com\/stone-hill-school-profile","virtual":"No"},{"title":"Stony Lane El. School","lat":"41.592802","lon":"-71.487206","type":"Traditional Public School","address":"825 Stony Lane","grades":["Elementary"],"city":"North Kingstown","state":"RI","zip":"2852","phone":"(401) 268-6540","low":"K","high":"5","students":"349","cost":"No","url":"https:\/\/sl.nksd.net\/","review":"https:\/\/www.publicschoolreview.com\/stony-lane-el-school-profile","virtual":"No"},{"title":"Sunshine Child Development Center","lat":"41.6063484","lon":"-71.4484322","type":"Private School","address":"11 Iafrate Way","grades":["Pre-K"],"city":"North Kingstown","state":"RI","zip":"2852","phone":"(401) 294-3510","low":"NS","high":"PK","students":"60","cost":"Yes","url":"https:\/\/www.facebook.com\/Sunshine-Child-Development-Center-243155479045672\/info\/?entry_point=page_nav_about_item&tab=page_info","review":"https:\/\/www.privateschoolreview.com\/sunshine-child-development-center-profile","virtual":"No"},{"title":"Suzanne M. Henseler Quidnesset","lat":"41.61387","lon":"-71.439847","type":"Traditional Public School","address":"166 Mark Drive","grades":["Elementary"],"city":"North Kingstown","state":"RI","zip":"2852","phone":"(401) 541-6360","low":"K","high":"5","students":"227","cost":"No","url":"https:\/\/qe.nksd.net\/","review":"https:\/\/www.publicschoolreview.com\/suzanne-m-henseler-quidnesset-profile","virtual":"No"},{"title":"Sweet Peas Village Early Childhood School","lat":"41.63178333","lon":"-71.4934","type":"Private School","address":"2220 South County Trail","grades":["Pre-K","Elementary"],"city":"East Greenwich","state":"RI","zip":"2818","phone":"(401) 471-6289","low":"PK","high":"K","students":"104","cost":"Yes","url":"https:\/\/sweetpeasvillage.com\/classrooms\/the-village-lower-school\/","review":"https:\/\/www.privateschoolreview.com\/sweet-peas-village-early-childhood-school-profile","virtual":"No"},{"title":"Tavares Educational Center","lat":"41.81347572","lon":"-71.4125857","type":"Private School","address":"101 Plain St","grades":["Pre-K","Elementary","Middle","High"],"city":"Providence","state":"RI","zip":"2903","phone":"(401) 272-7127","low":"PK","high":"12","students":"See website","cost":"Yes","url":"","review":"https:\/\/www.privateschoolreview.com\/tavares-educational-center-profile","virtual":"No"},{"title":"Tender Hearts Cc & Learning Center","lat":"41.7245","lon":"-71.4446","type":"Private School","address":"935 Jefferson Blvd Suite1001","grades":["Pre-K","Elementary"],"city":"Warwick","state":"RI","zip":"2886","phone":"(401) 736-8844","low":"NS","high":"K","students":"125","cost":"Yes","url":"https:\/\/www.tenderheartsri.com\/","review":"","virtual":"No"},{"title":"The Arc Of Northern R I","lat":"41.986713","lon":"-71.520158","type":"Private School","address":"80 Fabien Street","grades":["Elementary","Middle"],"city":"Woonsocket","state":"RI","zip":"2895","phone":"(401) 765-3700","low":"5","high":"8","students":"See website","cost":"Yes","url":"https:\/\/www.arcofnri.org\/","review":"","virtual":"No"},{"title":"The Bradley School","lat":"41.60642","lon":"-71.248381","type":"Private School","address":"2820 E Main Rd","grades":["Elementary","Middle","High"],"city":"Portsmouth","state":"RI","zip":"2871","phone":"(401) 606-8300","low":"1","high":"12","students":"78","cost":"Yes","url":"https:\/\/www.bradleyschool.org\/bradley-school-portsmouth","review":"","virtual":"No"},{"title":"The Children's Village","lat":"41.5750676","lon":"-71.5351476","type":"Private School","address":"567 S County Trl # 201","grades":["Elementary"],"city":"Exeter","state":"RI","zip":"2822","phone":"(401) 295-5244","low":"K","high":"1","students":"29","cost":"Yes","url":"http:\/\/www.thechildrensvillage.net\/","review":"","virtual":"No"},{"title":"The Children's Workshop","lat":"41.8598","lon":"-71.3426","type":"Private School","address":"411 Narragansett Park Dr","grades":["Elementary"],"city":"Rumford","state":"RI","zip":"2916","phone":"(401) 434-1118","low":"K","high":"K","students":"See website","cost":"Yes","url":"https:\/\/childrensworkshop.com\/","review":"","virtual":"No"},{"title":"The Childrens Workshop","lat":"41.843019","lon":"-71.420044","type":"Private School","address":"15 Clarkson St","grades":["Elementary"],"city":"Providence","state":"RI","zip":"2908","phone":"(401) 383-9958","low":"K","high":"K","students":"27","cost":"Yes","url":"https:\/\/childrensworkshop.com\/","review":"","virtual":"No"},{"title":"The Compass School","lat":"41.496368","lon":"-71.516692","type":"Public Charter School","address":"537 Old North Road","grades":["Elementary","Middle"],"city":"Kingston","state":"RI","zip":"2881","phone":"(401) 788-8322","low":"K","high":"8","students":"216","cost":"No","url":"http:\/\/compassschool.org\/","review":"https:\/\/www.publicschoolreview.com\/the-compass-school-profile","virtual":"No"},{"title":"The Croft School","lat":"41.829089","lon":"-71.387926","type":"Private School","address":"179 Wayland Avenue, 2nd Floor","grades":["Elementary","Middle"],"city":"Providence","state":"RI","zip":"2906","phone":"(617) 851-1594","low":"K","high":"8","students":"120","cost":"Yes","url":"https:\/\/www.thecroftschool.org\/","review":"","virtual":"No"},{"title":"The Goddard School","lat":"42.5478223","lon":"-71.4283477","type":"Private School","address":"20 Preservation Way","grades":["Pre-K","Elementary"],"city":"Wakefield","state":"RI","zip":"2879","phone":"(401) 789-0300","low":"NS","high":"K","students":"See website","cost":"Yes","url":"https:\/\/www.goddardschool.com\/providence\/south-kingstown-preservation-way-ri","review":"","virtual":"No"},{"title":"The Gordon School","lat":"41.80094667","lon":"-71.37138667","type":"Private School","address":"45 Maxfield Ave","grades":["Pre-K","Elementary","Middle"],"city":"East Providence","state":"RI","zip":"2914","phone":"(401) 434-3833","low":"NS","high":"8","students":"372","cost":"Yes","url":"https:\/\/www.gordonschool.org\/","review":"https:\/\/www.privateschoolreview.com\/the-gordon-school-profile","virtual":"No"},{"title":"The Grace School","lat":"41.801266","lon":"-71.404783","type":"Private School","address":"1000 Eddy Street","grades":["Elementary","Middle"],"city":"Providence","state":"RI","zip":"2905","phone":"(401) 533-9200","low":"K","high":"8","students":"105","cost":"Yes","url":"http:\/\/www.TheGraceSchool.org","review":"https:\/\/www.privateschoolreview.com\/the-grace-school-profile","virtual":"No"},{"title":"The Greene School","lat":"41.615616","lon":"-71.682594","type":"Public Charter School","address":"94 John Potter Road","grades":["High"],"city":"West Greenwich","state":"RI","zip":"2817","phone":"(401) 397-8600","low":"9","high":"12","students":"204","cost":"No","url":"https:\/\/www.tgsri.org\/","review":"https:\/\/www.publicschoolreview.com\/the-greene-school-profile","virtual":"No"},{"title":"The Hope Academy","lat":"41.8013387","lon":"-71.4048857","type":"Public Charter School","address":"1000 Eddy Street","grades":["Elementary","Middle"],"city":"Providence","state":"RI","zip":"2905","phone":"(401) 533-9192","low":"K","high":"6","students":"251","cost":"No","url":"","review":"https:\/\/www.publicschoolreview.com\/the-hope-academy-profile","virtual":"No"},{"title":"The Learning Community","lat":"41.892164","lon":"-71.388008","type":"Public Charter School","address":"21 Lincoln Avenue","grades":["Elementary","Middle"],"city":"Central Falls","state":"RI","zip":"2863","phone":"(401) 722-9998","low":"K","high":"8","students":"576","cost":"No","url":"https:\/\/thelearningcommunity.com\/site\/","review":"https:\/\/www.publicschoolreview.com\/the-learning-community-profile\/02863","virtual":"No"},{"title":"The Learning Place","lat":"41.90349","lon":"-71.647125","type":"Private School","address":"19b Terry Ln","grades":["Elementary"],"city":"Chepachet","state":"RI","zip":"2814","phone":"(401) 567-9091","low":"K","high":"K","students":"33","cost":"Yes","url":"https:\/\/www.thelearningplace-ri.com\/","review":"","virtual":"No"},{"title":"The Pennfield School","lat":"41.55091","lon":"-71.252503","type":"Private School","address":"110 Sandy Point Ave Litle Slocum Farm","grades":["Pre-K","Elementary","Middle"],"city":"Portsmouth","state":"RI","zip":"2871","phone":"(401) 849-4646","low":"NS","high":"8","students":"218","cost":"Yes","url":"https:\/\/www.pennfield.org\/","review":"https:\/\/www.privateschoolreview.com\/the-pennfield-school-profile","virtual":"No"},{"title":"The Potter Hill School","lat":"41.494261","lon":"-71.51651","type":"Private School","address":"537 Old North Road","grades":["Pre-K","Elementary"],"city":"Kingston","state":"RI","zip":"2881","phone":"(401) 783-2233","low":"PK","high":"5","students":"58","cost":"Yes","url":"","review":"","virtual":"No"},{"title":"The Prout School","lat":"41.4507835","lon":"-71.4688322","type":"Private School","address":"4640 Tower Hill Rd","grades":["High"],"city":"Wakefield","state":"RI","zip":"2879","phone":"(401) 789-9262","low":"9","high":"12","students":"400","cost":"Yes","url":"https:\/\/www.theproutschool.org\/","review":"https:\/\/www.privateschoolreview.com\/the-prout-school-profile","virtual":"No"},{"title":"The Providence Center School","lat":"41.840791","lon":"-71.399516","type":"Private School","address":"520 Hope St","grades":["Pre-K","Elementary","Middle","High"],"city":"Providence","state":"RI","zip":"2906","phone":"(401) 276-4531","low":"PK","high":"12","students":"70","cost":"Yes","url":"https:\/\/www.providencecenter.org\/contact-us","review":"https:\/\/www.privateschoolreview.com\/the-providence-center-school-profile","virtual":"No"},{"title":"The Regional Career And Tech","lat":"41.683389","lon":"-71.587978","type":"Specialized Public School","address":"40 Reservoir Road","grades":["High"],"city":"Coventry","state":"RI","zip":"2816","phone":"(401) 822-9499","low":"10","high":"11","students":"See website","cost":"No","url":"https:\/\/www.coventryschools.net\/8\/home","review":"https:\/\/www.publicschoolreview.com\/the-regional-career-and-tech-profile","virtual":"No"},{"title":"The San Miguel School","lat":"41.8516834","lon":"-71.4225489","type":"Private School","address":"525 Branch Ave","grades":["Elementary","Middle"],"city":"Providence","state":"RI","zip":"2904","phone":"(401) 467-9777","low":"5","high":"8","students":"64","cost":"Yes","url":"https:\/\/www.sanmiguelprov.org\/","review":"https:\/\/www.privateschoolreview.com\/the-san-miguel-school-profile","virtual":"No"},{"title":"The Spurwink School","lat":"41.91288103","lon":"-71.41605402","type":"Private School","address":"365 River Rd","grades":["Elementary","Middle","High"],"city":"Lincoln","state":"RI","zip":"2865","phone":"(401) 781-4380","low":"K","high":"12","students":"28","cost":"Yes","url":"https:\/\/www.thespurwinkschool.org\/","review":"","virtual":"No"},{"title":"The Stork's Nest Child Academy - East Greenwich","lat":"41.634178","lon":"-71.493034","type":"Private School","address":"2260 S County Trl","grades":["Pre-K","Elementary"],"city":"Warwick","state":"RI","zip":"2818","phone":"(401) 828-4567","low":"NS","high":"K","students":"155","cost":"Yes","url":"http:\/\/www.storksnestchild.com\/","review":"https:\/\/www.privateschoolreview.com\/the-stork-s-nest-child-academy-east-greenwich-profile","virtual":"No"},{"title":"The Stork's Nest Child Academy - Smithfield","lat":"41.9281","lon":"-71.4993","type":"Private School","address":"440 George Washington Hwy","grades":["Pre-K","Elementary"],"city":"Smithfield","state":"RI","zip":"2917","phone":"(401) 233-2500","low":"PK","high":"K","students":"56","cost":"Yes","url":"http:\/\/www.storksnestchild.com\/","review":"https:\/\/www.privateschoolreview.com\/the-stork-s-nest-child-academy-smithfield-profile","virtual":"No"},{"title":"The Stork's Nest Child Academy - Warwick","lat":"41.71118683","lon":"-71.49893753","type":"Private School","address":"1100 Toll Gate Rd","grades":["Elementary"],"city":"Warwick","state":"RI","zip":"2886","phone":"(401) 828-4567","low":"K","high":"K","students":"26","cost":"Yes","url":"http:\/\/www.storksnestchild.com\/","review":"","virtual":"No"},{"title":"The Tides School","lat":"41.8023","lon":"-71.4187","type":"Private School","address":"790 Broad St","grades":["High"],"city":"Providence","state":"RI","zip":"2907","phone":"(401) 467-8228","low":"9","high":"12","students":"See website","cost":"Yes","url":"https:\/\/www.tidesfs.org","review":"","virtual":"No"},{"title":"The Wolf School","lat":"41.84893788","lon":"-71.3483","type":"Private School","address":"215 Ferris Avenue","grades":["Elementary","Middle"],"city":"Rumford","state":"RI","zip":"2916","phone":"(401) 432-9940","low":"K","high":"8","students":"65","cost":"Yes","url":"https:\/\/thewolfschool.org\/","review":"https:\/\/www.privateschoolreview.com\/the-wolf-school-profile","virtual":"No"},{"title":"Thornton School","lat":"41.798028","lon":"-71.478665","type":"Traditional Public School","address":"4 School Street","grades":["Elementary"],"city":"Johnston","state":"RI","zip":"2919","phone":"(401) 943-7369","low":"1","high":"5","students":"325","cost":"No","url":"","review":"https:\/\/www.publicschoolreview.com\/thornton-school-profile","virtual":"No"},{"title":"Tides School","lat":"41.88174268","lon":"-71.39126098","type":"Private School","address":"242 Dexter St","grades":["Middle","High"],"city":"Pawtucket","state":"RI","zip":"2860","phone":"(401) 822-1360","low":"8","high":"12","students":"15","cost":"Yes","url":"https:\/\/www.tidesfs.org\/education","review":"","virtual":"No"},{"title":"Tides School","lat":"41.70114666","lon":"-71.52789167","type":"Private School","address":"222 Washington St","grades":["Middle","High"],"city":"West Warwick","state":"RI","zip":"2893","phone":"(401) 826-3788","low":"8","high":"12","students":"See website","cost":"Yes","url":"https:\/\/www.tidesfs.org\/education","review":"","virtual":"No"},{"title":"Times2 Elementary School","lat":"41.838643","lon":"-71.42219","type":"Public Charter School","address":"50 Fillmore Street","grades":["Elementary","Middle"],"city":"Providence","state":"RI","zip":"2908","phone":"(401) 272-5094","low":"K","high":"6","students":"359","cost":"No","url":"","review":"https:\/\/www.publicschoolreview.com\/times2-elementary-school-profile","virtual":"No"},{"title":"Times2 Middle\/High School","lat":"41.838643","lon":"-71.42219","type":"Public Charter School","address":"50 Fillmore Street","grades":["Middle","High"],"city":"Providence","state":"RI","zip":"2908","phone":"(401) 274-5094","low":"7","high":"12","students":"325","cost":"No","url":"","review":"https:\/\/www.publicschoolreview.com\/times2-middle-high-school-profile","virtual":"No"},{"title":"Tiogue School","lat":"41.677801","lon":"-71.544097","type":"Traditional Public School","address":"170 East Shore Drive","grades":["Elementary"],"city":"Coventry","state":"RI","zip":"2816","phone":"(401) 822-9460","low":"K","high":"5","students":"305","cost":"No","url":"https:\/\/www.coventryschools.net:443\/","review":"https:\/\/www.publicschoolreview.com\/tiogue-school-profile","virtual":"No"},{"title":"Tiverton High School","lat":"41.629661","lon":"-71.166802","type":"Traditional Public School","address":"100 North Brayton Road","grades":["High"],"city":"Tiverton","state":"RI","zip":"2878","phone":"(401) 624-8494","low":"9","high":"12","students":"476","cost":"No","url":"https:\/\/ths.tivertonschools.org\/","review":"https:\/\/www.publicschoolreview.com\/tiverton-high-school-profile","virtual":"No"},{"title":"Tiverton Middle School","lat":"41.627317","lon":"-71.157351","type":"Traditional Public School","address":"10 Quintal Drive","grades":["Elementary","Middle"],"city":"Tiverton","state":"RI","zip":"2878","phone":"(401) 624-6668","low":"5","high":"8","students":"512","cost":"No","url":"https:\/\/tms.tivertonschools.org\/","review":"https:\/\/www.publicschoolreview.com\/tiverton-middle-school-profile","virtual":"No"},{"title":"Toll Gate High School","lat":"41.697458","lon":"-71.47973","type":"Traditional Public School","address":"575 Centerville Road","grades":["High"],"city":"Warwick","state":"RI","zip":"2886","phone":"(401) 734-3300","low":"9","high":"12","students":"1158","cost":"No","url":"https:\/\/sites.google.com\/a\/warwickschools.org\/toll-gate-high-school\/","review":"https:\/\/www.publicschoolreview.com\/toll-gate-high-school-profile","virtual":"No"},{"title":"Trinity Academy Performing Art","lat":"41.811269","lon":"-71.4351609","type":"Public Charter School","address":"275 Westminster Street","grades":["Middle","High"],"city":"Providence","state":"RI","zip":"2903","phone":"(401) 432-7881","low":"7","high":"12","students":"219","cost":"No","url":"https:\/\/www.tapaprovidence.org\/","review":"https:\/\/www.publicschoolreview.com\/trinity-academy-performing-art-profile","virtual":"No"},{"title":"Trinity Christian Academy","lat":"41.83050881","lon":"-71.53065257","type":"Private School","address":"2119 Hartford Ave","grades":["Pre-K","Elementary","Middle","High"],"city":"Johnston","state":"RI","zip":"2919","phone":"(401) 934-0208","low":"PK","high":"12","students":"70","cost":"Yes","url":"http:\/\/www.trinityri.org\/","review":"","virtual":"No"},{"title":"Urban Collaborative Program","lat":"41.820765","lon":"-71.421694","type":"Traditional Public School","address":"75 Carpenter Street","grades":["Middle"],"city":"Providence","state":"RI","zip":"2903","phone":"(401) 272-0881","low":"7","high":"8","students":"114","cost":"No","url":"https:\/\/www.ucap.org\/","review":"https:\/\/www.publicschoolreview.com\/urban-collaborative-program-profile","virtual":"No"},{"title":"Vartan Gregorian El. School","lat":"41.820158","lon":"-71.39299","type":"Traditional Public School","address":"455 Wickenden St.","grades":["Elementary"],"city":"Providence","state":"RI","zip":"2903","phone":"(401) 456-9377","low":"K","high":"5","students":"282","cost":"No","url":"https:\/\/www.providenceschools.org\/gregorian","review":"https:\/\/www.publicschoolreview.com\/vartan-gregorian-el-school-profile","virtual":"No"},{"title":"Veazie Street School","lat":"41.850921","lon":"-71.434335","type":"Traditional Public School","address":"211 Veazie Street","grades":["Elementary"],"city":"Providence","state":"RI","zip":"2904","phone":"(401) 453-8601","low":"K","high":"5","students":"545","cost":"No","url":"https:\/\/www.providenceschools.org\/veazie","review":"https:\/\/www.publicschoolreview.com\/veazie-street-school-profile","virtual":"No"},{"title":"Veterans Memorial Elementary School","lat":"41.888952","lon":"-71.395637","type":"Traditional Public School","address":"150 Fuller Avenue","grades":["Elementary"],"city":"Central Falls","state":"RI","zip":"2863","phone":"(401) 727-7740","low":"K","high":"4","students":"404","cost":"No","url":"https:\/\/www.cfschools.net\/o\/veterans-memorial-elementary","review":"https:\/\/www.publicschoolreview.com\/veterans-memorial-elementary-school-profile\/02863","virtual":"No"},{"title":"Village Green Virtual","lat":"41.8229","lon":"-71.4115","type":"Public Charter School","address":"135 Weybosset Street","grades":["High"],"city":"Providence","state":"RI","zip":"2903","phone":"(401) 831-2878","low":"9","high":"12","students":"221","cost":"No","url":"https:\/\/vgonline.org\/","review":"https:\/\/www.publicschoolreview.com\/village-green-virtual-profile","virtual":"Yes"},{"title":"Vincent J. Gallagher Middle School","lat":"41.884502","lon":"-71.543292","type":"Traditional Public School","address":"10 Indian Run Trail","grades":["Middle"],"city":"Smithfield","state":"RI","zip":"2917","phone":"(401) 949-2056","low":"6","high":"8","students":"573","cost":"No","url":"https:\/\/gms.smithfield-ps.org\/","review":"https:\/\/www.publicschoolreview.com\/vincent-j-gallagher-middle-school-profile","virtual":"No"},{"title":"W B Cooley & Academy Internationa","lat":"41.799458","lon":"-71.408239","type":"Traditional Public School","address":"182 Thurbers Avenue","grades":["High"],"city":"Providence","state":"RI","zip":"2905","phone":"(401) 456-1781","low":"9","high":"12","students":"386","cost":"No","url":"https:\/\/www.providenceschools.org\/","review":"https:\/\/www.publicschoolreview.com\/w-b-cooley-academy-internationa-profile","virtual":"No"},{"title":"W. R. Dutemple School","lat":"41.781623","lon":"-71.430695","type":"Traditional Public School","address":"32 Garden Street","grades":["Elementary"],"city":"Cranston","state":"RI","zip":"2910","phone":"(401) 270-8104","low":"K","high":"5","students":"271","cost":"No","url":"","review":"https:\/\/www.publicschoolreview.com\/w-r-dutemple-school-profile","virtual":"No"},{"title":"Waddington School","lat":"41.763334","lon":"-71.341697","type":"Traditional Public School","address":"101 Legion Way","grades":["Elementary"],"city":"Riverside","state":"RI","zip":"2915","phone":"(401) 433-6235","low":"K","high":"5","students":"511","cost":"No","url":"http:\/\/www.epschoolsri.com\/waddington\/","review":"https:\/\/www.publicschoolreview.com\/waddington-school-profile","virtual":"No"},{"title":"Wakefield Hills El. School","lat":"41.725366","lon":"-71.506323","type":"Traditional Public School","address":"505 Wakefield Street","grades":["Pre-K","Elementary"],"city":"West Warwick","state":"RI","zip":"2893","phone":"(401) 822-8452","low":"PK","high":"4","students":"396","cost":"No","url":"https:\/\/sites.google.com\/a\/westwarwickpublicschools.com\/whes\/home","review":"https:\/\/www.publicschoolreview.com\/wakefield-hills-el-school-profile","virtual":"No"},{"title":"Wakefield School","lat":"41.439698","lon":"-71.502227","type":"Traditional Public School","address":"101 High Street","grades":["Pre-K","Elementary"],"city":"Wakefield","state":"RI","zip":"2879","phone":"(401) 360-1400","low":"PK","high":"4","students":"183","cost":"No","url":"https:\/\/wa.skschools.net\/","review":"https:\/\/www.publicschoolreview.com\/wakefield-school-profile","virtual":"No"},{"title":"Warwick Career And Tech Center","lat":"41.697458","lon":"-71.47973","type":"Public Magnet School","address":"575 Centerville Road-bldg. 5","grades":["High"],"city":"Warwick","state":"RI","zip":"2886","phone":"(401) 734-3150","low":"9","high":"12","students":"See website","cost":"No","url":"https:\/\/wactc.warwickschools.org\/","review":"https:\/\/www.publicschoolreview.com\/warwick-career-and-tech-center-profile","virtual":"No"},{"title":"Warwick Early Learning Center","lat":"41.697458","lon":"-71.47973","type":"Traditional Public School","address":"325 Miantonomo Drive","grades":["Pre-K"],"city":"Warwick","state":"RI","zip":"2888","phone":"(401) 734-3490","low":"PK","high":"PK","students":"105","cost":"No","url":"https:\/\/sites.google.com\/a\/warwickschools.org\/drum-rock-early-childhood-center\/","review":"https:\/\/www.publicschoolreview.com\/warwick-early-learning-center-profile","virtual":"No"},{"title":"Warwick Neck School","lat":"41.688775","lon":"-71.376949","type":"Traditional Public School","address":"150 Lennox Avenue (formerly 15","grades":["Elementary"],"city":"Warwick","state":"RI","zip":"2889","phone":"(401) 734-3480","low":"K","high":"5","students":"274","cost":"No","url":"https:\/\/warwickneck.warwickschools.org\/","review":"https:\/\/www.publicschoolreview.com\/warwick-neck-school-profile","virtual":"No"},{"title":"Warwick Veterans Middle School","lat":"41.704733","lon":"-71.409056","type":"Traditional Public School","address":"2401 West Shore Road","grades":["Middle"],"city":"Warwick","state":"RI","zip":"2889","phone":"(401) 734-3200","low":"6","high":"8","students":"1148","cost":"No","url":"","review":"https:\/\/www.publicschoolreview.com\/warwick-veterans-middle-school-profile","virtual":"No"},{"title":"Washington Oak School","lat":"41.72411","lon":"-71.602629","type":"Traditional Public School","address":"801 Read School House Road","grades":["Pre-K","Elementary"],"city":"Coventry","state":"RI","zip":"2816","phone":"(401) 397-1976","low":"PK","high":"5","students":"631","cost":"No","url":"http:\/\/washingtonoak.weebly.com\/","review":"https:\/\/www.publicschoolreview.com\/washington-oak-school-profile","virtual":"No"},{"title":"Wawaloam School","lat":"41.58678","lon":"-71.619069","type":"Traditional Public School","address":"100 Victory Highway","grades":["Elementary"],"city":"Exeter","state":"RI","zip":"2822","phone":"(401) 295-8808","low":"K","high":"1","students":"198","cost":"No","url":"https:\/\/wawaloam.ewgrsd.org\/","review":"https:\/\/www.publicschoolreview.com\/wawaloam-school-profile","virtual":"No"},{"title":"Webster Avenue School","lat":"41.81033","lon":"-71.449208","type":"Traditional Public School","address":"191 Webster Avenue","grades":["Elementary"],"city":"Providence","state":"RI","zip":"2909","phone":"(401) 456-9414","low":"K","high":"5","students":"317","cost":"No","url":"https:\/\/www.providenceschools.org\/webster","review":"https:\/\/www.publicschoolreview.com\/webster-avenue-school-profile","virtual":"No"},{"title":"West Bay Christian Academy (Elementary)","lat":"41.61469799","lon":"-71.47190268","type":"Private School","address":"475 School St","grades":["Pre-K","Elementary","Middle"],"city":"North Kingstown","state":"RI","zip":"2852","phone":"(401) 884-3600","low":"PK","high":"8","students":"198","cost":"Yes","url":"https:\/\/www.westbaychristianacademy.com\/","review":"https:\/\/www.privateschoolreview.com\/west-bay-christian-academy-elementary-profile","virtual":"No"},{"title":"West Broadway Middle School","lat":"41.818591","lon":"-71.465335","type":"Traditional Public School","address":"29 Bainbridge Avenue","grades":["Elementary","Middle"],"city":"Providence","state":"RI","zip":"2909","phone":"(401) 456-9102","low":"5","high":"8","students":"504","cost":"No","url":"https:\/\/www.providenceschools.org\/","review":"https:\/\/www.publicschoolreview.com\/west-broadway-middle-school-profile","virtual":"No"},{"title":"West Glocester Elementary School","lat":"41.91074","lon":"-71.775971","type":"Traditional Public School","address":"111 Reynolds Road\/rte 94","grades":["Pre-K","Elementary"],"city":"Chepachet","state":"RI","zip":"2814","phone":"(401) 567-0350","low":"PK","high":"5","students":"220","cost":"No","url":"https:\/\/wges.glocschools.org\/about-us","review":"https:\/\/www.publicschoolreview.com\/west-glocester-elementary-school-profile","virtual":"No"},{"title":"West Kingston School","lat":"41.480211","lon":"-71.551133","type":"Traditional Public School","address":"3119 Ministerial Road","grades":["Elementary"],"city":"West Kingston","state":"RI","zip":"2892","phone":"(401) 360-1130","low":"K","high":"4","students":"221","cost":"No","url":"https:\/\/wk.skschools.net\/","review":"https:\/\/www.publicschoolreview.com\/west-kingston-school-profile","virtual":"No"},{"title":"West Warwick High School","lat":"41.706397","lon":"-71.516685","type":"Traditional Public School","address":"1 Webster Knight Drive","grades":["High"],"city":"West Warwick","state":"RI","zip":"2893","phone":"(401) 821-6596","low":"9","high":"12","students":"1001","cost":"No","url":"https:\/\/www.westwarwickpublicschools.com\/","review":"https:\/\/www.publicschoolreview.com\/west-warwick-high-school-profile","virtual":"No"},{"title":"Westbay Children's Center","lat":"41.7373","lon":"-71.4107","type":"Private School","address":"22 Astral St","grades":["Pre-K","Elementary"],"city":"Warwick","state":"RI","zip":"2888","phone":"(401) 463-6620","low":"PK","high":"K","students":"40","cost":"Yes","url":"https:\/\/westbaycap.org\/","review":"","virtual":"No"},{"title":"Westerly High School","lat":"41.375234","lon":"-71.820054","type":"Traditional Public School","address":"23 Ward Avenue","grades":["High"],"city":"Westerly","state":"RI","zip":"2891","phone":"(401) 596-2109","low":"9","high":"12","students":"743","cost":"No","url":"https:\/\/www.westerly.k12.ri.us\/Page\/3226","review":"https:\/\/www.publicschoolreview.com\/westerly-high-school-profile","virtual":"No"},{"title":"Westerly Inclusion Preschool P","lat":"41.3761387","lon":"-71.821063","type":"Traditional Public School","address":"23 Highland Avenue","grades":["Pre-K"],"city":"Westerly","state":"RI","zip":"2891","phone":"(401) 315-1538","low":"PK","high":"PK","students":"59","cost":"No","url":"","review":"https:\/\/www.publicschoolreview.com\/westerly-inclusion-preschool-p-profile","virtual":"No"},{"title":"Westerly Middle School","lat":"41.354119","lon":"-71.763557","type":"Traditional Public School","address":"10 Sandy Hill Road","grades":["Elementary","Middle"],"city":"Westerly","state":"RI","zip":"2891","phone":"(401) 348-2750","low":"5","high":"8","students":"774","cost":"No","url":"https:\/\/www.westerly.k12.ri.us\/Domain\/884","review":"https:\/\/www.publicschoolreview.com\/westerly-middle-school-profile","virtual":"No"},{"title":"Western Coventry School","lat":"41.702374","lon":"-71.671019","type":"Traditional Public School","address":"4588 Flat River Road","grades":["Elementary"],"city":"Coventry","state":"RI","zip":"2816","phone":"(401) 397-3355","low":"K","high":"5","students":"325","cost":"No","url":"https:\/\/westerncoventry.weebly.com\/","review":"https:\/\/www.publicschoolreview.com\/western-coventry-school-profile","virtual":"No"},{"title":"Western Hills Middle School","lat":"41.777033","lon":"-71.478554","type":"Traditional Public School","address":"400 Phenix Avenue","grades":["Middle"],"city":"Cranston","state":"RI","zip":"2920","phone":"(401) 270-8030","low":"6","high":"8","students":"739","cost":"No","url":"http:\/\/westernhillsmiddleschoolcranston.blogspot.com\/","review":"https:\/\/www.publicschoolreview.com\/western-hills-middle-school-profile","virtual":"No"},{"title":"Wheeler School","lat":"41.82908058","lon":"-71.39819409","type":"Private School","address":"216 Hope St","grades":["Pre-K","Elementary","Middle","High"],"city":"Providence","state":"RI","zip":"2906","phone":"(401) 421-8100","low":"NS","high":"12","students":"752","cost":"Yes","url":"https:\/\/www.wheelerschool.org\/","review":"https:\/\/www.privateschoolreview.com\/wheeler-school-profile","virtual":"No"},{"title":"Wickford Middle School","lat":"41.567959","lon":"-71.462402","type":"Traditional Public School","address":"250 Tower Hill Road","grades":["Middle"],"city":"North Kingstown","state":"RI","zip":"2852","phone":"(401) 268-6470","low":"6","high":"8","students":"340","cost":"No","url":"https:\/\/wms.nksd.net\/","review":"https:\/\/www.publicschoolreview.com\/wickford-middle-school-profile","virtual":"No"},{"title":"Wilbur And Mcmahon Schools","lat":"41.509574","lon":"-71.174143","type":"Traditional Public School","address":"28 Commons","grades":["Pre-K","Elementary","Middle"],"city":"Little Compton","state":"RI","zip":"2837","phone":"(401) 592-0363","low":"PK","high":"8","students":"209","cost":"No","url":"https:\/\/www.lcsd.k12.ri.us\/","review":"https:\/\/www.publicschoolreview.com\/wilbur-and-mcmahon-schools-profile","virtual":"No"},{"title":"William Callahan School","lat":"41.970092","lon":"-71.68465","type":"Traditional Public School","address":"75 Callahan School Street","grades":["Elementary"],"city":"Harrisville","state":"RI","zip":"2830","phone":"(401) 568-1330","low":"2","high":"5","students":"332","cost":"No","url":"https:\/\/callahan.bsd-ri.net\/","review":"https:\/\/www.publicschoolreview.com\/william-callahan-school-profile","virtual":"No"},{"title":"William D'Abate Elem. School","lat":"41.822242","lon":"-71.446763","type":"Traditional Public School","address":"60 Kossuth Street","grades":["Elementary"],"city":"Providence","state":"RI","zip":"2909","phone":"(401) 456-9416","low":"K","high":"5","students":"397","cost":"No","url":"https:\/\/www.providenceschools.org\/dabate","review":"https:\/\/www.publicschoolreview.com\/william-d-abate-elem-school-profile","virtual":"No"},{"title":"William E. Tolman High School","lat":"41.879951","lon":"-71.381854","type":"Traditional Public School","address":"150 Exchange Street","grades":["High"],"city":"Pawtucket","state":"RI","zip":"2860","phone":"(401) 729-6400","low":"9","high":"12","students":"1042","cost":"No","url":"http:\/\/tolman.pawtucket.schooldesk.net\/","review":"https:\/\/www.publicschoolreview.com\/william-e-tolman-high-school-profile","virtual":"No"},{"title":"William Winsor School","lat":"41.870683","lon":"-71.549065","type":"Traditional Public School","address":"562 Putnam Pike","grades":["Elementary"],"city":"Greenville","state":"RI","zip":"2828","phone":"(401) 949-2059","low":"K","high":"5","students":"269","cost":"No","url":"https:\/\/sites.google.com\/a\/smithfield-ps.org\/william-winsor-school\/","review":"https:\/\/www.publicschoolreview.com\/william-winsor-school-profile","virtual":"No"},{"title":"Winman Middle School","lat":"41.697458","lon":"-71.47973","type":"Traditional Public School","address":"575 Centerville Road","grades":["Middle"],"city":"Warwick","state":"RI","zip":"2886","phone":"(401) 734-3375","low":"6","high":"8","students":"764","cost":"No","url":"https:\/\/sites.google.com\/a\/warwickschools.org\/winman-junior-high\/","review":"https:\/\/www.publicschoolreview.com\/winman-middle-school-profile","virtual":"No"},{"title":"Winsor Hill School","lat":"41.81703","lon":"-71.475718","type":"Traditional Public School","address":"100 Theresa Street","grades":["Elementary"],"city":"Johnston","state":"RI","zip":"2919","phone":"(401) 831-4619","low":"1","high":"5","students":"376","cost":"No","url":"https:\/\/winsorhillpto.com\/","review":"https:\/\/www.publicschoolreview.com\/winsor-hill-school-profile","virtual":"No"},{"title":"Woodridge School","lat":"41.771848","lon":"-71.457907","type":"Traditional Public School","address":"401 Budlong Road","grades":["Elementary"],"city":"Cranston","state":"RI","zip":"2920","phone":"(401) 270-8007","low":"K","high":"5","students":"268","cost":"No","url":"https:\/\/woodridge.cpsed.net\/","review":"https:\/\/www.publicschoolreview.com\/woodridge-school-profile","virtual":"No"},{"title":"Woonsocket Career An Tech Ctr.","lat":"42.001209","lon":"-71.485096","type":"Public Magnet School","address":"400 Aylsworth Avenue","grades":["High"],"city":"Woonsocket","state":"RI","zip":"2895","phone":"(401) 767-4662","low":"9","high":"12","students":"See website","cost":"No","url":"https:\/\/woonsocketschoolswactc.ss16.sharpschool.com\/for_staff","review":"https:\/\/www.publicschoolreview.com\/woonsocket-career-an-tech-ctr-profile","virtual":"No"},{"title":"Woonsocket High School","lat":"42.004995","lon":"-71.485044","type":"Traditional Public School","address":"777 Cass Avenue","grades":["High"],"city":"Woonsocket","state":"RI","zip":"2895","phone":"(401) 767-4703","low":"9","high":"12","students":"1591","cost":"No","url":"https:\/\/whs.woonsocketschools.com\/","review":"https:\/\/www.publicschoolreview.com\/woonsocket-high-school-profile","virtual":"No"},{"title":"Woonsocket Middle @ Villa Nova","lat":"42.005263","lon":"-71.502613","type":"Traditional Public School","address":"240 Florence Dr.","grades":["Middle"],"city":"Woonsocket","state":"RI","zip":"2895","phone":"(401) 235-6125","low":"6","high":"8","students":"662","cost":"No","url":"","review":"https:\/\/www.publicschoolreview.com\/woonsocket-middle-villa-nova-profile","virtual":"No"},{"title":"Woonsocket Middle At Hamlet","lat":"42.003446","lon":"-71.500363","type":"Traditional Public School","address":"60 Florence Dr.","grades":["Middle"],"city":"Woonsocket","state":"RI","zip":"2895","phone":"(401) 235-6110","low":"6","high":"8","students":"671","cost":"No","url":"","review":"https:\/\/www.publicschoolreview.com\/woonsocket-middle-at-hamlet-profile","virtual":"No"},{"title":"Wyman School","lat":"41.752578","lon":"-71.390948","type":"Traditional Public School","address":"1 Columbia Avenue","grades":["Elementary"],"city":"Warwick","state":"RI","zip":"2888","phone":"(401) 734-3180","low":"K","high":"5","students":"303","cost":"No","url":"https:\/\/etwyman.warwickschools.org\/","review":"https:\/\/www.publicschoolreview.com\/wyman-school-profile","virtual":"No"},{"title":"Ywca Northern Rhode Island","lat":"42.005395","lon":"-71.521375","type":"Private School","address":"514 Blackstone Street","grades":["Pre-K"],"city":"Woonsocket","state":"RI","zip":"2895","phone":"(401) 769-7450","low":"NS","high":"NS","students":"91","cost":"Yes","url":"","review":"https:\/\/www.privateschoolreview.com\/ywca-northern-rhode-island-profile","virtual":"No"}]