[{"title":"A. C. Corcoran Elementary School","lat":"32.9602","lon":"-80.0593","type":"Traditional Public School","address":"8585 Vistavia Road","grades":["Pre-K","Elementary"],"city":"Charleston","state":"SC","zip":"29406","phone":"(843) 764-2218","low":"PK","high":"5","students":"692","cost":"No","url":"https:\/\/corcoran.ccsdschools.com\/","review":"https:\/\/www.publicschoolreview.com\/a-c-corcoran-elementary-school-profile","virtual":"Yes"},{"title":"A. C. Flora High School","lat":"34.013749","lon":"-80.984382","type":"Traditional Public School","address":"1 Falcon Drive","grades":["High"],"city":"Columbia","state":"SC","zip":"29204","phone":"(803) 738-7300","low":"9","high":"12","students":"1363","cost":"No","url":"https:\/\/www.richlandone.org\/Domain\/45","review":"https:\/\/www.publicschoolreview.com\/a-c-flora-high-school-profile","virtual":"Yes"},{"title":"A. C. Moore Elementary School","lat":"33.987446","lon":"-81.010088","type":"Traditional Public School","address":"333 Etiwan Avenue","grades":["Pre-K","Elementary"],"city":"Columbia","state":"SC","zip":"29205","phone":"(803) 343-2910","low":"PK","high":"5","students":"191","cost":"No","url":"https:\/\/www.richlandone.org\/Domain\/26","review":"https:\/\/www.publicschoolreview.com\/a-c-moore-elementary-school-profile\/29205","virtual":"Yes"},{"title":"A. J. Lewis Greenview Elementary School","lat":"34.069313","lon":"-80.993109","type":"Traditional Public School","address":"726 Easter Street","grades":["Pre-K","Elementary"],"city":"Columbia","state":"SC","zip":"29203","phone":"(803) 735-3417","low":"PK","high":"5","students":"324","cost":"No","url":"https:\/\/www.richlandone.org\/Domain\/23","review":"https:\/\/www.publicschoolreview.com\/a-j-lewis-greenview-elementary-school-profile","virtual":"Yes"},{"title":"A. L. Corbett Middle School","lat":"33.6605","lon":"-81.364997","type":"Traditional Public School","address":"10 A.l. Corbett Circle","grades":["Middle"],"city":"Wagener","state":"SC","zip":"29164","phone":"(803) 564-1050","low":"6","high":"8","students":"192","cost":"No","url":"","review":"https:\/\/www.publicschoolreview.com\/a-l-corbett-middle-school-profile","virtual":"Yes"},{"title":"A. R. Rucker Middle School","lat":"34.717934","lon":"-80.736963","type":"Traditional Public School","address":"422 Old Dixie Road","grades":["Middle"],"city":"Lancaster","state":"SC","zip":"29720","phone":"(803) 416-8555","low":"6","high":"8","students":"560","cost":"No","url":"https:\/\/rms.lancastercsd.com\/","review":"https:\/\/www.publicschoolreview.com\/a-r-rucker-middle-school-profile","virtual":"Yes"},{"title":"A.J. Whittenburg Elementary School","lat":"34.8475573","lon":"-82.4075389","type":"Traditional Public School","address":"420 Westfield Street","grades":["Pre-K","Elementary"],"city":"Greenville","state":"SC","zip":"29601","phone":"(864) 452-0500","low":"PK","high":"5","students":"485","cost":"No","url":"https:\/\/www.greenville.k12.sc.us\/ajw\/about\/contact.asp","review":"https:\/\/www.publicschoolreview.com\/a-j-whittenburg-elementary-school-profile","virtual":"Yes"},{"title":"Abbeville County Career Center","lat":"34.166446","lon":"-82.4113","type":"Specialized Public School","address":"100 Old Calhoun Falls Highway","grades":["High"],"city":"Abbeville","state":"SC","zip":"29620","phone":"(864) 366-9069","low":"10","high":"12","students":"See website","cost":"No","url":"http:\/\/www.acsd.k12.sc.us\/accc\/","review":"https:\/\/www.publicschoolreview.com\/abbeville-county-career-center-profile","virtual":"Yes"},{"title":"Abbeville High School","lat":"34.191429","lon":"-82.37168","type":"Traditional Public School","address":"701 Washington Street","grades":["High"],"city":"Abbeville","state":"SC","zip":"29620","phone":"(864) 366-5916","low":"9","high":"12","students":"449","cost":"No","url":"http:\/\/www.acsd.k12.sc.us\/ahs\/index1.html","review":"https:\/\/www.publicschoolreview.com\/abbeville-high-school-profile\/29620","virtual":"Yes"},{"title":"Abiding Peace Academy","lat":"34.823523","lon":"-82.229362","type":"Private School","address":"401 Batesville Rd.","grades":["Pre-K","Elementary","Middle"],"city":"Simpsonville","state":"SC","zip":"29681","phone":"(864) 288-4867","low":"PK","high":"7","students":"115","cost":"Yes","url":"http:\/\/www.apacademysc.org","review":"https:\/\/www.privateschoolreview.com\/abiding-peace-academy-profile","virtual":"No"},{"title":"Abner Creek Academy","lat":"34.871237","lon":"-82.159091","type":"Traditional Public School","address":"2050 Abner Creek Road","grades":["Pre-K","Elementary"],"city":"Duncan","state":"SC","zip":"29334","phone":"(864) 949-2334","low":"PK","high":"4","students":"615","cost":"No","url":"https:\/\/www.spart5.net\/Domain\/85","review":"https:\/\/www.publicschoolreview.com\/abner-creek-academy-profile","virtual":"Yes"},{"title":"Abner Montessori School","lat":"34.162013","lon":"-81.341752","type":"Private School","address":"432 E Boundary St","grades":["Pre-K","Elementary","Middle"],"city":"Chapin","state":"SC","zip":"29036","phone":"(803) 345-9428","low":"PK","high":"6","students":"73","cost":"Yes","url":"https:\/\/www.abnermontessori.com\/","review":"","virtual":"No"},{"title":"Abundant Life Christian School","lat":"34.89584155","lon":"-82.47273408","type":"Private School","address":"630 Farrs Bridge Road","grades":["Pre-K","Elementary","Middle"],"city":"Greenville","state":"SC","zip":"29611","phone":"(864) 246-1055","low":"PK","high":"8","students":"90","cost":"Yes","url":"https:\/\/abundantlife-gvl.cc\/alcschool\/","review":"https:\/\/www.privateschoolreview.com\/abundant-life-christian-school-profile\/29611","virtual":"No"},{"title":"Academic Magnet High School","lat":"32.857041","lon":"-79.963626","type":"Public Magnet School","address":"5109-a West Enterprise Street","grades":["High"],"city":"North Charleston","state":"SC","zip":"29405","phone":"(843) 746-1300","low":"9","high":"12","students":"698","cost":"No","url":"https:\/\/amhs.ccsdschools.com\/","review":"https:\/\/www.publicschoolreview.com\/academic-magnet-high-school-profile","virtual":"Yes"},{"title":"Academy For Arts\/Science\/Technology","lat":"33.766247","lon":"-78.865251","type":"Public Magnet School","address":"895 International Drive","grades":["High"],"city":"Myrtle Beach","state":"SC","zip":"29579","phone":"(843) 903-8460","low":"9","high":"12","students":"See website","cost":"No","url":"https:\/\/www.horrycountyschools.net\/Academy_for_Arts_ScienceTech","review":"https:\/\/www.publicschoolreview.com\/academy-for-arts-science-technology-profile","virtual":"Yes"},{"title":"Academy For Careers And Technology","lat":"34.180087","lon":"-79.476288","type":"Specialized Public School","address":"2697 East Highway 76","grades":["High"],"city":"Mullins","state":"SC","zip":"29574","phone":"(843) 423-1941","low":"9","high":"12","students":"See website","cost":"No","url":"https:\/\/www.marion.k12.sc.us\/act","review":"https:\/\/www.publicschoolreview.com\/academy-for-careers-and-technology-profile","virtual":"Yes"},{"title":"Academy For Teaching And Learning","lat":"34.7006","lon":"-81.20776","type":"Public Charter School","address":"109 Hinton Street","grades":["Elementary","Middle"],"city":"Chester","state":"SC","zip":"29706","phone":"(803) 385-6334","low":"K","high":"8","students":"346","cost":"No","url":"http:\/\/www.atlchester.com\/","review":"https:\/\/www.publicschoolreview.com\/academy-for-teaching-and-learning-profile","virtual":"Yes"},{"title":"Academy For Technology And Academics","lat":"33.934581","lon":"-79.033294","type":"Specialized Public School","address":"5639 Highway 701 North","grades":["High"],"city":"Conway","state":"SC","zip":"29526","phone":"(843) 488-6600","low":"9","high":"12","students":"See website","cost":"No","url":"https:\/\/www.horrycountyschools.net\/Academy_for_Tech___Academics","review":"https:\/\/www.publicschoolreview.com\/academy-for-technology-and-academics-profile","virtual":"Yes"},{"title":"Academy Of Hope Charter","lat":"33.83429","lon":"-79.058187","type":"Public Charter School","address":"3521 Juniper Bay Road","grades":["Pre-K","Elementary","Middle"],"city":"Conway","state":"SC","zip":"29527","phone":"(843) 397-5712","low":"PK","high":"8","students":"137","cost":"No","url":"http:\/\/www.theacademyofhope.org\/contact-us\/","review":"https:\/\/www.publicschoolreview.com\/academy-of-hope-charter-profile","virtual":"Yes"},{"title":"Addlestone Hebrew Academy","lat":"32.814084","lon":"-80.017369","type":"Private School","address":"1639 Raoul Wallenberg Blvd","grades":["Pre-K","Elementary","Middle"],"city":"Charleston","state":"SC","zip":"29407","phone":"(843) 571-1105","low":"PK","high":"8","students":"96","cost":"Yes","url":"https:\/\/addlestone.org\/","review":"https:\/\/www.privateschoolreview.com\/addlestone-hebrew-academy-profile","virtual":"No"},{"title":"Adventist Christian Academy Of Charleston","lat":"32.7933","lon":"-80.05389793","type":"Private School","address":"2518 Savannah Hwy","grades":["Elementary","Middle"],"city":"Charleston","state":"SC","zip":"29414","phone":"(843) 571-7519","low":"K","high":"8","students":"25","cost":"Yes","url":"https:\/\/www.acacharleston.com","review":"https:\/\/www.privateschoolreview.com\/adventist-christian-academy-of-charleston-profile","virtual":"No"},{"title":"Agape Christian Academy","lat":"32.5822","lon":"-80.7528","type":"Private School","address":"42 Keans Neck Rd.","grades":["Pre-K","Elementary","Middle","High"],"city":"Lobeco","state":"SC","zip":"29931","phone":"(843) 846-4835","low":"PK","high":"11","students":"68","cost":"Yes","url":"https:\/\/agapechristianacademysc.com\/","review":"https:\/\/www.privateschoolreview.com\/agape-christian-academy-profile","virtual":"No"},{"title":"Aiken County Career Center","lat":"33.51388","lon":"-81.864115","type":"Specialized Public School","address":"2455 Jefferson Davis Highway","grades":["High"],"city":"Warrenville","state":"SC","zip":"29851","phone":"(803) 593-7300","low":"10","high":"12","students":"See website","cost":"No","url":"https:\/\/www.acpsd.net\/acctc","review":"https:\/\/www.publicschoolreview.com\/aiken-county-career-center-profile","virtual":"Yes"},{"title":"Aiken Elementary School","lat":"33.52717","lon":"-81.770593","type":"Traditional Public School","address":"2050 Pine Log Road","grades":["Pre-K","Elementary"],"city":"Aiken","state":"SC","zip":"29803","phone":"(803) 641-2740","low":"PK","high":"5","students":"608","cost":"No","url":"https:\/\/www.acpsd.net\/Domain\/26","review":"https:\/\/www.publicschoolreview.com\/aiken-elementary-school-profile\/29803","virtual":"Yes"},{"title":"Aiken High School","lat":"33.579905","lon":"-81.717624","type":"Traditional Public School","address":"449 Rutland Drive","grades":["High"],"city":"Aiken","state":"SC","zip":"29801","phone":"(803) 641-2500","low":"9","high":"12","students":"1244","cost":"No","url":"https:\/\/www.acpsd.net\/AHS","review":"https:\/\/www.publicschoolreview.com\/aiken-high-school-profile","virtual":"Yes"},{"title":"Aiken Intermediate","lat":"33.554433","lon":"-81.69588","type":"Traditional Public School","address":"101 Gator Lane","grades":["Middle"],"city":"Aiken","state":"SC","zip":"29801","phone":"(803) 641-2570","low":"6","high":"6","students":"478","cost":"No","url":"","review":"https:\/\/www.publicschoolreview.com\/aiken-intermediate-profile","virtual":"Yes"},{"title":"Aiken Scholars Academy","lat":"33.573375","lon":"-81.766802","type":"Traditional Public School","address":"471 University Parkway Box 12","grades":["High"],"city":"Aiken","state":"SC","zip":"29801","phone":"(803) 641-2428","low":"9","high":"12","students":"135","cost":"No","url":"","review":"https:\/\/www.publicschoolreview.com\/aiken-scholars-academy-profile","virtual":"Yes"},{"title":"Aikens Fbc Preschool","lat":"33.56095375","lon":"-81.71874952","type":"Private School","address":"120 Chesterfield St N","grades":["Pre-K","Elementary"],"city":"Aiken","state":"SC","zip":"29801","phone":"(803) 648-5476","low":"PK","high":"K","students":"140","cost":"Yes","url":"https:\/\/www.aikenfbcpreschool.org\/","review":"https:\/\/www.privateschoolreview.com\/aikens-fbc-preschool-profile","virtual":"No"},{"title":"Airport High School","lat":"33.9515","lon":"-81.103019","type":"Traditional Public School","address":"1315 Boston Avenue","grades":["High"],"city":"West Columbia","state":"SC","zip":"29170","phone":"(803) 822-5600","low":"9","high":"12","students":"1337","cost":"No","url":"https:\/\/ahs.lex2.org\/","review":"https:\/\/www.publicschoolreview.com\/airport-high-school-profile","virtual":"Yes"},{"title":"Alcorn Middle School","lat":"34.053633","lon":"-81.028229","type":"Traditional Public School","address":"5125 Fairfield Road","grades":["Middle"],"city":"Columbia","state":"SC","zip":"29203","phone":"(803) 735-3439","low":"6","high":"8","students":"417","cost":"No","url":"https:\/\/www.richlandone.org\/Domain\/8","review":"https:\/\/www.publicschoolreview.com\/alcorn-middle-school-profile","virtual":"Yes"},{"title":"Aldersgate Child Development Center","lat":"34.88161625","lon":"-82.34513725","type":"Private School","address":"7 Shannon Dr","grades":["Pre-K","Elementary"],"city":"Greenville","state":"SC","zip":"29615","phone":"(864) 268-5028","low":"PK","high":"1","students":"86","cost":"Yes","url":"https:\/\/aldersgatecdc.com\/","review":"","virtual":"No"},{"title":"Alexander Elementary School","lat":"34.857025","lon":"-82.439239","type":"Traditional Public School","address":"1601 Bramlett Road","grades":["Pre-K","Elementary"],"city":"Greenville","state":"SC","zip":"29611","phone":"(864) 355-1000","low":"PK","high":"5","students":"360","cost":"No","url":"https:\/\/www.greenville.k12.sc.us\/alexand\/index.asp","review":"https:\/\/www.publicschoolreview.com\/alexander-elementary-school-profile\/29611","virtual":"Yes"},{"title":"Alice Drive Elementary School","lat":"33.929364","lon":"-80.379066","type":"Traditional Public School","address":"251 Alice Drive","grades":["Pre-K","Elementary"],"city":"Sumter","state":"SC","zip":"29150","phone":"(803) 775-0857","low":"PK","high":"5","students":"643","cost":"No","url":"https:\/\/ade.sumterschools.net\/","review":"https:\/\/www.publicschoolreview.com\/alice-drive-elementary-school-profile","virtual":"Yes"},{"title":"Alice Drive Middle School","lat":"33.931641","lon":"-80.378185","type":"Traditional Public School","address":"40 Miller Road","grades":["Middle"],"city":"Sumter","state":"SC","zip":"29150","phone":"(803) 775-0821","low":"6","high":"8","students":"941","cost":"No","url":"https:\/\/adm.sumterschools.net\/","review":"https:\/\/www.publicschoolreview.com\/alice-drive-middle-school-profile","virtual":"Yes"},{"title":"All Saints Church School","lat":"33.4641","lon":"-79.1403","type":"Private School","address":"3560 Kings River Road","grades":["Pre-K","Elementary"],"city":"Pawleys Island","state":"SC","zip":"29585","phone":"(843) 237-8524","low":"PK","high":"K","students":"53","cost":"Yes","url":"https:\/\/www.allsaintspawleys.org\/School","review":"https:\/\/www.privateschoolreview.com\/all-saints-church-school-profile","virtual":"No"},{"title":"All Saints' Episcopal Day School","lat":"34.1847","lon":"-79.79335","type":"Private School","address":"1425 Cherokee Rd","grades":["Pre-K","Elementary","Middle"],"city":"Florence","state":"SC","zip":"29501","phone":"(843) 662-8134","low":"PK","high":"6","students":"252","cost":"Yes","url":"https:\/\/www.aseds.com\/","review":"https:\/\/www.privateschoolreview.com\/all-saints-episcopal-day-school-profile\/29501","virtual":"No"},{"title":"Allegro Charter School Of Music","lat":"32.77693","lon":"-79.9339136","type":"Public Charter School","address":"2731 Gordon Street","grades":["Middle","High"],"city":"North Charleston","state":"SC","zip":"29405","phone":"(843) 321-7104","low":"6","high":"12","students":"201","cost":"No","url":"","review":"https:\/\/www.publicschoolreview.com\/allegro-charter-school-of-music-profile","virtual":"Yes"},{"title":"Allendale - Fairfax Middle School","lat":"32.982086","lon":"-81.270518","type":"Traditional Public School","address":"3581 Allendale-fairfax Highway","grades":["Middle"],"city":"Fairfax","state":"SC","zip":"29827","phone":"(803) 584-3489","low":"6","high":"8","students":"254","cost":"No","url":"https:\/\/afms.acs.k12.sc.us\/","review":"https:\/\/www.publicschoolreview.com\/allendale-fairfax-middle-school-profile","virtual":"Yes"},{"title":"Allendale Elementary School","lat":"32.992009","lon":"-81.284797","type":"Traditional Public School","address":"3305 Allendale-fairfax Highway","grades":["Elementary"],"city":"Fairfax","state":"SC","zip":"29827","phone":"(803) 584-3476","low":"3","high":"5","students":"235","cost":"No","url":"https:\/\/ales.acs.k12.sc.us\/","review":"https:\/\/www.publicschoolreview.com\/allendale-elementary-school-profile\/29827","virtual":"Yes"},{"title":"Allendale Fairfax High School","lat":"32.984682","lon":"-81.274238","type":"Traditional Public School","address":"3581 Allendale-fairfax Highway","grades":["High"],"city":"Fairfax","state":"SC","zip":"29827","phone":"(803) 584-2311","low":"9","high":"12","students":"295","cost":"No","url":"https:\/\/afhs.acs.k12.sc.us\/","review":"https:\/\/www.publicschoolreview.com\/allendale-fairfax-high-school-profile","virtual":"Yes"},{"title":"Allendale High School","lat":"32.971304","lon":"-81.270653","type":"Specialized Public School","address":"1057 Revolutionary Raod","grades":["High"],"city":"Fairfax","state":"SC","zip":"29827","phone":"(803) 737-3036","low":"9","high":"12","students":"17","cost":"No","url":"","review":"https:\/\/www.publicschoolreview.com\/allendale-high-school-profile\/29827","virtual":"Yes"},{"title":"Alma Elementary School","lat":"35.080139","lon":"-81.612622","type":"Traditional Public School","address":"213 Alma Street","grades":["Pre-K","Elementary"],"city":"Gaffney","state":"SC","zip":"29340","phone":"(864) 206-6482","low":"PK","high":"5","students":"161","cost":"No","url":"https:\/\/aes.cherokee1.org\/","review":"https:\/\/www.publicschoolreview.com\/alma-elementary-school-profile","virtual":"Yes"},{"title":"Alston - Bailey Elementary School","lat":"33.0327773","lon":"-80.1845867","type":"Traditional Public School","address":"820 West 5th North Street","grades":["Pre-K","Elementary"],"city":"Summerville","state":"SC","zip":"29483","phone":"(843) 695-5210","low":"PK","high":"5","students":"655","cost":"No","url":"","review":"https:\/\/www.publicschoolreview.com\/alston-bailey-elementary-school-profile","virtual":"Yes"},{"title":"Alston Middle School","lat":"33.030802","lon":"-80.181566","type":"Traditional Public School","address":"500 Bryan Street","grades":["Middle"],"city":"Summerville","state":"SC","zip":"29483","phone":"(843) 873-3890","low":"6","high":"8","students":"951","cost":"No","url":"https:\/\/www.ddtwo.org\/AMS","review":"https:\/\/www.publicschoolreview.com\/alston-middle-school-profile","virtual":"Yes"},{"title":"Ambler Elementary School","lat":"34.960383","lon":"-82.65847","type":"Traditional Public School","address":"838 Ambler School Road","grades":["Pre-K","Elementary"],"city":"Pickens","state":"SC","zip":"29671","phone":"(864) 397-1200","low":"PK","high":"5","students":"356","cost":"No","url":"https:\/\/aes.pickens.k12.sc.us\/","review":"https:\/\/www.publicschoolreview.com\/ambler-elementary-school-profile","virtual":"Yes"},{"title":"Amikids Georgetown","lat":"33.4461","lon":"-79.2647","type":"Private School","address":"1590 E CCC Rd","grades":["Middle","High"],"city":"Georgetown","state":"SC","zip":"29440","phone":"(843) 546-5478","low":"7","high":"10","students":"38","cost":"Yes","url":"http:\/\/amikids.org\/programs-and-services\/programs\/amikids-georgetown\/story\/about","review":"","virtual":"No"},{"title":"Anderson Christian School","lat":"34.5570918","lon":"-82.68280896","type":"Private School","address":"3902 Liberty Highway","grades":["Pre-K","Elementary","Middle","High"],"city":"Anderson","state":"SC","zip":"29621","phone":"(864) 224-7309","low":"PK","high":"12","students":"190","cost":"Yes","url":"https:\/\/www.andersonchristian.com\/","review":"https:\/\/www.privateschoolreview.com\/anderson-christian-school-profile\/29621","virtual":"No"},{"title":"Anderson Five Charter School","lat":"34.494482","lon":"-82.645183","type":"Public Charter School","address":"1225 South Mcduffie Street","grades":["High"],"city":"Anderson","state":"SC","zip":"29624","phone":"(864) 260-5538","low":"9","high":"12","students":"72","cost":"No","url":"https:\/\/www.anderson5.net\/domain\/2723","review":"https:\/\/www.publicschoolreview.com\/anderson-five-charter-school-profile","virtual":"Yes"},{"title":"Anderson Institute Of Technology","lat":"34.504621","lon":"-82.68555","type":"Specialized Public School","address":"315 Pearman Dairy Road","grades":["High"],"city":"Anderson","state":"SC","zip":"29625","phone":"(864) 222-4120","low":"9","high":"12","students":"See website","cost":"No","url":"","review":"https:\/\/www.publicschoolreview.com\/anderson-institute-of-technology-profile","virtual":"Yes"},{"title":"Anderson Mill Elementary School","lat":"34.885951","lon":"-82.001732","type":"Traditional Public School","address":"1845 Old Anderson Mill Road","grades":["Pre-K","Elementary"],"city":"Moore","state":"SC","zip":"29369","phone":"(864) 576-6539","low":"PK","high":"5","students":"574","cost":"No","url":"https:\/\/ames.spart6.org\/","review":"https:\/\/www.publicschoolreview.com\/anderson-mill-elementary-school-profile","virtual":"Yes"},{"title":"Andrew Chapel Christian Academy","lat":"33.4562839","lon":"-80.711166","type":"Private School","address":"3670 Five Chop Rd","grades":["Elementary"],"city":"Orangeburg","state":"SC","zip":"29115","phone":"(803) 531-0303","low":"K","high":"5","students":"21","cost":"Yes","url":"http:\/\/www.andrewchapelchurch.com\/","review":"","virtual":"No"},{"title":"Andrew Jackson Academy","lat":"33.0941","lon":"-81.0107","type":"Private School","address":"7054 Broxton Bridge Rd","grades":["Pre-K","Elementary","Middle","High"],"city":"Ehrhardt","state":"SC","zip":"29081","phone":"(803) 245-4810","low":"PK","high":"12","students":"150","cost":"Yes","url":"https:\/\/www.andrewjacksonacademy.org\/","review":"https:\/\/www.privateschoolreview.com\/andrew-jackson-academy-profile","virtual":"No"},{"title":"Andrew Jackson High School","lat":"34.575392","lon":"-80.627243","type":"Traditional Public School","address":"6925 Kershaw-camden Highway","grades":["High"],"city":"Kershaw","state":"SC","zip":"29067","phone":"(803) 475-2381","low":"9","high":"12","students":"631","cost":"No","url":"https:\/\/ajhs.lancastercsd.com\/","review":"https:\/\/www.publicschoolreview.com\/andrew-jackson-high-school-profile\/29067","virtual":"Yes"},{"title":"Andrew Jackson Middle School","lat":"34.57572","lon":"-80.628144","type":"Traditional Public School","address":"6865 Kershaw Camden Highway","grades":["Middle"],"city":"Kershaw","state":"SC","zip":"29067","phone":"(803) 475-6021","low":"6","high":"8","students":"480","cost":"No","url":"https:\/\/ajms.lancastercsd.com\/","review":"https:\/\/www.publicschoolreview.com\/andrew-jackson-middle-school-profile\/29067","virtual":"Yes"},{"title":"Andrews Elementary School","lat":"33.504356","lon":"-79.522386","type":"Traditional Public School","address":"13072 County Line Road","grades":["Pre-K","Elementary"],"city":"Andrews","state":"SC","zip":"29510","phone":"(843) 264-3419","low":"PK","high":"5","students":"711","cost":"No","url":"https:\/\/www.aes.gcsd.k12.sc.us\/","review":"https:\/\/www.publicschoolreview.com\/andrews-elementary-school-profile\/29510","virtual":"Yes"},{"title":"Andrews High School","lat":"33.503863","lon":"-79.523399","type":"Traditional Public School","address":"12890 County Line Road","grades":["High"],"city":"Andrews","state":"SC","zip":"29510","phone":"(843) 264-3414","low":"9","high":"12","students":"540","cost":"No","url":"https:\/\/www.gcsd.k12.sc.us\/","review":"https:\/\/www.publicschoolreview.com\/andrews-high-school-profile\/29510","virtual":"Yes"},{"title":"Angel Oak Elementary School","lat":"32.724536","lon":"-80.10218","type":"Traditional Public School","address":"6134 Chisolm Road","grades":["Pre-K","Elementary"],"city":"Johns Island","state":"SC","zip":"29455","phone":"(843) 559-6412","low":"PK","high":"5","students":"640","cost":"No","url":"https:\/\/angeloak.ccsdschools.com\/","review":"https:\/\/www.publicschoolreview.com\/angel-oak-elementary-school-profile","virtual":"Yes"},{"title":"Annie Burnside Elementary School","lat":"33.969496","lon":"-80.937941","type":"Traditional Public School","address":"7300 Patterson Road","grades":["Pre-K","Elementary"],"city":"Columbia","state":"SC","zip":"29209","phone":"(803) 783-5530","low":"PK","high":"5","students":"331","cost":"No","url":"https:\/\/www.richlandone.org\/Domain\/13","review":"https:\/\/www.publicschoolreview.com\/annie-burnside-elementary-school-profile","virtual":"Yes"},{"title":"Applied Technology Center","lat":"34.947635","lon":"-81.079914","type":"Specialized Public School","address":"2399 West Main Street","grades":["High"],"city":"Rock Hill","state":"SC","zip":"29732","phone":"(803) 981-1100","low":"9","high":"12","students":"See website","cost":"No","url":"https:\/\/www.rock-hill.k12.sc.us\/Domain\/30","review":"https:\/\/www.publicschoolreview.com\/applied-technology-center-profile","virtual":"Yes"},{"title":"Arcadia Elementary School","lat":"34.964003","lon":"-81.989458","type":"Traditional Public School","address":"375 Spring Street","grades":["Pre-K","Elementary"],"city":"Spartanburg","state":"SC","zip":"29301","phone":"(864) 576-1371","low":"PK","high":"5","students":"627","cost":"No","url":"https:\/\/aes.spart6.org\/","review":"https:\/\/www.publicschoolreview.com\/arcadia-elementary-school-profile\/29301","virtual":"Yes"},{"title":"Arden Elementary School","lat":"34.050546","lon":"-81.02189","type":"Traditional Public School","address":"1300 Ashley Street","grades":["Pre-K","Elementary"],"city":"Columbia","state":"SC","zip":"29203","phone":"(803) 735-3400","low":"PK","high":"5","students":"238","cost":"No","url":"https:\/\/www.richlandone.org\/Domain\/9","review":"https:\/\/www.publicschoolreview.com\/arden-elementary-school-profile","virtual":"Yes"},{"title":"Armstrong Elementary School","lat":"34.903727","lon":"-82.462071","type":"Traditional Public School","address":"8601 White Horse Road","grades":["Pre-K","Elementary"],"city":"Greenville","state":"SC","zip":"29617","phone":"(864) 355-1100","low":"PK","high":"5","students":"368","cost":"No","url":"https:\/\/www.greenville.k12.sc.us\/armstrng\/index.asp","review":"https:\/\/www.publicschoolreview.com\/armstrong-elementary-school-profile\/29617","virtual":"Yes"},{"title":"As - Sabeel Academy","lat":"34.91955","lon":"-82.272131","type":"Private School","address":"1601 Clement Rd","grades":["Pre-K","Elementary","Middle"],"city":"Greer","state":"SC","zip":"29650","phone":"(864) 674-7456","low":"PK","high":"8","students":"116","cost":"Yes","url":"https:\/\/www.sabeelacademy.com\/","review":"","virtual":"No"},{"title":"Asbury Kindergarten & Preschool","lat":"33.973735","lon":"-80.946151","type":"Private School","address":"1005 Asbury Dr","grades":["Pre-K","Elementary"],"city":"Columbia","state":"SC","zip":"29209","phone":"(803) 776-8121","low":"PK","high":"K","students":"90","cost":"Yes","url":"http:\/\/www.asburypreschoolandkindergarten.org\/asbury-united-methodist-church.html","review":"","virtual":"No"},{"title":"Ashley Hall","lat":"32.78708944","lon":"-79.94562111","type":"Private School","address":"172 Rutledge Avenue","grades":["Pre-K","Elementary","Middle","High"],"city":"Charleston","state":"SC","zip":"29403","phone":"(843) 722-4088","low":"PK","high":"12","students":"756","cost":"Yes","url":"https:\/\/www.ashleyhall.org\/","review":"https:\/\/www.privateschoolreview.com\/ashley-hall-profile","virtual":"No"},{"title":"Ashley Ridge High School","lat":"32.948053","lon":"-80.205513","type":"Traditional Public School","address":"9800 Delemar Highway","grades":["High"],"city":"Summerville","state":"SC","zip":"29485","phone":"(843) 695-4900","low":"9","high":"12","students":"2215","cost":"No","url":"https:\/\/www.ddtwo.org\/ARHS","review":"https:\/\/www.publicschoolreview.com\/ashley-ridge-high-school-profile","virtual":"Yes"},{"title":"Ashley River Child Development Center","lat":"32.78278","lon":"-79.99253","type":"Private School","address":"1101 Savannah Highway","grades":["Pre-K"],"city":"Charleston","state":"SC","zip":"29407","phone":"(843) 556-2681","low":"NS","high":"NS","students":"150","cost":"Yes","url":"https:\/\/www.ashleyriverchurch.org\/","review":"https:\/\/www.privateschoolreview.com\/ashley-river-child-development-center-profile","virtual":"No"},{"title":"Ashley River Creative Arts Elementary School","lat":"32.801124","lon":"-80.022667","type":"Public Magnet School","address":"1871 Wallace School Road","grades":["Elementary"],"city":"Charleston","state":"SC","zip":"29407","phone":"(843) 763-1555","low":"K","high":"5","students":"575","cost":"No","url":"https:\/\/ashleyriver.ccsdschools.com\/","review":"https:\/\/www.publicschoolreview.com\/ashley-river-creative-arts-elementary-school-profile","virtual":"Yes"},{"title":"Augusta Circle Elementary School","lat":"34.821272","lon":"-82.394156","type":"Traditional Public School","address":"100 Winyah Street","grades":["Elementary"],"city":"Greenville","state":"SC","zip":"29605","phone":"(864) 355-1200","low":"K","high":"5","students":"496","cost":"No","url":"https:\/\/www.greenville.k12.sc.us\/acircle\/index.asp","review":"https:\/\/www.publicschoolreview.com\/augusta-circle-elementary-school-profile","virtual":"Yes"},{"title":"Augusta Road Baptist Church Ki","lat":"34.7719706","lon":"-82.3854137","type":"Private School","address":"1823 Augusta Road","grades":["Pre-K","Elementary"],"city":"Greenville","state":"SC","zip":"29605","phone":"(864) 232-2713","low":"PK","high":"K","students":"83","cost":"Yes","url":"http:\/\/arbc.com\/weekday-preschool\/","review":"https:\/\/www.privateschoolreview.com\/augusta-road-baptist-church-ki-profile","virtual":"No"},{"title":"Aynor Elementary School","lat":"33.99078","lon":"-79.205916","type":"Traditional Public School","address":"516 Jordanville Road","grades":["Pre-K","Elementary"],"city":"Aynor","state":"SC","zip":"29511","phone":"(843) 488-7070","low":"PK","high":"5","students":"768","cost":"No","url":"https:\/\/www.horrycountyschools.net\/Aynor_Elementary","review":"https:\/\/www.publicschoolreview.com\/aynor-elementary-school-profile","virtual":"Yes"},{"title":"Aynor High School","lat":"33.992444","lon":"-79.203586","type":"Traditional Public School","address":"201 Jordanville Road","grades":["High"],"city":"Aynor","state":"SC","zip":"29511","phone":"(843) 488-7100","low":"9","high":"12","students":"889","cost":"No","url":"https:\/\/www.horrycountyschools.net\/Aynor_High_School","review":"https:\/\/www.publicschoolreview.com\/aynor-high-school-profile","virtual":"Yes"},{"title":"Aynor Middle School","lat":"33.991656","lon":"-79.247286","type":"Traditional Public School","address":"400 Frye Road","grades":["Middle"],"city":"Galivants Ferry","state":"SC","zip":"29544","phone":"(843) 358-6000","low":"6","high":"8","students":"758","cost":"No","url":"https:\/\/www.horrycountyschools.net\/Aynor_Middle_School","review":"https:\/\/www.publicschoolreview.com\/aynor-middle-school-profile","virtual":"Yes"},{"title":"B. D. Lee Elementary School","lat":"35.078803","lon":"-81.661233","type":"Traditional Public School","address":"401 Overbrook Drive","grades":["Pre-K","Elementary"],"city":"Gaffney","state":"SC","zip":"29341","phone":"(864) 206-6432","low":"PK","high":"5","students":"340","cost":"No","url":"https:\/\/bdl.cherokee1.org\/","review":"https:\/\/www.publicschoolreview.com\/b-d-lee-elementary-school-profile","virtual":"Yes"},{"title":"Ballentine Elementary School","lat":"34.129225","lon":"-81.236881","type":"Traditional Public School","address":"1040 Bickley Road","grades":["Elementary"],"city":"Irmo","state":"SC","zip":"29063","phone":"(803) 476-4500","low":"K","high":"5","students":"635","cost":"No","url":"https:\/\/www.lexrich5.org\/bes","review":"https:\/\/www.publicschoolreview.com\/ballentine-elementary-school-profile\/29063","virtual":"Yes"},{"title":"Bamberg - Ehrhardt High School","lat":"33.304293","lon":"-81.028678","type":"Traditional Public School","address":"267 Red Raider Drive","grades":["High"],"city":"Bamberg","state":"SC","zip":"29003","phone":"(803) 245-3030","low":"9","high":"12","students":"371","cost":"No","url":"https:\/\/behs.bamberg1.net\/","review":"https:\/\/www.publicschoolreview.com\/bamberg-ehrhardt-high-school-profile","virtual":"Yes"},{"title":"Bamberg - Ehrhardt Middle School","lat":"33.309863","lon":"-81.028186","type":"Traditional Public School","address":"897 North Street","grades":["Middle"],"city":"Bamberg","state":"SC","zip":"29003","phone":"(803) 245-3058","low":"7","high":"8","students":"193","cost":"No","url":"https:\/\/bems.bamberg1.net\/","review":"https:\/\/www.publicschoolreview.com\/bamberg-ehrhardt-middle-school-profile","virtual":"Yes"},{"title":"Banks Trail Middle School","lat":"34.9870406","lon":"-80.9476512","type":"Traditional Public School","address":"1640 Banks Road","grades":["Middle"],"city":"Fort Mill","state":"SC","zip":"29715","phone":"(803) 578-2990","low":"6","high":"8","students":"884","cost":"No","url":"https:\/\/www.fortmillschools.org\/btms","review":"https:\/\/www.publicschoolreview.com\/banks-trail-middle-school-profile","virtual":"Yes"},{"title":"Baptist Hill High School","lat":"32.72859","lon":"-80.261903","type":"Traditional Public School","address":"5117 Baptist Hill Road","grades":["Middle","High"],"city":"Hollywood","state":"SC","zip":"29449","phone":"(843) 889-2276","low":"6","high":"12","students":"583","cost":"No","url":"https:\/\/baptisthill.ccsdschools.com\/","review":"https:\/\/www.publicschoolreview.com\/baptist-hill-high-school-profile","virtual":"Yes"},{"title":"Barnwell Christian School","lat":"33.2740966","lon":"-81.2786461","type":"Private School","address":"5675 Hwy 70","grades":["Elementary","Middle","High"],"city":"Blackville","state":"SC","zip":"29817","phone":"(803) 259-2100","low":"1","high":"12","students":"60","cost":"Yes","url":"","review":"https:\/\/www.privateschoolreview.com\/barnwell-christian-school-profile","virtual":"No"},{"title":"Barnwell County Career Center","lat":"33.31693","lon":"-81.346102","type":"Specialized Public School","address":"5214 Reynolds Road","grades":["High"],"city":"Blackville","state":"SC","zip":"29817","phone":"(803) 259-5512","low":"9","high":"12","students":"See website","cost":"No","url":"https:\/\/www.bccc80.com\/","review":"https:\/\/www.publicschoolreview.com\/barnwell-county-career-center-profile","virtual":"Yes"},{"title":"Barnwell Elementary School","lat":"33.257051","lon":"-81.354293","type":"Traditional Public School","address":"10524 Marlboro Avenue","grades":["Elementary","Middle"],"city":"Barnwell","state":"SC","zip":"29812","phone":"(803) 541-1285","low":"4","high":"6","students":"415","cost":"No","url":"https:\/\/besbsd45.weebly.com\/","review":"https:\/\/www.publicschoolreview.com\/barnwell-elementary-school-profile\/29812","virtual":"Yes"},{"title":"Barnwell High School","lat":"33.227804","lon":"-81.360292","type":"Traditional Public School","address":"474 Jackson Street","grades":["High"],"city":"Barnwell","state":"SC","zip":"29812","phone":"(803) 541-1390","low":"9","high":"12","students":"574","cost":"No","url":"https:\/\/bhs.bsd45.net\/","review":"https:\/\/www.publicschoolreview.com\/barnwell-high-school-profile","virtual":"Yes"},{"title":"Barnwell Primary","lat":"33.240311","lon":"-81.361006","type":"Traditional Public School","address":"9286 Marlboro Avenue","grades":["Pre-K","Elementary"],"city":"Barnwell","state":"SC","zip":"29812","phone":"(803) 541-1320","low":"PK","high":"3","students":"697","cost":"No","url":"https:\/\/bpsbsd45.weebly.com\/","review":"https:\/\/www.publicschoolreview.com\/barnwell-primary-profile","virtual":"Yes"},{"title":"Baron Dekalb Elementary School","lat":"34.389437","lon":"-80.700821","type":"Traditional Public School","address":"2684 Baron Dekalb Road","grades":["Pre-K","Elementary"],"city":"Camden","state":"SC","zip":"29020","phone":"(803) 432-2483","low":"PK","high":"5","students":"188","cost":"No","url":"https:\/\/www.kcsdschools.net\/Domain\/8","review":"https:\/\/www.publicschoolreview.com\/baron-dekalb-elementary-school-profile","virtual":"Yes"},{"title":"Bates Middle School","lat":"33.90076","lon":"-80.351976","type":"Traditional Public School","address":"715 Estate Street","grades":["Middle"],"city":"Sumter","state":"SC","zip":"29150","phone":"(803) 775-0711","low":"6","high":"8","students":"657","cost":"No","url":"https:\/\/bms.sumterschools.net\/","review":"https:\/\/www.publicschoolreview.com\/bates-middle-school-profile","virtual":"Yes"},{"title":"Batesburg - Leesville Elementary School","lat":"33.906519","lon":"-81.511366","type":"Traditional Public School","address":"403 South Lee Street","grades":["Elementary"],"city":"Leesville","state":"SC","zip":"29070","phone":"(803) 532-1155","low":"3","high":"5","students":"491","cost":"No","url":"https:\/\/bles.lex3.org\/","review":"https:\/\/www.publicschoolreview.com\/batesburg-leesville-elementary-school-profile","virtual":"Yes"},{"title":"Batesburg - Leesville High School","lat":"33.92436","lon":"-81.537053","type":"Traditional Public School","address":"600 Summerland Avenue","grades":["High"],"city":"Batesburg","state":"SC","zip":"29006","phone":"(803) 532-9251","low":"9","high":"12","students":"548","cost":"No","url":"https:\/\/blhs.lex3.org\/","review":"https:\/\/www.publicschoolreview.com\/batesburg-leesville-high-school-profile","virtual":"Yes"},{"title":"Batesburg - Leesville Middle School","lat":"33.902747","lon":"-81.519306","type":"Traditional Public School","address":"425 Shealy Road","grades":["Middle"],"city":"Batesburg","state":"SC","zip":"29006","phone":"(803) 532-3831","low":"6","high":"8","students":"483","cost":"No","url":"https:\/\/blms.lex3.org\/","review":"https:\/\/www.publicschoolreview.com\/batesburg-leesville-middle-school-profile","virtual":"Yes"},{"title":"Batesburg - Leesville Primary School","lat":"33.933036","lon":"-81.537668","type":"Traditional Public School","address":"800 Summerland Avenue","grades":["Pre-K","Elementary"],"city":"Batesburg","state":"SC","zip":"29006","phone":"(803) 532-4452","low":"PK","high":"2","students":"498","cost":"No","url":"https:\/\/blps.lex3.org\/","review":"https:\/\/www.publicschoolreview.com\/batesburg-leesville-primary-school-profile","virtual":"Yes"},{"title":"Battery Creek High School","lat":"32.433437","lon":"-80.747642","type":"Traditional Public School","address":"1 Blue Dolphin Drive","grades":["High"],"city":"Beaufort","state":"SC","zip":"29906","phone":"(843) 322-5500","low":"9","high":"12","students":"766","cost":"No","url":"https:\/\/bchs.beaufortschools.net\/","review":"https:\/\/www.publicschoolreview.com\/battery-creek-high-school-profile","virtual":"Yes"},{"title":"Bay Road Elementary School","lat":"34.344305","lon":"-80.105045","type":"Traditional Public School","address":"1251 Bay Road","grades":["Pre-K","Elementary"],"city":"Hartsville","state":"SC","zip":"29550","phone":"(843) 398-6300","low":"PK","high":"5","students":"531","cost":"No","url":"","review":"https:\/\/www.publicschoolreview.com\/bay-road-elementary-school-profile","virtual":"Yes"},{"title":"Beaufort - Jasper Academy For Career Excellence","lat":"32.4881","lon":"-80.9853","type":"Specialized Public School","address":"80 Lowcountry Drive","grades":["High"],"city":"Ridgeland","state":"SC","zip":"29936","phone":"(843) 987-8107","low":"10","high":"12","students":"See website","cost":"No","url":"https:\/\/www.bjace.org\/","review":"https:\/\/www.publicschoolreview.com\/beaufort-jasper-academy-for-career-excellence-profile","virtual":"Yes"},{"title":"Beaufort Academy","lat":"32.4341","lon":"-80.6403","type":"Private School","address":"240 Sams Point Rd","grades":["Pre-K","Elementary","Middle","High"],"city":"Beaufort","state":"SC","zip":"29907","phone":"(843) 929-9207","low":"PK","high":"12","students":"286","cost":"Yes","url":"https:\/\/www.beaufortacademy.org\/","review":"https:\/\/www.privateschoolreview.com\/beaufort-academy-profile","virtual":"No"},{"title":"Beaufort Christian School","lat":"32.41126957","lon":"-80.7324715","type":"Private School","address":"378 Parris Island Gtwy","grades":["Pre-K","Elementary","Middle","High"],"city":"Beaufort","state":"SC","zip":"29906","phone":"(843) 525-0635","low":"PK","high":"12","students":"73","cost":"Yes","url":"http:\/\/victorybaptistministry.org\/","review":"https:\/\/www.privateschoolreview.com\/beaufort-christian-school-profile","virtual":"No"},{"title":"Beaufort Elementary School","lat":"32.435409","lon":"-80.682267","type":"Traditional Public School","address":"1800 Prince Street","grades":["Pre-K","Elementary"],"city":"Beaufort","state":"SC","zip":"29902","phone":"(843) 322-2600","low":"PK","high":"5","students":"375","cost":"No","url":"https:\/\/bes.beaufortschools.net\/","review":"https:\/\/www.publicschoolreview.com\/beaufort-elementary-school-profile\/29902","virtual":"Yes"},{"title":"Beaufort High School","lat":"32.415628","lon":"-80.660468","type":"Traditional Public School","address":"84 Sea Island Parkway","grades":["High"],"city":"Beaufort","state":"SC","zip":"29907","phone":"(843) 302-2000","low":"9","high":"12","students":"1204","cost":"No","url":"https:\/\/bhs.beaufortschools.net\/","review":"https:\/\/www.publicschoolreview.com\/beaufort-high-school-profile","virtual":"Yes"},{"title":"Beaufort Middle School","lat":"32.400579","lon":"-80.691706","type":"Traditional Public School","address":"2501 Mossy Oaks Boulevard","grades":["Middle"],"city":"Beaufort","state":"SC","zip":"29902","phone":"(843) 322-5700","low":"6","high":"8","students":"461","cost":"No","url":"https:\/\/bms.beaufortschools.net\/","review":"https:\/\/www.publicschoolreview.com\/beaufort-middle-school-profile\/29902","virtual":"Yes"},{"title":"Beck International Academy","lat":"34.836812","lon":"-82.32181","type":"Traditional Public School","address":"901 Woodruff Road","grades":["Middle"],"city":"Greenville","state":"SC","zip":"29607","phone":"(864) 355-1400","low":"6","high":"8","students":"893","cost":"No","url":"https:\/\/www.greenville.k12.sc.us\/beck\/index.asp","review":"https:\/\/www.publicschoolreview.com\/beck-international-academy-profile","virtual":"Yes"},{"title":"Beech Hill Elementary School","lat":"32.949726","lon":"-80.211155","type":"Traditional Public School","address":"1001 Beech Hill Road","grades":["Pre-K","Elementary"],"city":"Summerville","state":"SC","zip":"29485","phone":"(843) 821-3970","low":"PK","high":"5","students":"890","cost":"No","url":"https:\/\/www.ddtwo.org\/BHES","review":"https:\/\/www.publicschoolreview.com\/beech-hill-elementary-school-profile","virtual":"Yes"},{"title":"Beech Springs Intermediate","lat":"34.927003","lon":"-82.128759","type":"Traditional Public School","address":"200 South Danzler Road","grades":["Elementary","Middle"],"city":"Duncan","state":"SC","zip":"29334","phone":"(864) 949-7600","low":"5","high":"6","students":"653","cost":"No","url":"https:\/\/www.spart5.net\/bsis","review":"https:\/\/www.publicschoolreview.com\/beech-springs-intermediate-profile","virtual":"Yes"},{"title":"Beechwood Middle School","lat":"34.001558","lon":"-81.331375","type":"Traditional Public School","address":"1340 Highway 378","grades":["Middle"],"city":"Lexington","state":"SC","zip":"29072","phone":"(803) 821-5700","low":"6","high":"8","students":"998","cost":"No","url":"","review":"https:\/\/www.publicschoolreview.com\/beechwood-middle-school-profile","virtual":"Yes"},{"title":"Bell's Crossing Elementary School","lat":"34.766613","lon":"-82.204657","type":"Traditional Public School","address":"804 Scuffletown Road","grades":["Elementary"],"city":"Simpsonville","state":"SC","zip":"29681","phone":"(864) 355-3800","low":"K","high":"5","students":"893","cost":"No","url":"https:\/\/www.greenville.k12.sc.us\/bells\/index.asp","review":"https:\/\/www.publicschoolreview.com\/bell-s-crossing-elementary-school-profile","virtual":"Yes"},{"title":"Belle Hall Elementary School","lat":"32.848305","lon":"-79.854954","type":"Traditional Public School","address":"385 Egypt Road","grades":["Pre-K","Elementary"],"city":"Mount Pleasant","state":"SC","zip":"29464","phone":"(843) 849-2841","low":"PK","high":"5","students":"619","cost":"No","url":"https:\/\/bellehall.ccsdschools.com\/","review":"https:\/\/www.publicschoolreview.com\/belle-hall-elementary-school-profile","virtual":"Yes"},{"title":"Belleview Elementary School","lat":"34.919658","lon":"-81.002107","type":"Traditional Public School","address":"501 Belleview Road","grades":["Pre-K","Elementary"],"city":"Rock Hill","state":"SC","zip":"29730","phone":"(803) 981-1181","low":"PK","high":"5","students":"421","cost":"No","url":"https:\/\/www.rock-hill.k12.sc.us\/domain\/8","review":"https:\/\/www.publicschoolreview.com\/belleview-elementary-school-profile\/29730","virtual":"Yes"},{"title":"Bells Elementary School","lat":"32.978851","lon":"-80.850405","type":"Traditional Public School","address":"12088 Bells Highway","grades":["Pre-K","Elementary"],"city":"Ruffin","state":"SC","zip":"29475","phone":"(843) 782-0012","low":"PK","high":"5","students":"333","cost":"No","url":"https:\/\/bescolleton.ss19.sharpschool.com\/","review":"https:\/\/www.publicschoolreview.com\/bells-elementary-school-profile\/29475","virtual":"Yes"},{"title":"Belton Elementary School","lat":"34.515918","lon":"-82.492982","type":"Traditional Public School","address":"202 Watkins Street","grades":["Elementary"],"city":"Belton","state":"SC","zip":"29627","phone":"(864) 338-7738","low":"3","high":"5","students":"355","cost":"No","url":"https:\/\/bes.anderson2.org\/","review":"https:\/\/www.publicschoolreview.com\/belton-elementary-school-profile","virtual":"Yes"},{"title":"Belton Honea Path High School","lat":"34.471679","lon":"-82.429604","type":"Traditional Public School","address":"11000 Belton-honea Path Highwa","grades":["High"],"city":"Honea Path","state":"SC","zip":"29654","phone":"(864) 369-7382","low":"9","high":"12","students":"1065","cost":"No","url":"https:\/\/bhp.anderson2.org\/","review":"https:\/\/www.publicschoolreview.com\/belton-honea-path-high-school-profile","virtual":"Yes"},{"title":"Belton Middle School","lat":"34.515685","lon":"-82.510588","type":"Traditional Public School","address":"102 Cherokee Road","grades":["Middle"],"city":"Belton","state":"SC","zip":"29627","phone":"(864) 369-4712","low":"6","high":"8","students":"528","cost":"No","url":"https:\/\/bms.anderson2.org\/","review":"https:\/\/www.publicschoolreview.com\/belton-middle-school-profile","virtual":"Yes"},{"title":"Belton Preparatory Academy","lat":"34.496537","lon":"-82.534181","type":"Public Charter School","address":"5901 Belton Hwy","grades":["Elementary"],"city":"Belton","state":"SC","zip":"29627","phone":"(864) 314-0035","low":"K","high":"5","students":"See website","cost":"No","url":"https:\/\/beltonprep.us\/","review":"https:\/\/www.publicschoolreview.com\/belton-preparatory-academy-profile","virtual":"Yes"},{"title":"Belvedere Elementary School","lat":"33.528405","lon":"-81.937875","type":"Traditional Public School","address":"201 Rhomboid Place","grades":["Pre-K","Elementary"],"city":"North Augusta","state":"SC","zip":"29841","phone":"(803) 442-6330","low":"PK","high":"5","students":"603","cost":"No","url":"https:\/\/www.acpsd.net\/Domain\/27","review":"https:\/\/www.publicschoolreview.com\/belvedere-elementary-school-profile\/29841","virtual":"Yes"},{"title":"Ben Hazel Primary","lat":"32.878305","lon":"-81.120055","type":"Traditional Public School","address":"628 Railroad Avenue West","grades":["Pre-K","Elementary"],"city":"Hampton","state":"SC","zip":"29924","phone":"(803) 943-3659","low":"PK","high":"3","students":"220","cost":"No","url":"https:\/\/bhp.hampton1.org\/","review":"https:\/\/www.publicschoolreview.com\/ben-hazel-primary-profile","virtual":"Yes"},{"title":"Ben Lippen Lower School - St Andrews Rd","lat":"34.044972","lon":"-81.131042","type":"Private School","address":"500 Saint Andrews Road","grades":["Pre-K","Elementary"],"city":"Columbia","state":"SC","zip":"29210","phone":"(803) 807-4351","low":"NS","high":"4","students":"160","cost":"Yes","url":"https:\/\/www.benlippen.com\/","review":"https:\/\/www.privateschoolreview.com\/ben-lippen-lower-school-st-andrews-rd-profile","virtual":"No"},{"title":"Ben Lippen School","lat":"34.08100485","lon":"-81.06894408","type":"Private School","address":"7401 Monticello Road","grades":["Pre-K","Elementary","Middle","High"],"city":"Columbia","state":"SC","zip":"29203","phone":"(803) 807-4000","low":"NS","high":"12","students":"1038","cost":"Yes","url":"https:\/\/www.benlippen.com\/","review":"https:\/\/www.privateschoolreview.com\/ben-lippen-school-profile","virtual":"No"},{"title":"Bennettsville Intermediate","lat":"34.6242062","lon":"-79.6910238","type":"Traditional Public School","address":"701 Cheraw Street","grades":["Elementary"],"city":"Bennettsville","state":"SC","zip":"29512","phone":"(843) 479-5941","low":"4","high":"5","students":"225","cost":"No","url":"https:\/\/bis.marlboro.k12.sc.us\/","review":"https:\/\/www.publicschoolreview.com\/bennettsville-intermediate-profile","virtual":"Yes"},{"title":"Bennettsville Primary","lat":"34.634874","lon":"-79.68376","type":"Traditional Public School","address":"301 Jefferson Street","grades":["Pre-K","Elementary"],"city":"Bennettsville","state":"SC","zip":"29512","phone":"(843) 479-5936","low":"PK","high":"3","students":"547","cost":"No","url":"https:\/\/bps.marlboro.k12.sc.us\/","review":"https:\/\/www.publicschoolreview.com\/bennettsville-primary-profile","virtual":"Yes"},{"title":"Berea","lat":"34.018574","lon":"-80.986224","type":"Public Charter School","address":"3710 Landmark Drive Suite 201","grades":[],"city":"Columbia","state":"SC","zip":"29204","phone":"(803) 734-8322","low":"N","high":"N","students":"See website","cost":"No","url":"","review":"https:\/\/www.publicschoolreview.com\/berea-profile","virtual":"No"},{"title":"Berea Elementary School","lat":"34.877915","lon":"-82.459442","type":"Traditional Public School","address":"100 Berea Drive","grades":["Elementary"],"city":"Greenville","state":"SC","zip":"29617","phone":"(864) 355-1500","low":"K","high":"5","students":"465","cost":"No","url":"https:\/\/sites.google.com\/a\/greenvilleschools.us\/bereabullpups\/home","review":"https:\/\/www.publicschoolreview.com\/berea-elementary-school-profile\/29617","virtual":"Yes"},{"title":"Berea First Baptist Kindergar","lat":"34.893114","lon":"-82.470983","type":"Private School","address":"529 Farr\\'s Bridge Rd","grades":["Pre-K","Elementary"],"city":"Greenville","state":"SC","zip":"29611","phone":"(864) 294-9001","low":"PK","high":"K","students":"64","cost":"Yes","url":"https:\/\/www.bereafbc.org\/","review":"https:\/\/www.privateschoolreview.com\/berea-first-baptist-kindergar-profile","virtual":"No"},{"title":"Berea High School","lat":"34.87277","lon":"-82.463722","type":"Traditional Public School","address":"201 Burdine Drive","grades":["High"],"city":"Greenville","state":"SC","zip":"29617","phone":"(864) 355-1600","low":"9","high":"12","students":"1130","cost":"No","url":"http:\/\/sites.greenvilleschools.us\/bereahs\/home","review":"https:\/\/www.publicschoolreview.com\/berea-high-school-profile","virtual":"Yes"},{"title":"Berea Junior Academy","lat":"33.90333855","lon":"-80.33687415","type":"Private School","address":"675 S Lafayette Dr","grades":["Elementary","Middle"],"city":"Sumter","state":"SC","zip":"29150","phone":"(803) 773-6875","low":"K","high":"7","students":"27","cost":"Yes","url":"","review":"https:\/\/www.privateschoolreview.com\/berea-junior-academy-profile","virtual":"No"},{"title":"Berea Middle School","lat":"34.914376","lon":"-82.452963","type":"Traditional Public School","address":"151 Berea Middle School Road","grades":["Middle"],"city":"Greenville","state":"SC","zip":"29617","phone":"(864) 355-1700","low":"6","high":"8","students":"854","cost":"No","url":"https:\/\/www.greenville.k12.sc.us\/beream\/index.asp","review":"https:\/\/www.publicschoolreview.com\/berea-middle-school-profile","virtual":"Yes"},{"title":"Berean Christian Academy","lat":"34.70540017","lon":"-82.1932","type":"Private School","address":"812 Hellams St","grades":["Pre-K"],"city":"Fountain Inn","state":"SC","zip":"29644","phone":"(864) 409-0950","low":"NS","high":"NS","students":"19","cost":"Yes","url":"","review":"https:\/\/www.privateschoolreview.com\/berean-christian-academy-profile\/29644","virtual":"No"},{"title":"Berkeley County Middle College High School","lat":"33.1708057","lon":"-80.0454875","type":"Traditional Public School","address":"1001 South Live Oak Drive","grades":["High"],"city":"Moncks Corner","state":"SC","zip":"29461","phone":"(843) 899-8110","low":"11","high":"12","students":"115","cost":"No","url":"https:\/\/www.bcsdschools.net\/","review":"https:\/\/www.publicschoolreview.com\/berkeley-county-middle-college-high-school-profile","virtual":"Yes"},{"title":"Berkeley Elementary School","lat":"33.206107","lon":"-80.054456","type":"Traditional Public School","address":"715 Highway 6","grades":["Pre-K","Elementary"],"city":"Moncks Corner","state":"SC","zip":"29461","phone":"(843) 899-8860","low":"PK","high":"2","students":"541","cost":"No","url":"https:\/\/www.bcsdschools.net\/Domain\/9","review":"https:\/\/www.publicschoolreview.com\/berkeley-elementary-school-profile\/29461","virtual":"Yes"},{"title":"Berkeley High School","lat":"33.200676","lon":"-80.026987","type":"Traditional Public School","address":"406 West Main Street","grades":["High"],"city":"Moncks Corner","state":"SC","zip":"29461","phone":"(843) 899-8800","low":"9","high":"12","students":"1801","cost":"No","url":"https:\/\/www.bcsdschools.net\/Domain\/10","review":"https:\/\/www.publicschoolreview.com\/berkeley-high-school-profile\/29461","virtual":"Yes"},{"title":"Berkeley Intermediate","lat":"33.195013","lon":"-79.978634","type":"Traditional Public School","address":"777 Stony Landing Road","grades":["Elementary"],"city":"Moncks Corner","state":"SC","zip":"29461","phone":"(843) 899-8870","low":"3","high":"5","students":"608","cost":"No","url":"https:\/\/www.bcsdschools.net\/Domain\/11","review":"https:\/\/www.publicschoolreview.com\/berkeley-intermediate-profile","virtual":"Yes"},{"title":"Berkeley Middle School","lat":"33.200985","lon":"-79.994934","type":"Traditional Public School","address":"320 North Live Oak Drive","grades":["Middle"],"city":"Moncks Corner","state":"SC","zip":"29461","phone":"(843) 899-8840","low":"6","high":"8","students":"1448","cost":"No","url":"https:\/\/www.bcsdschools.net\/Domain\/12","review":"https:\/\/www.publicschoolreview.com\/berkeley-middle-school-profile\/29461","virtual":"Yes"},{"title":"Berkeley Preparatory Academy","lat":"34.001433","lon":"-81.033535","type":"Public Charter School","address":"1201 Main Street Suite 300","grades":[],"city":"Columbia","state":"SC","zip":"29201","phone":"(803) 849-2464","low":"N","high":"N","students":"See website","cost":"No","url":"","review":"https:\/\/www.publicschoolreview.com\/berkeley-preparatory-academy-profile","virtual":"No"},{"title":"Berry Shoals Intermediate","lat":"34.898713","lon":"-82.076152","type":"Traditional Public School","address":"300 Shoals Road","grades":["Elementary","Middle"],"city":"Duncan","state":"SC","zip":"29334","phone":"(864) 949-2300","low":"5","high":"6","students":"716","cost":"No","url":"https:\/\/www.spart5.net\/site\/default.aspx?domainid=464","review":"https:\/\/www.publicschoolreview.com\/berry-shoals-intermediate-profile","virtual":"Yes"},{"title":"Bethany Child Development Center","lat":"33.0178","lon":"-80.1806","type":"Private School","address":"118 W 3rd South St","grades":["Pre-K","Elementary"],"city":"Summerville","state":"SC","zip":"29483","phone":"(843) 821-1946","low":"PK","high":"K","students":"168","cost":"Yes","url":"http:\/\/www.bethany-umc.com","review":"https:\/\/www.privateschoolreview.com\/bethany-child-development-center-profile\/29483","virtual":"No"},{"title":"Bethany Elementary School","lat":"35.122202","lon":"-81.306066","type":"Traditional Public School","address":"337 Maynard Grayson Road","grades":["Pre-K","Elementary"],"city":"Clover","state":"SC","zip":"29710","phone":"(803) 810-8800","low":"PK","high":"5","students":"368","cost":"No","url":"https:\/\/www.clover.k12.sc.us\/bethany","review":"https:\/\/www.publicschoolreview.com\/bethany-elementary-school-profile\/29710","virtual":"Yes"},{"title":"Bethel - Hanberry Elementary School","lat":"34.218552","lon":"-80.979091","type":"Traditional Public School","address":"125 Boney Road","grades":["Pre-K","Elementary"],"city":"Blythewood","state":"SC","zip":"29016","phone":"(803) 691-6880","low":"PK","high":"5","students":"812","cost":"No","url":"https:\/\/www.richland2.org\/bhe","review":"https:\/\/www.publicschoolreview.com\/bethel-hanberry-elementary-school-profile","virtual":"Yes"},{"title":"Bethel Child Care Learning Center","lat":"33.826702","lon":"-80.39606","type":"Private School","address":"2401 Bethel Church Road","grades":["Pre-K","Elementary"],"city":"Sumter","state":"SC","zip":"29154","phone":"(803) 481-5340","low":"PK","high":"K","students":"80","cost":"Yes","url":"https:\/\/www.bethelbaptistsumter.org\/bethel-day-care.html","review":"","virtual":"No"},{"title":"Bethel Child Enrichment","lat":"34.946248","lon":"-81.929075","type":"Private School","address":"245 S Church Street","grades":["Pre-K","Elementary"],"city":"Spartanburg","state":"SC","zip":"29306","phone":"(864) 585-8356","low":"PK","high":"K","students":"38","cost":"Yes","url":"https:\/\/bethelmethodist.org\/","review":"","virtual":"No"},{"title":"Bethel Elementary School","lat":"35.087899","lon":"-81.123507","type":"Traditional Public School","address":"6000 Highway 55 East","grades":["Pre-K","Elementary"],"city":"Clover","state":"SC","zip":"29710","phone":"(803) 631-8300","low":"PK","high":"5","students":"316","cost":"No","url":"https:\/\/www.clover.k12.sc.us\/bethel","review":"https:\/\/www.publicschoolreview.com\/bethel-elementary-school-profile\/29710","virtual":"Yes"},{"title":"Bethel Elementary School","lat":"34.776481","lon":"-82.277419","type":"Traditional Public School","address":"111 Bethel School Road","grades":["Elementary"],"city":"Simpsonville","state":"SC","zip":"29681","phone":"(864) 355-4100","low":"K","high":"5","students":"891","cost":"No","url":"https:\/\/www.greenville.k12.sc.us\/Bethel\/index.asp","review":"https:\/\/www.publicschoolreview.com\/bethel-elementary-school-profile\/29681","virtual":"Yes"},{"title":"Bethel Learning Center","lat":"34.0006208","lon":"-81.0059295","type":"Private School","address":"819 Woodrow St","grades":["Pre-K","Elementary"],"city":"Columbia","state":"SC","zip":"29205","phone":"(803) 779-1816","low":"PK","high":"1","students":"119","cost":"Yes","url":"https:\/\/bethelcolumbia.org\/","review":"https:\/\/www.privateschoolreview.com\/bethel-learning-center-profile","virtual":"No"},{"title":"Bethune - Bowman Elementary School","lat":"33.397358","lon":"-80.733686","type":"Traditional Public School","address":"4857 Charleston Highway","grades":["Pre-K","Elementary"],"city":"Rowesville","state":"SC","zip":"29133","phone":"(803) 533-6371","low":"PK","high":"5","students":"277","cost":"No","url":"","review":"https:\/\/www.publicschoolreview.com\/bethune-bowman-elementary-school-profile","virtual":"Yes"},{"title":"Bethune - Bowman Middle\/High","lat":"33.397358","lon":"-80.733686","type":"Traditional Public School","address":"4857 Charleston Highway","grades":["Middle","High"],"city":"Rowesville","state":"SC","zip":"29133","phone":"(803) 516-6011","low":"6","high":"12","students":"360","cost":"No","url":"http:\/\/bbmh.ocsd5.net\/","review":"https:\/\/www.publicschoolreview.com\/bethune-bowman-middle-high-profile","virtual":"Yes"},{"title":"Bethune Elementary School","lat":"34.412274","lon":"-80.341881","type":"Traditional Public School","address":"302 Norwood Street East","grades":["Pre-K","Elementary"],"city":"Bethune","state":"SC","zip":"29009","phone":"(843) 334-6278","low":"PK","high":"5","students":"115","cost":"No","url":"https:\/\/www.kcsdschools.net\/Domain\/9","review":"https:\/\/www.publicschoolreview.com\/bethune-elementary-school-profile\/29009","virtual":"Yes"},{"title":"Bettis Preparatory Leadership Academy","lat":"33.698302","lon":"-81.864218","type":"Public Charter School","address":"69 Nicholson Road","grades":["Elementary","Middle"],"city":"Trenton","state":"SC","zip":"29847","phone":"(803) 663-7266","low":"K","high":"7","students":"80","cost":"No","url":"","review":"https:\/\/www.publicschoolreview.com\/bettis-preparatory-leadership-academy-profile","virtual":"Yes"},{"title":"Beverly White","lat":"34.4994144","lon":"-82.5229779","type":"Private School","address":"PO Box 413","grades":["Pre-K","Elementary","Middle","High"],"city":"Belton","state":"SC","zip":"29627","phone":"(864) 381-5248","low":"NS","high":"12","students":"See website","cost":"Yes","url":"https:\/\/iaminhisimage.org\/index.html","review":"https:\/\/www.privateschoolreview.com\/beverly-white-profile","virtual":"No"},{"title":"Bishop England High School","lat":"32.8566886","lon":"-79.9165869","type":"Private School","address":"363 Seven Farms Dr","grades":["High"],"city":"Charleston","state":"SC","zip":"29492","phone":"(843) 849-9599","low":"9","high":"12","students":"730","cost":"Yes","url":"https:\/\/www.behs.com\/","review":"https:\/\/www.privateschoolreview.com\/bishop-england-high-school-profile","virtual":"No"},{"title":"Black Street Early Childhood Center","lat":"32.892349","lon":"-80.646684","type":"Traditional Public School","address":"256 Smith Street","grades":["Pre-K","Elementary"],"city":"Walterboro","state":"SC","zip":"29488","phone":"(843) 782-4516","low":"PK","high":"K","students":"326","cost":"No","url":"https:\/\/www.colleton.k12.sc.us\/","review":"https:\/\/www.publicschoolreview.com\/black-street-early-childhood-center-profile","virtual":"Yes"},{"title":"Black Water Middle School","lat":"33.814335","lon":"-78.986027","type":"Traditional Public School","address":"900 East Cox Ferry Road","grades":["Middle"],"city":"Conway","state":"SC","zip":"29526","phone":"(843) 903-8440","low":"6","high":"8","students":"756","cost":"No","url":"https:\/\/www.horrycountyschools.net\/Black_Water_Middle_School","review":"https:\/\/www.publicschoolreview.com\/black-water-middle-school-profile","virtual":"Yes"},{"title":"Blacksburg Elementary School","lat":"35.115775","lon":"-81.517367","type":"Traditional Public School","address":"402 Hardin Street","grades":["Elementary"],"city":"Blacksburg","state":"SC","zip":"29702","phone":"(864) 206-6518","low":"3","high":"5","students":"322","cost":"No","url":"https:\/\/bes.cherokee1.org\/","review":"https:\/\/www.publicschoolreview.com\/blacksburg-elementary-school-profile","virtual":"Yes"},{"title":"Blacksburg High School","lat":"35.115199","lon":"-81.513469","type":"Traditional Public School","address":"201 West Ramseur Drive","grades":["High"],"city":"Blacksburg","state":"SC","zip":"29702","phone":"(864) 206-2378","low":"9","high":"12","students":"534","cost":"No","url":"https:\/\/bhs.mcps.org\/","review":"https:\/\/www.publicschoolreview.com\/blacksburg-high-school-profile","virtual":"Yes"},{"title":"Blacksburg Middle School","lat":"35.113671","lon":"-81.516678","type":"Traditional Public School","address":"101 London Street","grades":["Middle"],"city":"Blacksburg","state":"SC","zip":"29702","phone":"(864) 206-6829","low":"6","high":"8","students":"409","cost":"No","url":"https:\/\/bms.cherokee1.org\/","review":"https:\/\/www.publicschoolreview.com\/blacksburg-middle-school-profile","virtual":"Yes"},{"title":"Blacksburg Primary","lat":"35.127974","lon":"-81.498025","type":"Traditional Public School","address":"1010 East Cherokee Street","grades":["Pre-K","Elementary"],"city":"Blacksburg","state":"SC","zip":"29702","phone":"(864) 206-6936","low":"PK","high":"2","students":"357","cost":"No","url":"https:\/\/bps.cherokee1.org\/","review":"https:\/\/www.publicschoolreview.com\/blacksburg-primary-profile","virtual":"Yes"},{"title":"Blackville - Hilda High School","lat":"33.363479","lon":"-81.26507","type":"Traditional Public School","address":"76 Atkins Circle","grades":["High"],"city":"Blackville","state":"SC","zip":"29817","phone":"(803) 284-5700","low":"9","high":"12","students":"165","cost":"No","url":"https:\/\/www.barnwell19.k12.sc.us:443\/1\/Home","review":"https:\/\/www.publicschoolreview.com\/blackville-hilda-high-school-profile","virtual":"Yes"},{"title":"Blaney Elementary School","lat":"34.180743","lon":"-80.788516","type":"Traditional Public School","address":"1621 Smyrna Road","grades":["Pre-K","Elementary"],"city":"Elgin","state":"SC","zip":"29045","phone":"(803) 438-3241","low":"PK","high":"5","students":"669","cost":"No","url":"https:\/\/www.kcsdschools.net\/Domain\/10","review":"https:\/\/www.publicschoolreview.com\/blaney-elementary-school-profile","virtual":"Yes"},{"title":"Blenheim Middle School Of Discovery","lat":"34.486264","lon":"-79.637292","type":"Traditional Public School","address":"143 Highland Street","grades":["Middle"],"city":"Blenheim","state":"SC","zip":"29516","phone":"(843) 528-3262","low":"6","high":"8","students":"573","cost":"No","url":"","review":"https:\/\/www.publicschoolreview.com\/blenheim-middle-school-of-discovery-profile","virtual":"Yes"},{"title":"Blessed Sacrament School","lat":"32.7822","lon":"-79.98278602","type":"Private School","address":"7 Saint Teresa Dr","grades":["Pre-K","Elementary","Middle"],"city":"Charleston","state":"SC","zip":"29407","phone":"(843) 766-2128","low":"PK","high":"8","students":"269","cost":"Yes","url":"https:\/\/www.scbss.org\/","review":"https:\/\/www.privateschoolreview.com\/blessed-sacrament-school-profile\/29407","virtual":"No"},{"title":"Blue Ridge Elementary School","lat":"34.670708","lon":"-82.956846","type":"Traditional Public School","address":"995 South Oak Street","grades":["Pre-K","Elementary"],"city":"Seneca","state":"SC","zip":"29678","phone":"(864) 886-4550","low":"PK","high":"5","students":"589","cost":"No","url":"http:\/\/bre.oconee.k12.sc.us\/","review":"https:\/\/www.publicschoolreview.com\/blue-ridge-elementary-school-profile\/29678","virtual":"Yes"},{"title":"Blue Ridge High School","lat":"35.040612","lon":"-82.281211","type":"Traditional Public School","address":"2151 Fews Chapel Road","grades":["High"],"city":"Greer","state":"SC","zip":"29651","phone":"(864) 355-1800","low":"9","high":"12","students":"1010","cost":"No","url":"https:\/\/www.greenville.k12.sc.us\/bridgehs\/index.asp","review":"https:\/\/www.publicschoolreview.com\/blue-ridge-high-school-profile\/29651","virtual":"Yes"},{"title":"Blue Ridge Middle School","lat":"35.041978","lon":"-82.30747","type":"Traditional Public School","address":"2423 East Tyger Bridge Road","grades":["Middle"],"city":"Greer","state":"SC","zip":"29651","phone":"(864) 355-1900","low":"6","high":"8","students":"951","cost":"No","url":"https:\/\/www.greenville.k12.sc.us\/bridgems\/index.asp","review":"https:\/\/www.publicschoolreview.com\/blue-ridge-middle-school-profile","virtual":"Yes"},{"title":"Bluffton Elementary School","lat":"32.252868","lon":"-80.898747","type":"Traditional Public School","address":"160 H.e. Mccracken Circle","grades":["Pre-K","Elementary"],"city":"Bluffton","state":"SC","zip":"29910","phone":"(843) 706-8500","low":"PK","high":"5","students":"753","cost":"No","url":"https:\/\/bles.beaufortschools.net\/","review":"https:\/\/www.publicschoolreview.com\/bluffton-elementary-school-profile\/29910","virtual":"Yes"},{"title":"Bluffton High School","lat":"32.245491","lon":"-80.90128","type":"Traditional Public School","address":"12 H. E. Mccracken Circle","grades":["High"],"city":"Bluffton","state":"SC","zip":"29910","phone":"(843) 706-8800","low":"9","high":"12","students":"1289","cost":"No","url":"https:\/\/blhs.beaufortschools.net\/","review":"https:\/\/www.publicschoolreview.com\/bluffton-high-school-profile\/29910","virtual":"Yes"},{"title":"Bluffton Middle School","lat":"32.2550705","lon":"-80.8755745","type":"Traditional Public School","address":"30 New Mustang Road","grades":["Middle"],"city":"Bluffton","state":"SC","zip":"29910","phone":"(843) 707-0700","low":"6","high":"8","students":"823","cost":"No","url":"https:\/\/blms.beaufortschools.net\/","review":"https:\/\/www.publicschoolreview.com\/bluffton-middle-school-profile\/29910","virtual":"Yes"},{"title":"Blythe Academy","lat":"34.810963","lon":"-82.383728","type":"Traditional Public School","address":"100 Blythe Drive","grades":["Pre-K","Elementary"],"city":"Greenville","state":"SC","zip":"29605","phone":"(864) 355-4400","low":"PK","high":"5","students":"839","cost":"No","url":"https:\/\/www.greenville.k12.sc.us\/blythe\/index.asp","review":"https:\/\/www.publicschoolreview.com\/blythe-academy-profile","virtual":"Yes"},{"title":"Blythewood High School","lat":"34.208253","lon":"-80.974703","type":"Traditional Public School","address":"10901 Wilson Boulevard","grades":["High"],"city":"Blythewood","state":"SC","zip":"29016","phone":"(803) 691-4090","low":"9","high":"12","students":"1858","cost":"No","url":"https:\/\/www.richland2.org\/bh","review":"https:\/\/www.publicschoolreview.com\/blythewood-high-school-profile","virtual":"Yes"},{"title":"Blythewood Middle School","lat":"34.189699","lon":"-80.926046","type":"Traditional Public School","address":"2351 Longtown Road East","grades":["Middle"],"city":"Blythewood","state":"SC","zip":"29016","phone":"(803) 691-6850","low":"6","high":"8","students":"849","cost":"No","url":"https:\/\/www.richland2.org\/bm","review":"https:\/\/www.publicschoolreview.com\/blythewood-middle-school-profile","virtual":"Yes"},{"title":"Bob Jones Academy","lat":"34.8526176","lon":"-82.3940104","type":"Private School","address":"1700 Wade Hampton Blvd","grades":["Pre-K","Elementary","Middle","High"],"city":"Greenville","state":"SC","zip":"29614","phone":"(864) 770-1395","low":"PK","high":"12","students":"1302","cost":"Yes","url":"https:\/\/www.bobjonesacademy.net\/","review":"https:\/\/www.privateschoolreview.com\/bob-jones-academy-profile","virtual":"No"},{"title":"Boiling Springs Elementary School","lat":"35.038689","lon":"-81.985474","type":"Traditional Public School","address":"700 Double Bridge Road","grades":["Pre-K","Elementary"],"city":"Boiling Springs","state":"SC","zip":"29316","phone":"(864) 578-1231","low":"PK","high":"4","students":"767","cost":"No","url":"https:\/\/bse.spart2.org\/","review":"https:\/\/www.publicschoolreview.com\/boiling-springs-elementary-school-profile\/29316","virtual":"Yes"},{"title":"Boiling Springs High School","lat":"35.04506","lon":"-81.971767","type":"Traditional Public School","address":"2251 Old Furnace Road","grades":["High"],"city":"Boiling Springs","state":"SC","zip":"29316","phone":"(864) 578-8465","low":"9","high":"12","students":"2481","cost":"No","url":"https:\/\/bsh.spart2.org\/","review":"https:\/\/www.publicschoolreview.com\/boiling-springs-high-school-profile","virtual":"Yes"},{"title":"Boiling Springs Intermediate","lat":"35.046888","lon":"-81.984863","type":"Traditional Public School","address":"2055 Hanging Rock Road","grades":["Elementary"],"city":"Boiling Springs","state":"SC","zip":"29316","phone":"(864) 578-2884","low":"5","high":"5","students":"583","cost":"No","url":"https:\/\/sre.spart2.org\/","review":"https:\/\/www.publicschoolreview.com\/boiling-springs-intermediate-profile","virtual":"Yes"},{"title":"Boiling Springs Middle School","lat":"35.065104","lon":"-82.007035","type":"Traditional Public School","address":"4801 Highway 9","grades":["Middle"],"city":"Inman","state":"SC","zip":"29349","phone":"(864) 578-5954","low":"6","high":"8","students":"1171","cost":"No","url":"https:\/\/bsm.spart2.org\/","review":"https:\/\/www.publicschoolreview.com\/boiling-springs-middle-school-profile","virtual":"Yes"},{"title":"Bookman Road Elementary School","lat":"34.1541","lon":"-80.84742","type":"Traditional Public School","address":"1245 Bookman Road","grades":["Pre-K","Elementary"],"city":"Elgin","state":"SC","zip":"29045","phone":"(803) 699-1724","low":"PK","high":"5","students":"484","cost":"No","url":"https:\/\/www.richland2.org\/bre","review":"https:\/\/www.publicschoolreview.com\/bookman-road-elementary-school-profile","virtual":"Yes"},{"title":"Boulder Bluff Elementary School","lat":"33.02435","lon":"-80.027621","type":"Traditional Public School","address":"400 Judy Drive","grades":["Pre-K","Elementary"],"city":"Goose Creek","state":"SC","zip":"29445","phone":"(843) 553-1223","low":"PK","high":"5","students":"643","cost":"No","url":"https:\/\/www.bcsdschools.net\/Domain\/14","review":"https:\/\/www.publicschoolreview.com\/boulder-bluff-elementary-school-profile","virtual":"Yes"},{"title":"Boulvard Child Enrichment Center","lat":"34.515626","lon":"-82.645169","type":"Private School","address":"700 Boulevard","grades":["Pre-K","Elementary"],"city":"Anderson","state":"SC","zip":"29621","phone":"(864) 225-8696","low":"PK","high":"K","students":"99","cost":"Yes","url":"","review":"https:\/\/www.privateschoolreview.com\/boulvard-child-enrichment-center-profile","virtual":"No"},{"title":"Boundary St. Elementary School","lat":"34.273128","lon":"-81.61699","type":"Traditional Public School","address":"1406 Boundary Street","grades":["Pre-K","Elementary"],"city":"Newberry","state":"SC","zip":"29108","phone":"(803) 321-2616","low":"PK","high":"5","students":"471","cost":"No","url":"https:\/\/www.boundarystreet.org\/","review":"https:\/\/www.publicschoolreview.com\/boundary-st-elementary-school-profile","virtual":"Yes"},{"title":"Bowen's Corner Elementary School","lat":"32.946746","lon":"-80.004691","type":"Traditional Public School","address":"1173 Williams Lane","grades":["Pre-K","Elementary"],"city":"Moncks Corner","state":"SC","zip":"29461","phone":"(843) 572-5567","low":"PK","high":"5","students":"725","cost":"No","url":"","review":"https:\/\/www.publicschoolreview.com\/bowen-s-corner-elementary-school-profile","virtual":"Yes"},{"title":"Bradley Elementary School","lat":"34.0299","lon":"-80.993555","type":"Traditional Public School","address":"3032 Pinebelt Road","grades":["Pre-K","Elementary"],"city":"Columbia","state":"SC","zip":"29204","phone":"(803) 738-7200","low":"PK","high":"5","students":"378","cost":"No","url":"https:\/\/www.richlandone.org\/Domain\/10","review":"https:\/\/www.publicschoolreview.com\/bradley-elementary-school-profile\/29204","virtual":"Yes"},{"title":"Branchville High School","lat":"33.244532","lon":"-80.790046","type":"Traditional Public School","address":"1349 Dorange Road","grades":["Middle","High"],"city":"Branchville","state":"SC","zip":"29432","phone":"(803) 274-8875","low":"6","high":"12","students":"319","cost":"No","url":"","review":"https:\/\/www.publicschoolreview.com\/branchville-high-school-profile","virtual":"Yes"},{"title":"Brashier Middle College Charter High School","lat":"34.709182","lon":"-82.308645","type":"Public Charter School","address":"1830 West Georgia Road Buildin","grades":["High"],"city":"Simpsonville","state":"SC","zip":"29680","phone":"(864) 757-1800","low":"9","high":"12","students":"445","cost":"No","url":"","review":"https:\/\/www.publicschoolreview.com\/brashier-middle-college-charter-high-school-profile","virtual":"Yes"},{"title":"Brennen Elementary School","lat":"33.999726","lon":"-80.975409","type":"Traditional Public School","address":"4438 Devereaux Road","grades":["Pre-K","Elementary"],"city":"Columbia","state":"SC","zip":"29205","phone":"(803) 738-7204","low":"PK","high":"5","students":"758","cost":"No","url":"https:\/\/www.richlandone.org\/Domain\/11","review":"https:\/\/www.publicschoolreview.com\/brennen-elementary-school-profile","virtual":"Yes"},{"title":"Brewer Middle School","lat":"34.217628","lon":"-82.102063","type":"Traditional Public School","address":"1000 Emerald Road","grades":["Middle"],"city":"Greenwood","state":"SC","zip":"29646","phone":"(864) 941-5500","low":"6","high":"8","students":"697","cost":"No","url":"https:\/\/brw.gwd50.org\/","review":"https:\/\/www.publicschoolreview.com\/brewer-middle-school-profile","virtual":"Yes"},{"title":"Bridge Creek Elementary School","lat":"34.166897","lon":"-80.860707","type":"Traditional Public School","address":"121 Bombing Range Road","grades":["Pre-K","Elementary"],"city":"Elgin","state":"SC","zip":"29045","phone":"(803) 462-3900","low":"PK","high":"5","students":"579","cost":"No","url":"https:\/\/www.richland2.org\/BCE\/","review":"https:\/\/www.publicschoolreview.com\/bridge-creek-elementary-school-profile\/29045","virtual":"Yes"},{"title":"Bridges Preparatory School","lat":"32.4393","lon":"-80.6746","type":"Public Charter School","address":"1100 Boundary St","grades":["Elementary","Middle","High"],"city":"Hollywood","state":"SC","zip":"29449","phone":"(843) 982-7737","low":"K","high":"12","students":"1064","cost":"No","url":"https:\/\/www.bridgesprep.org\/","review":"https:\/\/www.publicschoolreview.com\/bridges-preparatory-school-profile","virtual":"Yes"},{"title":"Bridgewater Academy Charter","lat":"33.717911","lon":"-78.937432","type":"Public Charter School","address":"191 River Landing Boulevard","grades":["Elementary","Middle"],"city":"Myrtle Beach","state":"SC","zip":"29579","phone":"(843) 236-3689","low":"K","high":"8","students":"145","cost":"No","url":"http:\/\/www.bridgewateracademy.org\/","review":"https:\/\/www.publicschoolreview.com\/bridgewater-academy-charter-profile","virtual":"Yes"},{"title":"Briggs Elementary School","lat":"34.177815","lon":"-79.78114","type":"Traditional Public School","address":"1012 Congaree Drive","grades":["Elementary","Middle"],"city":"Florence","state":"SC","zip":"29501","phone":"(843) 664-8169","low":"K","high":"6","students":"510","cost":"No","url":"https:\/\/www.fsd1.org\/Briggs","review":"https:\/\/www.publicschoolreview.com\/briggs-elementary-school-profile\/29501","virtual":"Yes"},{"title":"Bright Beginnings Creative Day Car","lat":"33.939048","lon":"-80.382525","type":"Private School","address":"416 S WISE DRIVE","grades":["Pre-K"],"city":"Sumter","state":"SC","zip":"29150","phone":"(803) 773-4300","low":"NS","high":"PK","students":"101","cost":"Yes","url":"https:\/\/www.bb-daycare.com\/","review":"https:\/\/www.privateschoolreview.com\/bright-beginnings-creative-day-car-profile","virtual":"No"},{"title":"Brighter Children Learning Center","lat":"33.490367","lon":"-80.828359","type":"Private School","address":"1830 Old Whittaker Pkwy","grades":["Pre-K","Elementary"],"city":"Orangeburg","state":"SC","zip":"29115","phone":"(803) 937-5701","low":"PK","high":"1","students":"28","cost":"Yes","url":"","review":"","virtual":"No"},{"title":"Broad River Elementary School","lat":"32.437708","lon":"-80.720861","type":"Traditional Public School","address":"474 Broad River Road","grades":["Pre-K","Elementary"],"city":"Beaufort","state":"SC","zip":"29906","phone":"(843) 322-8400","low":"PK","high":"5","students":"446","cost":"No","url":"https:\/\/bres.beaufortschools.net\/","review":"https:\/\/www.publicschoolreview.com\/broad-river-elementary-school-profile","virtual":"Yes"},{"title":"Broad River High School","lat":"34.068059","lon":"-81.117752","type":"Specialized Public School","address":"4460 Broad River Road","grades":["High"],"city":"Columbia","state":"SC","zip":"29210","phone":"(803) 896-2714","low":"9","high":"12","students":"See website","cost":"No","url":"","review":"https:\/\/www.publicschoolreview.com\/broad-river-high-school-profile","virtual":"Yes"},{"title":"Brockington Elementary School","lat":"34.125631","lon":"-79.9325","type":"Traditional Public School","address":"304 Kemper Street","grades":["Pre-K","Elementary"],"city":"Timmonsville","state":"SC","zip":"29161","phone":"(843) 346-3956","low":"PK","high":"5","students":"332","cost":"No","url":"http:\/\/www.florence4.k12.sc.us\/","review":"https:\/\/www.publicschoolreview.com\/brockington-elementary-school-profile\/29161","virtual":"Yes"},{"title":"Brockington Elementary School","lat":"34.288118","lon":"-79.885872","type":"Traditional Public School","address":"413 Brockington Road","grades":["Elementary"],"city":"Darlington","state":"SC","zip":"29532","phone":"(843) 398-2500","low":"3","high":"5","students":"337","cost":"No","url":"https:\/\/bes.dcsdschools.org\/","review":"https:\/\/www.publicschoolreview.com\/brockington-elementary-school-profile","virtual":"Yes"},{"title":"Brockman Elementary School","lat":"34.026532","lon":"-80.973864","type":"Traditional Public School","address":"2245 Montclair Drive","grades":["Pre-K","Elementary"],"city":"Columbia","state":"SC","zip":"29206","phone":"(803) 790-6743","low":"PK","high":"5","students":"283","cost":"No","url":"https:\/\/www.richlandone.org\/Domain\/12","review":"https:\/\/www.publicschoolreview.com\/brockman-elementary-school-profile","virtual":"Yes"},{"title":"Brook Glenn Elementary School","lat":"34.908732","lon":"-82.311083","type":"Traditional Public School","address":"2003 East Lee Road","grades":["Pre-K","Elementary"],"city":"Taylors","state":"SC","zip":"29687","phone":"(864) 355-4700","low":"PK","high":"5","students":"385","cost":"No","url":"https:\/\/www.greenville.k12.sc.us\/bglenn\/index.asp","review":"https:\/\/www.publicschoolreview.com\/brook-glenn-elementary-school-profile","virtual":"Yes"},{"title":"Brookdale Elementary School","lat":"33.508345","lon":"-80.828822","type":"Traditional Public School","address":"394 Brookdale Drive","grades":["Pre-K","Elementary"],"city":"Orangeburg","state":"SC","zip":"29115","phone":"(803) 534-5982","low":"PK","high":"5","students":"280","cost":"No","url":"http:\/\/bes.ocsd5.net\/","review":"https:\/\/www.publicschoolreview.com\/brookdale-elementary-school-profile\/29115","virtual":"Yes"},{"title":"Brookland - Cayce High School","lat":"33.981881","lon":"-81.055229","type":"Traditional Public School","address":"1300 State Street","grades":["High"],"city":"Cayce","state":"SC","zip":"29033","phone":"(803) 791-5000","low":"9","high":"12","students":"1075","cost":"No","url":"https:\/\/bchs.lex2.org\/","review":"https:\/\/www.publicschoolreview.com\/brookland-cayce-high-school-profile","virtual":"Yes"},{"title":"Brooklyn Springs Elementary School","lat":"34.699394","lon":"-80.781862","type":"Traditional Public School","address":"1637 Billings Drive","grades":["Pre-K","Elementary"],"city":"Lancaster","state":"SC","zip":"29720","phone":"(803) 283-8471","low":"PK","high":"5","students":"420","cost":"No","url":"https:\/\/bses.lancastercsd.com\/","review":"https:\/\/www.publicschoolreview.com\/brooklyn-springs-elementary-school-profile","virtual":"Yes"},{"title":"Broome High School","lat":"34.984943","lon":"-81.844415","type":"Traditional Public School","address":"381 Cherry Hill Road","grades":["High"],"city":"Spartanburg","state":"SC","zip":"29307","phone":"(864) 279-6700","low":"9","high":"12","students":"841","cost":"No","url":"https:\/\/broome.spartanburg3.org\/gettysdbroomehigh_home.aspx","review":"https:\/\/www.publicschoolreview.com\/broome-high-school-profile","virtual":"Yes"},{"title":"Brown's Ferry Elementary School","lat":"33.499157","lon":"-79.362431","type":"Traditional Public School","address":"7292 Brown's Ferry Road","grades":["Pre-K","Elementary"],"city":"Georgetown","state":"SC","zip":"29440","phone":"(843) 527-1325","low":"PK","high":"5","students":"143","cost":"No","url":"https:\/\/www.bfe.gcsd.k12.sc.us\/","review":"https:\/\/www.publicschoolreview.com\/brown-s-ferry-elementary-school-profile","virtual":"Yes"},{"title":"Brunson Elementary School","lat":"32.923626","lon":"-81.187635","type":"Traditional Public School","address":"34 College Street","grades":["Pre-K","Elementary","Middle"],"city":"Brunson","state":"SC","zip":"29911","phone":"(803) 398-5584","low":"PK","high":"6","students":"169","cost":"No","url":"https:\/\/bes.hampton1.org\/","review":"https:\/\/www.publicschoolreview.com\/brunson-elementary-school-profile\/29911","virtual":"Yes"},{"title":"Brushy Creek Elementary School","lat":"34.893925","lon":"-82.29748","type":"Traditional Public School","address":"1344 Brushy Creek Road","grades":["Pre-K","Elementary"],"city":"Taylors","state":"SC","zip":"29687","phone":"(864) 355-5400","low":"PK","high":"5","students":"731","cost":"No","url":"https:\/\/www.greenville.k12.sc.us\/bcreek\/index.asp","review":"https:\/\/www.publicschoolreview.com\/brushy-creek-elementary-school-profile","virtual":"Yes"},{"title":"Bryson Elementary School","lat":"34.712588","lon":"-82.219583","type":"Traditional Public School","address":"703 Bryson Drive","grades":["Elementary"],"city":"Simpsonville","state":"SC","zip":"29681","phone":"(864) 355-3600","low":"K","high":"5","students":"791","cost":"No","url":"https:\/\/www.greenville.k12.sc.us\/brysone\/index.asp","review":"https:\/\/www.publicschoolreview.com\/bryson-elementary-school-profile","virtual":"Yes"},{"title":"Bryson Middle School","lat":"34.730952","lon":"-82.265469","type":"Traditional Public School","address":"3657 South Industrial Drive","grades":["Middle"],"city":"Simpsonville","state":"SC","zip":"29681","phone":"(864) 355-2100","low":"6","high":"8","students":"878","cost":"No","url":"https:\/\/www.greenville.k12.sc.us\/brysonm\/index.asp","review":"https:\/\/www.publicschoolreview.com\/bryson-middle-school-profile","virtual":"Yes"},{"title":"Buena Vista Elementary School","lat":"34.889219","lon":"-82.267137","type":"Traditional Public School","address":"310 Batesville Road","grades":["Elementary"],"city":"Greer","state":"SC","zip":"29650","phone":"(864) 355-2200","low":"K","high":"5","students":"819","cost":"No","url":"https:\/\/www.greenville.k12.sc.us\/bvista\/index.asp","review":"https:\/\/www.publicschoolreview.com\/buena-vista-elementary-school-profile\/29650","virtual":"Yes"},{"title":"Buffalo Elementary School","lat":"34.724237","lon":"-81.658834","type":"Traditional Public School","address":"733 Main Street","grades":["Pre-K","Elementary"],"city":"Buffalo","state":"SC","zip":"29321","phone":"(864) 429-1730","low":"PK","high":"5","students":"515","cost":"No","url":"http:\/\/unionbes.ss8.sharpschool.com\/","review":"https:\/\/www.publicschoolreview.com\/buffalo-elementary-school-profile\/29321","virtual":"Yes"},{"title":"Buford Elementary School","lat":"34.760428","lon":"-80.62983","type":"Traditional Public School","address":"1906 North Rocky River Road","grades":["Pre-K","Elementary"],"city":"Lancaster","state":"SC","zip":"29720","phone":"(803) 286-0026","low":"PK","high":"5","students":"707","cost":"No","url":"https:\/\/bes.lancastercsd.com\/","review":"https:\/\/www.publicschoolreview.com\/buford-elementary-school-profile\/29720","virtual":"Yes"},{"title":"Buford High School","lat":"34.760466","lon":"-80.623615","type":"Traditional Public School","address":"4290 Tabernacle Road","grades":["High"],"city":"Lancaster","state":"SC","zip":"29720","phone":"(803) 286-7068","low":"9","high":"12","students":"546","cost":"No","url":"https:\/\/bhs.lancastercsd.com\/","review":"https:\/\/www.publicschoolreview.com\/buford-high-school-profile\/29720","virtual":"Yes"},{"title":"Buford Middle School","lat":"34.759921","lon":"-80.629936","type":"Traditional Public School","address":"1890 North Rocky River Road","grades":["Middle"],"city":"Lancaster","state":"SC","zip":"29720","phone":"(803) 285-8473","low":"6","high":"8","students":"434","cost":"No","url":"https:\/\/bms.lancastercsd.com\/","review":"https:\/\/www.publicschoolreview.com\/buford-middle-school-profile\/29720","virtual":"Yes"},{"title":"Buist Academy","lat":"32.787578","lon":"-79.93213","type":"Traditional Public School","address":"103 Calhoun Street","grades":["Elementary","Middle"],"city":"Charleston","state":"SC","zip":"29401","phone":"(843) 724-7750","low":"1","high":"8","students":"542","cost":"No","url":"https:\/\/buist.ccsdschools.com\/","review":"https:\/\/www.publicschoolreview.com\/buist-academy-profile","virtual":"Yes"},{"title":"Burgess Elementary School","lat":"33.639024","lon":"-79.010741","type":"Traditional Public School","address":"9645 Scipio Lane","grades":["Pre-K","Elementary"],"city":"Myrtle Beach","state":"SC","zip":"29588","phone":"(843) 650-4600","low":"PK","high":"4","students":"652","cost":"No","url":"https:\/\/www.horrycountyschools.net\/Burgess_Elementary_School","review":"https:\/\/www.publicschoolreview.com\/burgess-elementary-school-profile\/29588","virtual":"Yes"},{"title":"Burke High School","lat":"32.793122","lon":"-79.952469","type":"Traditional Public School","address":"244 President Street","grades":["High"],"city":"Charleston","state":"SC","zip":"29403","phone":"(843) 579-4815","low":"9","high":"12","students":"379","cost":"No","url":"https:\/\/burke.ccsdschools.com\/","review":"https:\/\/www.publicschoolreview.com\/burke-high-school-profile\/29403","virtual":"Yes"},{"title":"Burton Pack Elementary School","lat":"34.046106","lon":"-81.005733","type":"Traditional Public School","address":"111 Garden Drive","grades":["Pre-K","Elementary"],"city":"Columbia","state":"SC","zip":"29204","phone":"(803) 691-5550","low":"PK","high":"5","students":"413","cost":"No","url":"https:\/\/www.richlandone.org\/Domain\/14","review":"https:\/\/www.publicschoolreview.com\/burton-pack-elementary-school-profile","virtual":"Yes"},{"title":"Butler Academy","lat":"34.365637","lon":"-80.070617","type":"Public Charter School","address":"710 South 5th Street","grades":["Elementary"],"city":"Hartsville","state":"SC","zip":"29551","phone":"(843) 287-2399","low":"K","high":"4","students":"198","cost":"No","url":"","review":"https:\/\/www.publicschoolreview.com\/butler-academy-profile","virtual":"Yes"},{"title":"Byrd Elementary School","lat":"33.562195","lon":"-81.841643","type":"Traditional Public School","address":"1225 Weldon Way","grades":["Pre-K","Elementary"],"city":"Graniteville","state":"SC","zip":"29829","phone":"(803) 663-4320","low":"PK","high":"5","students":"575","cost":"No","url":"https:\/\/www.acpsd.net\/Domain\/28","review":"https:\/\/www.publicschoolreview.com\/byrd-elementary-school-profile","virtual":"Yes"},{"title":"C. A. Johnson High School","lat":"34.023815","lon":"-81.017326","type":"Traditional Public School","address":"2219 Barhamville Road","grades":["High"],"city":"Columbia","state":"SC","zip":"29204","phone":"(803) 253-7092","low":"9","high":"12","students":"387","cost":"No","url":"https:\/\/www.richlandone.org\/Domain\/50","review":"https:\/\/www.publicschoolreview.com\/c-a-johnson-high-school-profile","virtual":"Yes"},{"title":"C. E. Murray High School","lat":"33.58293","lon":"-79.999318","type":"Traditional Public School","address":"222 C.e. Murray Boulevard","grades":["High"],"city":"Greeleyville","state":"SC","zip":"29056","phone":"(843) 426-2121","low":"9","high":"12","students":"236","cost":"No","url":"https:\/\/www.wcsd.k12.sc.us\/Domain\/13","review":"https:\/\/www.publicschoolreview.com\/c-e-murray-high-school-profile","virtual":"Yes"},{"title":"C. E. Murray Middle School","lat":"33.5827","lon":"-79.998","type":"Traditional Public School","address":"222-a C.e. Murray Boulevard","grades":["Middle"],"city":"Greeleyville","state":"SC","zip":"29056","phone":"(843) 426-2121","low":"6","high":"8","students":"187","cost":"No","url":"https:\/\/www.wcsd.k12.sc.us\/Domain\/14","review":"https:\/\/www.publicschoolreview.com\/c-e-murray-middle-school-profile","virtual":"Yes"},{"title":"C. E. Williams Middle School For Creative And Scientific Art","lat":"32.797345","lon":"-80.074966","type":"Traditional Public School","address":"3090 Sanders Road","grades":["Middle"],"city":"Charleston","state":"SC","zip":"29414","phone":"(843) 763-1529","low":"6","high":"8","students":"1240","cost":"No","url":"https:\/\/williams.ccsdschools.com\/","review":"https:\/\/www.publicschoolreview.com\/c-e-williams-middle-school-for-creative-and-scientific-art-profile","virtual":"Yes"},{"title":"Cainhoy Elementary School","lat":"33.020491","lon":"-79.853239","type":"Traditional Public School","address":"2434 Cainhoy Road","grades":["Pre-K","Elementary"],"city":"Huger","state":"SC","zip":"29450","phone":"(843) 899-8975","low":"PK","high":"5","students":"171","cost":"No","url":"https:\/\/www.bcsdschools.net\/Domain\/15#calendar462\/20180316\/month","review":"https:\/\/www.publicschoolreview.com\/cainhoy-elementary-school-profile","virtual":"Yes"},{"title":"Calhoun Academy","lat":"33.6491771","lon":"-80.7634352","type":"Private School","address":"81 Academy Road","grades":["Pre-K","Elementary","Middle","High"],"city":"Saint Matthews","state":"SC","zip":"29135","phone":"(803) 874-2734","low":"PK","high":"12","students":"424","cost":"Yes","url":"https:\/\/www.calhounacademy.org\/","review":"https:\/\/www.privateschoolreview.com\/calhoun-academy-profile\/29135","virtual":"No"},{"title":"Calhoun Academy Of The Arts","lat":"34.520691","lon":"-82.629214","type":"Public Magnet School","address":"1520 East Calhoun Street","grades":["Elementary"],"city":"Anderson","state":"SC","zip":"29621","phone":"(864) 260-5090","low":"K","high":"5","students":"486","cost":"No","url":"https:\/\/www.anderson5.net\/calhoun","review":"https:\/\/www.publicschoolreview.com\/calhoun-academy-of-the-arts-profile","virtual":"Yes"},{"title":"Calhoun County High School","lat":"33.665236","lon":"-80.799028","type":"Traditional Public School","address":"150 Saints Avenue","grades":["High"],"city":"Saint Matthews","state":"SC","zip":"29135","phone":"(803) 874-3071","low":"9","high":"12","students":"418","cost":"No","url":"http:\/\/cchs.ccpsonline.net\/","review":"https:\/\/www.publicschoolreview.com\/calhoun-county-high-school-profile","virtual":"Yes"},{"title":"Calhoun Falls Charter School","lat":"34.098483","lon":"-82.594822","type":"Public Charter School","address":"205 Edgefield Street","grades":["Middle","High"],"city":"Calhoun Falls","state":"SC","zip":"29628","phone":"(864) 418-8014","low":"6","high":"12","students":"157","cost":"No","url":"http:\/\/www.cfpcs.org\/","review":"https:\/\/www.publicschoolreview.com\/calhoun-falls-charter-school-profile","virtual":"Yes"},{"title":"Calvary Baptist Kindergarten","lat":"34.1841","lon":"-79.78175361","type":"Private School","address":"915 Cherokee Rd","grades":["Pre-K","Elementary"],"city":"Florence","state":"SC","zip":"29501","phone":"(893) 667-1798","low":"PK","high":"K","students":"189","cost":"Yes","url":"https:\/\/www.calvarycares.com\/","review":"https:\/\/www.privateschoolreview.com\/calvary-baptist-kindergarten-profile","virtual":"No"},{"title":"Calvary Christian School","lat":"33.6681739","lon":"-78.9978648","type":"Private School","address":"4511 Dick Pond Rd","grades":["Pre-K","Elementary","Middle","High"],"city":"Myrtle Beach","state":"SC","zip":"29588","phone":"(843) 650-2829","low":"PK","high":"12","students":"345","cost":"Yes","url":"https:\/\/ccsmb.com\/","review":"","virtual":"No"},{"title":"Calvary Christian School","lat":"34.9401341","lon":"-82.2406478","type":"Private School","address":"101 Calvary St","grades":["Pre-K","Elementary","Middle","High"],"city":"Greer","state":"SC","zip":"29650","phone":"(864) 877-5555","low":"PK","high":"12","students":"72","cost":"Yes","url":"https:\/\/www.calvarychristiangreer.org\/","review":"https:\/\/www.privateschoolreview.com\/calvary-christian-school-profile\/29650","virtual":"No"},{"title":"Calvary Episcopal Day School","lat":"32.7940693","lon":"-79.946207","type":"Private School","address":"106 Line St","grades":["Pre-K","Elementary"],"city":"Charleston","state":"SC","zip":"29403","phone":"(843) 577-6721","low":"PK","high":"K","students":"35","cost":"Yes","url":"https:\/\/www.calvarych.org\/","review":"","virtual":"No"},{"title":"Calvary's Kids Preschool","lat":"34.6153035","lon":"-82.48647587","type":"Private School","address":"10 S Academy St","grades":["Pre-K","Elementary"],"city":"Williamston","state":"SC","zip":"29697","phone":"(864) 847-5775","low":"PK","high":"K","students":"89","cost":"Yes","url":"https:\/\/www.discovercalvary.org\/","review":"https:\/\/www.privateschoolreview.com\/calvary-s-kids-preschool-profile","virtual":"No"},{"title":"Cambridge Academy","lat":"34.21350778","lon":"-82.19812585","type":"Private School","address":"103 Eastman St","grades":["Pre-K","Elementary","Middle","High"],"city":"Greenwood","state":"SC","zip":"29649","phone":"(864) 229-2875","low":"PK","high":"12","students":"221","cost":"Yes","url":"http:\/\/www.cambridgeacademy.org\/","review":"https:\/\/www.privateschoolreview.com\/cambridge-academy-profile","virtual":"No"},{"title":"Camden Elementary School","lat":"34.24982","lon":"-80.603327","type":"Traditional Public School","address":"416 Laurens Street","grades":["Pre-K","Elementary"],"city":"Camden","state":"SC","zip":"29020","phone":"(803) 425-8960","low":"PK","high":"5","students":"532","cost":"No","url":"https:\/\/www.kcsdschools.net\/Domain\/13","review":"https:\/\/www.publicschoolreview.com\/camden-elementary-school-profile\/29020","virtual":"Yes"},{"title":"Camden High School","lat":"34.231393","lon":"-80.607843","type":"Traditional Public School","address":"1022 Ehrenclou Road","grades":["High"],"city":"Camden","state":"SC","zip":"29020","phone":"(803) 425-8930","low":"9","high":"12","students":"1012","cost":"No","url":"https:\/\/www.kcsdschools.net\/Domain\/11","review":"https:\/\/www.publicschoolreview.com\/camden-high-school-profile\/29020","virtual":"Yes"},{"title":"Camden Middle School","lat":"34.251887","lon":"-80.603916","type":"Traditional Public School","address":"902 Mcrae Road","grades":["Middle"],"city":"Camden","state":"SC","zip":"29020","phone":"(803) 425-8975","low":"6","high":"8","students":"850","cost":"No","url":"https:\/\/www.kcsdschools.net\/Domain\/12","review":"https:\/\/www.publicschoolreview.com\/camden-middle-school-profile\/29020","virtual":"Yes"},{"title":"Camden Military Academy","lat":"34.2791","lon":"-80.5602","type":"Private School","address":"520 Highway 1 N","grades":["Middle","High"],"city":"Camden","state":"SC","zip":"29020","phone":"(800) 948-6291","low":"7","high":"12","students":"255","cost":"Yes","url":"https:\/\/camdenmilitary.com\/","review":"https:\/\/www.privateschoolreview.com\/camden-military-academy-profile","virtual":"No"},{"title":"Camp Road Middle School","lat":"32.732903","lon":"-79.962017","type":"Traditional Public School","address":"1825 Camp Road","grades":["Middle"],"city":"Charleston","state":"SC","zip":"29412","phone":"(843) 762-2784","low":"6","high":"8","students":"799","cost":"No","url":"","review":"https:\/\/www.publicschoolreview.com\/camp-road-middle-school-profile","virtual":"Yes"},{"title":"Camperdown Academy","lat":"34.8783","lon":"-82.33","type":"Private School","address":"65 Verdae Commons Drive","grades":["Elementary","Middle"],"city":"Greenville","state":"SC","zip":"29607","phone":"(864) 244-8899","low":"1","high":"8","students":"182","cost":"Yes","url":"https:\/\/www.camperdown.org\/","review":"https:\/\/www.privateschoolreview.com\/camperdown-academy-profile","virtual":"No"},