[{"title":"Academy School","lat":"42.851269","lon":"-72.598054","type":"Traditional Public School","address":"860 Western Avenue","grades":["Pre-K","Elementary","Middle"],"city":"Brattleboro","state":"VT","zip":"5301","phone":"(802) 254-3743","low":"PK","high":"6","students":"397","cost":"No","url":"https:\/\/www.academyvt.com\/","review":"https:\/\/www.publicschoolreview.com\/academy-school-profile\/05301","virtual":"Yes"},{"title":"Albany Community School","lat":"44.738137","lon":"-72.377676","type":"Traditional Public School","address":"351 Main Street","grades":["Pre-K","Elementary","Middle"],"city":"Albany","state":"VT","zip":"5820","phone":"(802) 755-6168","low":"PK","high":"8","students":"93","cost":"No","url":"https:\/\/albanyschoolvt.weebly.com\/","review":"https:\/\/www.publicschoolreview.com\/albany-community-school-profile","virtual":"Yes"},{"title":"Albert Bridge School (West Windsor)","lat":"43.4692","lon":"-72.4714","type":"Traditional Public School","address":"108 Brownsville Hartland Road","grades":["Pre-K","Elementary","Middle"],"city":"Brownsville","state":"VT","zip":"5037","phone":"(802) 484-3344","low":"PK","high":"6","students":"60","cost":"No","url":"https:\/\/abs.wsesu.net\/","review":"https:\/\/www.publicschoolreview.com\/albert-bridge-school-west-windsor-profile","virtual":"Yes"},{"title":"Albert D. Lawton School","lat":"44.486435","lon":"-73.100829","type":"Traditional Public School","address":"104 Maple Street","grades":["Middle"],"city":"Essex Junction","state":"VT","zip":"5452","phone":"(802) 878-1388","low":"6","high":"8","students":"351","cost":"No","url":"https:\/\/www.ewsd.org\/ADL","review":"https:\/\/www.publicschoolreview.com\/albert-d-lawton-school-profile","virtual":"Yes"},{"title":"Alburg Community Education Center","lat":"44.979082","lon":"-73.298801","type":"Traditional Public School","address":"14 North Main Street","grades":["Pre-K","Elementary","Middle"],"city":"Alburgh","state":"VT","zip":"5440","phone":"(802) 796-3573","low":"PK","high":"8","students":"183","cost":"No","url":"https:\/\/www.alburghschool.org\/","review":"https:\/\/www.publicschoolreview.com\/alburg-community-education-center-profile","virtual":"Yes"},{"title":"Annettes Playschool Ii","lat":"44.3449669","lon":"-73.104446","type":"Private School","address":"96 Pond Road","grades":["Pre-K","Elementary"],"city":"Hinesburg","state":"VT","zip":"5461","phone":"(802) 482-2525","low":"PK","high":"K","students":"100","cost":"Yes","url":"https:\/\/www.annettespreschool.com\/","review":"","virtual":"No"},{"title":"Appletree Learning Centers","lat":"44.474478","lon":"-72.69954","type":"Private School","address":"1056 Mountain Rd Ste 16","grades":["Elementary"],"city":"Stowe","state":"VT","zip":"5672","phone":"(802) 253-4321","low":"K","high":"K","students":"58","cost":"Yes","url":"https:\/\/appletreelc.com\/","review":"","virtual":"No"},{"title":"Ark Preschool\/Kindergarten","lat":"44.2064","lon":"-73.3413","type":"Private School","address":"862 Us Route 7","grades":["Pre-K","Elementary"],"city":"Vergennes","state":"VT","zip":"5491","phone":"(802) 877-3393","low":"PK","high":"K","students":"19","cost":"Yes","url":"https:\/\/victoryvt.org\/?page_id=407","review":"https:\/\/www.privateschoolreview.com\/ark-preschool-kindergarten-profile","virtual":"No"},{"title":"Arlington Memorial","lat":"43.065391","lon":"-73.152327","type":"Traditional Public School","address":"529 East Arlington Road","grades":["Middle","High"],"city":"Arlington","state":"VT","zip":"5250","phone":"(802) 375-2589","low":"6","high":"12","students":"216","cost":"No","url":"https:\/\/www.arlingtonmemorialhighschool.org\/","review":"https:\/\/www.publicschoolreview.com\/arlington-memorial-profile","virtual":"Yes"},{"title":"Augmentative Learning\/Movement Center","lat":"44.4833886","lon":"-73.1587591","type":"Private School","address":"72 Ethan Allen Dr","grades":["Elementary","Middle","High"],"city":"South Burlington","state":"VT","zip":"5403","phone":"(802) 658-9175","low":"2","high":"12","students":"13","cost":"Yes","url":"https:\/\/mosaiclearningcenter.com\/","review":"","virtual":"No"},{"title":"Aurora School","lat":"44.0204","lon":"-73.1527","type":"Private School","address":"238 Peterson Ter","grades":["Elementary","Middle"],"city":"Middlebury","state":"VT","zip":"5753","phone":"(802) 388-2637","low":"K","high":"8","students":"26","cost":"Yes","url":"","review":"","virtual":"No"},{"title":"Baird School","lat":"44.44742351","lon":"-73.2145","type":"Private School","address":"1138 Pine St","grades":["Elementary","Middle"],"city":"Burlington","state":"VT","zip":"5401","phone":"(802) 488-6655","low":"K","high":"8","students":"31","cost":"Yes","url":"https:\/\/howardcenter.org\/baird-school\/","review":"","virtual":"No"},{"title":"Bakersfield School","lat":"44.784084","lon":"-72.802891","type":"Traditional Public School","address":"82 Academy Drive","grades":["Pre-K","Elementary","Middle"],"city":"Bakersfield","state":"VT","zip":"5441","phone":"(802) 827-6611","low":"PK","high":"8","students":"140","cost":"No","url":"https:\/\/www.bakersfieldschool.net\/","review":"https:\/\/www.publicschoolreview.com\/bakersfield-school-profile","virtual":"Yes"},{"title":"Barnard Academy","lat":"43.726","lon":"-72.6199","type":"Traditional Public School","address":"5979 Route 12","grades":["Pre-K","Elementary","Middle"],"city":"Barnard","state":"VT","zip":"5031","phone":"(802) 234-9763","low":"PK","high":"6","students":"73","cost":"No","url":"","review":"https:\/\/www.publicschoolreview.com\/barnard-academy-profile","virtual":"Yes"},{"title":"Barnet Elementary School","lat":"44.306067","lon":"-72.080659","type":"Traditional Public School","address":"163 Kid Row","grades":["Pre-K","Elementary","Middle"],"city":"Barnet","state":"VT","zip":"5821","phone":"(802) 633-4978","low":"PK","high":"8","students":"171","cost":"No","url":"https:\/\/sites.google.com\/a\/kidrow.net\/barnetschool\/","review":"https:\/\/www.publicschoolreview.com\/barnet-elementary-school-profile","virtual":"Yes"},{"title":"Barre City Elementary\/Middle School","lat":"44.184759","lon":"-72.504955","type":"Traditional Public School","address":"50 Parkside Terrace","grades":["Pre-K","Elementary","Middle"],"city":"Barre","state":"VT","zip":"5641","phone":"(802) 476-6541","low":"PK","high":"8","students":"774","cost":"No","url":"https:\/\/www.bcemsvt.org\/","review":"https:\/\/www.publicschoolreview.com\/barre-city-elementary-middle-school-profile","virtual":"Yes"},{"title":"Barre Town Elementary School","lat":"44.169051","lon":"-72.485458","type":"Traditional Public School","address":"70 Websterville Road","grades":["Pre-K","Elementary","Middle"],"city":"Barre","state":"VT","zip":"5641","phone":"(802) 476-6617","low":"PK","high":"8","students":"732","cost":"No","url":"https:\/\/www.btmes.org\/","review":"https:\/\/www.publicschoolreview.com\/barre-town-elementary-school-profile","virtual":"Yes"},{"title":"Barstow Memorial School","lat":"43.70078","lon":"-72.951327","type":"Traditional Public School","address":"223 Chittenden Road","grades":["Pre-K","Elementary","Middle"],"city":"Chittenden","state":"VT","zip":"5737","phone":"(802) 773-6926","low":"PK","high":"8","students":"210","cost":"No","url":"https:\/\/barstow.rnesu.org\/","review":"https:\/\/www.publicschoolreview.com\/barstow-memorial-school-profile","virtual":"Yes"},{"title":"Barton Graded School","lat":"44.749048","lon":"-72.180476","type":"Traditional Public School","address":"137 Church Street","grades":["Pre-K","Elementary","Middle"],"city":"Barton","state":"VT","zip":"5822","phone":"(802) 525-3636","low":"PK","high":"8","students":"155","cost":"No","url":"https:\/\/bartongraded.weebly.com\/","review":"https:\/\/www.publicschoolreview.com\/barton-graded-school-profile","virtual":"Yes"},{"title":"Beeman Elementary School","lat":"44.125277","lon":"-73.153748","type":"Traditional Public School","address":"50 North Street","grades":["Pre-K","Elementary","Middle"],"city":"New Haven","state":"VT","zip":"5472","phone":"(802) 453-2331","low":"PK","high":"6","students":"73","cost":"No","url":"https:\/\/stuckeyelementary.org\/","review":"https:\/\/www.publicschoolreview.com\/beeman-elementary-school-profile","virtual":"Yes"},{"title":"Bellcate School","lat":"44.501999","lon":"-73.041701","type":"Private School","address":"1 Corporate Dr","grades":["Elementary","Middle","High"],"city":"Essex Junction","state":"VT","zip":"5452","phone":"(802) 373-1620","low":"5","high":"12","students":"27","cost":"Yes","url":"https:\/\/bellcate.com\/","review":"","virtual":"No"},{"title":"Bellows Falls Middle School","lat":"43.140113","lon":"-72.509516","type":"Traditional Public School","address":"15 School Street","grades":["Elementary","Middle"],"city":"Bellows Falls","state":"VT","zip":"5101","phone":"(802) 463-4366","low":"5","high":"8","students":"233","cost":"No","url":"http:\/\/bfmiddleschool.org\/","review":"https:\/\/www.publicschoolreview.com\/bellows-falls-middle-school-profile","virtual":"Yes"},{"title":"Bellows Falls Uhsd #27","lat":"43.174825","lon":"-72.459189","type":"Traditional Public School","address":"Route 5 South","grades":["High"],"city":"Bellows Falls","state":"VT","zip":"5101","phone":"(802) 463-3944","low":"9","high":"12","students":"314","cost":"No","url":"http:\/\/bfuhs.org\/","review":"https:\/\/www.publicschoolreview.com\/bellows-falls-uhsd-27-profile","virtual":"Yes"},{"title":"Bellows Free Academy Uhsd #48","lat":"44.808226","lon":"-73.083989","type":"Traditional Public School","address":"71 South Main Street","grades":["High"],"city":"Saint Albans","state":"VT","zip":"5478","phone":"(802) 527-6555","low":"9","high":"12","students":"852","cost":"No","url":"https:\/\/www.maplerun.org\/o\/bfa","review":"https:\/\/www.publicschoolreview.com\/bellows-free-academy-uhsd-48-profile","virtual":"Yes"},{"title":"Bennington Elementary School","lat":"42.880824","lon":"-73.193194","type":"Traditional Public School","address":"128 Park Street","grades":["Pre-K","Elementary"],"city":"Bennington","state":"VT","zip":"5201","phone":"(802) 442-5256","low":"PK","high":"5","students":"289","cost":"No","url":"http:\/\/bennington.apps.svsu.org\/","review":"https:\/\/www.publicschoolreview.com\/bennington-elementary-school-profile\/05201","virtual":"Yes"},{"title":"Bennington Regional Day Progra","lat":"42.8807425","lon":"-73.1933406","type":"Private School","address":"Catamount Elementary School","grades":["Pre-K","Elementary"],"city":"Bennington","state":"VT","zip":"5201","phone":"(802) 447-7543","low":"PK","high":"3","students":"See website","cost":"Yes","url":"https:\/\/sites.google.com\/a\/apps.svsu.org\/svsu\/","review":"https:\/\/www.privateschoolreview.com\/bennington-regional-day-progra-profile","virtual":"No"},{"title":"Benson Village School","lat":"43.707251","lon":"-73.303597","type":"Traditional Public School","address":"32 School Street","grades":["Pre-K","Elementary","Middle"],"city":"Fair Haven","state":"VT","zip":"5743","phone":"(802) 537-2491","low":"PK","high":"8","students":"59","cost":"No","url":"http:\/\/benson.arsu.org\/","review":"https:\/\/www.publicschoolreview.com\/benson-village-school-profile","virtual":"No"},{"title":"Berkshire Elementary School","lat":"44.973126","lon":"-72.766578","type":"Traditional Public School","address":"4850 Water Tower Road","grades":["Pre-K","Elementary","Middle"],"city":"Richford","state":"VT","zip":"5476","phone":"(802) 933-2290","low":"PK","high":"8","students":"187","cost":"No","url":"https:\/\/sites.google.com\/a\/bes.berkshirek8.net\/besk8\/","review":"https:\/\/www.publicschoolreview.com\/berkshire-elementary-school-profile\/05476","virtual":"Yes"},{"title":"Berlin Elementary School","lat":"44.2144","lon":"-72.5715","type":"Traditional Public School","address":"372 Paine Turnpike","grades":["Pre-K","Elementary","Middle"],"city":"Montpelier","state":"VT","zip":"5602","phone":"(802) 223-2796","low":"PK","high":"6","students":"194","cost":"No","url":"https:\/\/www.wcsu32.org\/Domain\/22","review":"https:\/\/www.publicschoolreview.com\/berlin-elementary-school-profile\/05602","virtual":"Yes"},{"title":"Bethel Elementary School","lat":"43.833812","lon":"-72.642628","type":"Traditional Public School","address":"273 Pleasant Street","grades":["Pre-K","Elementary"],"city":"Bethel","state":"VT","zip":"5032","phone":"(802) 234-6607","low":"PK","high":"5","students":"118","cost":"No","url":"https:\/\/www.wrvsd.org\/cms\/One.aspx?portalId=816501&pageId=816509#","review":"https:\/\/www.publicschoolreview.com\/bethel-elementary-school-profile\/05032","virtual":"Yes"},{"title":"Bfa Elementary School ? Fairfax","lat":"44.662991","lon":"-73.013596","type":"Traditional Public School","address":"75 Hunt Street","grades":["Pre-K","Elementary","Middle"],"city":"Fairfax","state":"VT","zip":"5454","phone":"(802) 849-6711","low":"PK","high":"6","students":"567","cost":"No","url":"https:\/\/www.bfafairfax.com\/","review":"https:\/\/www.publicschoolreview.com\/bfa-elementary-school-fairfax-profile","virtual":"Yes"},{"title":"Bfa Middle\/High School ? Fairfax","lat":"44.662991","lon":"-73.013596","type":"Traditional Public School","address":"75 Hunt Street","grades":["Middle","High"],"city":"Fairfax","state":"VT","zip":"5454","phone":"(802) 849-6711","low":"7","high":"12","students":"439","cost":"No","url":"https:\/\/www.bfafairfax.com\/","review":"https:\/\/www.publicschoolreview.com\/bfa-middle-high-school-fairfax-profile","virtual":"Yes"},{"title":"Bingham Memorial School","lat":"43.963589","lon":"-73.206319","type":"Traditional Public School","address":"112 School Road","grades":["Pre-K","Elementary","Middle"],"city":"Middlebury","state":"VT","zip":"5753","phone":"(802) 462-2463","low":"PK","high":"6","students":"86","cost":"No","url":"https:\/\/www.acsdvt.org\/domain\/104","review":"https:\/\/www.publicschoolreview.com\/bingham-memorial-school-profile","virtual":"Yes"},{"title":"Bishop John A Marshall School","lat":"44.5546","lon":"-72.6139","type":"Private School","address":"680 Laporte Rd","grades":["Pre-K","Elementary","Middle"],"city":"Morrisville","state":"VT","zip":"5661","phone":"(802) 888-4758","low":"NS","high":"8","students":"122","cost":"Yes","url":"https:\/\/www.bjams.org\/","review":"https:\/\/www.privateschoolreview.com\/bishop-john-a-marshall-school-profile","virtual":"No"},{"title":"Blue Mountain Usd #21","lat":"44.154842","lon":"-72.087433","type":"Traditional Public School","address":"2420 Route 302","grades":["Pre-K","Elementary","Middle","High"],"city":"Wells River","state":"VT","zip":"5081","phone":"(802) 757-2711","low":"PK","high":"12","students":"376","cost":"No","url":"https:\/\/www.bmuschool.org\/","review":"https:\/\/www.publicschoolreview.com\/blue-mountain-usd-21-profile","virtual":"Yes"},{"title":"Bradford Elementary School","lat":"44.002573","lon":"-72.121458","type":"Traditional Public School","address":"143 Fairground Road","grades":["Pre-K","Elementary","Middle"],"city":"Bradford","state":"VT","zip":"5033","phone":"(802) 222-4077","low":"PK","high":"6","students":"252","cost":"No","url":"https:\/\/www.beschool.org\/","review":"https:\/\/www.publicschoolreview.com\/bradford-elementary-school-profile\/05033","virtual":"Yes"},{"title":"Braintree School","lat":"43.955699","lon":"-72.722385","type":"Traditional Public School","address":"66 Bent Hill Road","grades":["Pre-K","Elementary","Middle"],"city":"Randolph","state":"VT","zip":"5060","phone":"(802) 728-9373","low":"PK","high":"6","students":"76","cost":"No","url":"http:\/\/www.orangesouthwest.org\/braintree","review":"https:\/\/www.publicschoolreview.com\/braintree-school-profile","virtual":"Yes"},{"title":"Brattleboro Area Middle School","lat":"42.834681","lon":"-72.561968","type":"Traditional Public School","address":"109 Sunny Acres","grades":["Middle"],"city":"Brattleboro","state":"VT","zip":"5301","phone":"(802) 451-3500","low":"7","high":"8","students":"298","cost":"No","url":"http:\/\/bams.wsesu.org","review":"https:\/\/www.publicschoolreview.com\/brattleboro-area-middle-school-profile","virtual":"Yes"},{"title":"Brattleboro Union High School","lat":"42.836747","lon":"-72.561268","type":"Traditional Public School","address":"131 Fairground Road","grades":["High"],"city":"Brattleboro","state":"VT","zip":"5301","phone":"(802) 451-3400","low":"9","high":"12","students":"758","cost":"No","url":"http:\/\/buhs.wsesu.org\/","review":"https:\/\/www.publicschoolreview.com\/brattleboro-union-high-school-profile","virtual":"Yes"},{"title":"Brewster Pierce School","lat":"44.29621","lon":"-72.963425","type":"Traditional Public School","address":"120 School Street","grades":["Pre-K","Elementary"],"city":"Huntington","state":"VT","zip":"5462","phone":"(802) 434-2074","low":"PK","high":"4","students":"123","cost":"No","url":"https:\/\/brewsterpierce.cesuvt.org\/","review":"https:\/\/www.publicschoolreview.com\/brewster-pierce-school-profile","virtual":"Yes"},{"title":"Bridge School, Inc","lat":"44.0335","lon":"-73.1704","type":"Private School","address":"1469 Exchange St","grades":["Elementary","Middle"],"city":"Middlebury","state":"VT","zip":"5753","phone":"(802) 388-3498","low":"K","high":"6","students":"31","cost":"Yes","url":"https:\/\/bridgeschoolvermont.org\/","review":"https:\/\/www.privateschoolreview.com\/bridge-school-inc-profile","virtual":"No"},{"title":"Bridport Central School","lat":"43.98157","lon":"-73.312775","type":"Traditional Public School","address":"3442 Vt Route 22a","grades":["Pre-K","Elementary","Middle"],"city":"Bridport","state":"VT","zip":"5734","phone":"(802) 758-2331","low":"PK","high":"6","students":"62","cost":"No","url":"https:\/\/www.acsdvt.org\/bridport","review":"https:\/\/www.publicschoolreview.com\/bridport-central-school-profile","virtual":"Yes"},{"title":"Brighton Elementary School","lat":"44.822046","lon":"-71.893354","type":"Traditional Public School","address":"825 Railroad Street","grades":["Pre-K","Elementary","Middle"],"city":"Island Pond","state":"VT","zip":"5846","phone":"(802) 723-4373","low":"PK","high":"8","students":"115","cost":"No","url":"https:\/\/bes.ncsuvt.org\/","review":"https:\/\/www.publicschoolreview.com\/brighton-elementary-school-profile\/05846","virtual":"Yes"},{"title":"Bristol Elementary School","lat":"44.138246","lon":"-73.076712","type":"Traditional Public School","address":"57 Mountain Street","grades":["Pre-K","Elementary","Middle"],"city":"Bristol","state":"VT","zip":"5443","phone":"(802) 453-3227","low":"PK","high":"6","students":"388","cost":"No","url":"https:\/\/www.usd453.org\/Henry","review":"https:\/\/www.publicschoolreview.com\/bristol-elementary-school-profile\/05443","virtual":"Yes"},{"title":"Brookfield School","lat":"44.016082","lon":"-72.606356","type":"Traditional Public School","address":"1728 Ridge Road","grades":["Pre-K","Elementary","Middle"],"city":"Brookfield","state":"VT","zip":"5036","phone":"(802) 276-3153","low":"PK","high":"6","students":"71","cost":"No","url":"http:\/\/www.brookfield.k12.vt.us\/","review":"https:\/\/www.publicschoolreview.com\/brookfield-school-profile","virtual":"Yes"},{"title":"Brookhaven Treatment & Learning Center","lat":"44.0296","lon":"-72.5165","type":"Private School","address":"331 Vt Rt 110","grades":["Elementary","Middle"],"city":"Chelsea","state":"VT","zip":"5038","phone":"(802) 685-4458","low":"3","high":"6","students":"18","cost":"Yes","url":"http:\/\/brookhaventlc.org\/learning-center\/","review":"https:\/\/www.privateschoolreview.com\/brookhaven-treatment-learning-center-profile","virtual":"No"},{"title":"Brown River Middle School","lat":"44.519959","lon":"-72.945615","type":"Traditional Public School","address":"20 River Road","grades":["Elementary","Middle"],"city":"Jericho","state":"VT","zip":"5465","phone":"(802) 899-3711","low":"5","high":"8","students":"350","cost":"No","url":"https:\/\/brownsriver.cesuvt.org\/","review":"https:\/\/www.publicschoolreview.com\/brown-river-middle-school-profile","virtual":"Yes"},{"title":"Brownell Mountain School","lat":"44.40657343","lon":"-73.12534531","type":"Private School","address":"5330 St George Rd","grades":["Elementary"],"city":"Williston","state":"VT","zip":"5495","phone":"(862) 878-3830","low":"2","high":"2","students":"See website","cost":"Yes","url":"","review":"","virtual":"No"},{"title":"Brownington Central School","lat":"44.81974","lon":"-72.138284","type":"Traditional Public School","address":"103 Chase Road","grades":["Pre-K","Elementary","Middle"],"city":"Orleans","state":"VT","zip":"5860","phone":"(802) 754-8467","low":"PK","high":"8","students":"107","cost":"No","url":"https:\/\/brownington.weebly.com\/","review":"https:\/\/www.publicschoolreview.com\/brownington-central-school-profile","virtual":"Yes"},{"title":"Burke Mountain Academy","lat":"44.589071","lon":"-71.9404554","type":"Private School","address":"60 Alpine Ln","grades":["Middle","High"],"city":"East Burke","state":"VT","zip":"5832","phone":"(802) 427-8013","low":"8","high":"12","students":"64","cost":"Yes","url":"https:\/\/www.burkemtnacademy.org\/contact-us","review":"https:\/\/www.privateschoolreview.com\/burke-mountain-academy-profile","virtual":"No"},{"title":"Burke Town School","lat":"44.625443","lon":"-71.959973","type":"Traditional Public School","address":"3293 Burke Hollow Road","grades":["Pre-K","Elementary","Middle"],"city":"West Burke","state":"VT","zip":"5871","phone":"(802) 467-3385","low":"PK","high":"8","students":"184","cost":"No","url":"http:\/\/www.burkevermont.org\/burke-town-school.php","review":"https:\/\/www.publicschoolreview.com\/burke-town-school-profile","virtual":"Yes"},{"title":"Burlington Senior High School","lat":"44.495802","lon":"-73.234665","type":"Traditional Public School","address":"52 Institute Road","grades":["High"],"city":"Burlington","state":"VT","zip":"5408","phone":"(802) 864-8411","low":"9","high":"12","students":"988","cost":"No","url":"https:\/\/bhs.bsdvt.org\/","review":"https:\/\/www.publicschoolreview.com\/burlington-senior-high-school-profile","virtual":"Yes"},{"title":"Burlington Technical Center","lat":"44.495802","lon":"-73.234665","type":"Specialized Public School","address":"52 Institute Road","grades":["High"],"city":"Burlington","state":"VT","zip":"5401","phone":"(802) 864-8426","low":"9","high":"12","students":"See website","cost":"No","url":"https:\/\/btc.bsdvt.org\/","review":"https:\/\/www.publicschoolreview.com\/burlington-technical-center-profile","virtual":"Yes"},{"title":"Burr And Burton Academy","lat":"43.163803","lon":"-73.077354","type":"Private School","address":"57 Seminary Ave","grades":["High"],"city":"Manchester","state":"VT","zip":"5254","phone":"(802) 362-1775","low":"9","high":"12","students":"665","cost":"Yes","url":"https:\/\/burrburton.myschoolapp.com\/page?siteId=962&ssl=1","review":"","virtual":"No"},{"title":"C. P. Smith School","lat":"44.513176","lon":"-73.242166","type":"Traditional Public School","address":"332 Ethan Allen Parkway","grades":["Pre-K","Elementary"],"city":"Burlington","state":"VT","zip":"5401","phone":"(802) 864-8479","low":"PK","high":"5","students":"256","cost":"No","url":"https:\/\/smith.bsdvt.org\/","review":"https:\/\/www.publicschoolreview.com\/c-p-smith-school-profile","virtual":"Yes"},{"title":"Cabot School","lat":"44.403406","lon":"-72.309624","type":"Traditional Public School","address":"25 Common Road","grades":["Pre-K","Elementary","Middle","High"],"city":"Cabot","state":"VT","zip":"5647","phone":"(802) 563-2289","low":"PK","high":"12","students":"158","cost":"No","url":"https:\/\/www.cabotschool.org\/","review":"https:\/\/www.publicschoolreview.com\/cabot-school-profile","virtual":"Yes"},{"title":"Calais Elementary School","lat":"44.32029","lon":"-72.451229","type":"Traditional Public School","address":"321 Lightening Ridge Road","grades":["Pre-K","Elementary","Middle"],"city":"Plainfield","state":"VT","zip":"5667","phone":"(802) 454-7777","low":"PK","high":"6","students":"109","cost":"No","url":"https:\/\/www.wcsu32.org\/Domain\/23","review":"https:\/\/www.publicschoolreview.com\/calais-elementary-school-profile\/05667","virtual":"Yes"},{"title":"Caledonia Christian School","lat":"44.43139687","lon":"-72.01237517","type":"Private School","address":"54 Southard St","grades":["Elementary","Middle"],"city":"Saint Johnsbury","state":"VT","zip":"5819","phone":"(802) 748-9528","low":"2","high":"8","students":"See website","cost":"Yes","url":"https:\/\/www.facebook.com\/Caledonia-Christian-School-924922530901013\/","review":"","virtual":"No"},{"title":"Cambridge Elementary School","lat":"44.64424","lon":"-72.82665","type":"Traditional Public School","address":"186 School Street","grades":["Pre-K","Elementary","Middle"],"city":"Jeffersonville","state":"VT","zip":"5464","phone":"(802) 644-8821","low":"PK","high":"6","students":"303","cost":"No","url":"https:\/\/www.cesvt.net\/","review":"https:\/\/www.publicschoolreview.com\/cambridge-elementary-school-profile\/05464","virtual":"Yes"},{"title":"Camels Hump Middle School","lat":"44.413596","lon":"-72.993573","type":"Traditional Public School","address":"173 School Street","grades":["Elementary","Middle"],"city":"Richmond","state":"VT","zip":"5477","phone":"(802) 434-2188","low":"5","high":"8","students":"324","cost":"No","url":"https:\/\/camelshump.cesuvt.org\/","review":"https:\/\/www.publicschoolreview.com\/camels-hump-middle-school-profile","virtual":"Yes"},{"title":"Camp E - Wen - Akee","lat":"43.68436164","lon":"-73.34342121","type":"Private School","address":"876 Root Pond Rd","grades":["Middle","High"],"city":"Fair Haven","state":"VT","zip":"5743","phone":"(802) 537-4101","low":"7","high":"11","students":"15","cost":"Yes","url":"https:\/\/eckerd.org\/","review":"","virtual":"No"},{"title":"Canaan Schools","lat":"44.995156","lon":"-71.537343","type":"Traditional Public School","address":"99 School Street","grades":["Pre-K","Elementary","Middle","High"],"city":"Canaan","state":"VT","zip":"5903","phone":"(802) 266-8910","low":"PK","high":"12","students":"190","cost":"No","url":"https:\/\/www.canaanschools.org\/","review":"https:\/\/www.publicschoolreview.com\/canaan-schools-profile","virtual":"Yes"},{"title":"Canal Street\/Oak Grove Schools","lat":"42.840186","lon":"-72.557511","type":"Traditional Public School","address":"15 Moreland Avenue","grades":["Pre-K","Elementary","Middle"],"city":"Brattleboro","state":"VT","zip":"5301","phone":"(802) 254-3740","low":"PK","high":"6","students":"145","cost":"No","url":"https:\/\/www.oakgroveschoolvt.com\/","review":"https:\/\/www.publicschoolreview.com\/canal-street-oak-grove-schools-profile","virtual":"Yes"},{"title":"Castleton Elementary School","lat":"43.636856","lon":"-73.126638","type":"Traditional Public School","address":"263 Elementary School Road","grades":["Pre-K","Elementary"],"city":"Castleton","state":"VT","zip":"5735","phone":"(802) 468-5624","low":"PK","high":"5","students":"210","cost":"No","url":"","review":"https:\/\/www.publicschoolreview.com\/castleton-elementary-school-profile\/05735","virtual":"No"},{"title":"Castleton Village School","lat":"43.612417","lon":"-73.178209","type":"Traditional Public School","address":"47 Mechanic Street","grades":["Middle"],"city":"Castleton","state":"VT","zip":"5735","phone":"(802) 468-2203","low":"6","high":"8","students":"100","cost":"No","url":"","review":"https:\/\/www.publicschoolreview.com\/castleton-village-school-profile","virtual":"Yes"},{"title":"Cavendish Town Elementary School","lat":"43.383661","lon":"-72.636839","type":"Traditional Public School","address":"573 Main Street","grades":["Pre-K","Elementary","Middle"],"city":"Proctorsville","state":"VT","zip":"5153","phone":"(802) 226-7758","low":"PK","high":"6","students":"78","cost":"No","url":"https:\/\/local.yahoo.com\/info-10464186-cavendish-town-elementary-school-proctorsville","review":"https:\/\/www.publicschoolreview.com\/cavendish-town-elementary-school-profile","virtual":"Yes"},{"title":"Centerpoint","lat":"44.4907899","lon":"-73.188912","type":"Private School","address":"81 West Canal Street","grades":["Pre-K"],"city":"Winooski","state":"VT","zip":"5404","phone":"(802) 654-7711","low":"NS","high":"NS","students":"21","cost":"Yes","url":"https:\/\/centerpointservices.org\/","review":"https:\/\/www.privateschoolreview.com\/centerpoint-profile","virtual":"No"},{"title":"Centerpoint School","lat":"44.47342579","lon":"-73.1591865","type":"Private School","address":"1025 Airport Dr","grades":["Middle","High"],"city":"South Burlington","state":"VT","zip":"5403","phone":"(802) 488-7711","low":"7","high":"12","students":"40","cost":"Yes","url":"https:\/\/centerpointservices.org\/","review":"","virtual":"No"},{"title":"Central Elementary School","lat":"43.132444","lon":"-72.450693","type":"Traditional Public School","address":"50 School Street Extension","grades":["Pre-K","Elementary"],"city":"Bellows Falls","state":"VT","zip":"5101","phone":"(802) 463-4346","low":"PK","high":"4","students":"194","cost":"No","url":"http:\/\/ceshome.org\/","review":"https:\/\/www.publicschoolreview.com\/central-elementary-school-profile\/05101","virtual":"Yes"},{"title":"Central Vermont Career Center","lat":"44.189089","lon":"-72.494836","type":"Specialized Public School","address":"50 Crimson Tide Way","grades":["High"],"city":"Barre","state":"VT","zip":"5641","phone":"(802) 476-6237","low":"9","high":"12","students":"See website","cost":"No","url":"","review":"https:\/\/www.publicschoolreview.com\/central-vermont-career-center-profile","virtual":"Yes"},{"title":"Chamberlin School","lat":"44.470352","lon":"-73.164823","type":"Traditional Public School","address":"262 White Street","grades":["Pre-K","Elementary"],"city":"South Burlington","state":"VT","zip":"5403","phone":"(802) 652-7400","low":"PK","high":"5","students":"492","cost":"No","url":"https:\/\/www.sbschools.net\/Domain\/10","review":"https:\/\/www.publicschoolreview.com\/chamberlin-school-profile","virtual":"Yes"},{"title":"Champlain School","lat":"44.457045","lon":"-73.21423","type":"Traditional Public School","address":"800 Pine Street","grades":["Pre-K","Elementary"],"city":"Burlington","state":"VT","zip":"5401","phone":"(802) 864-8477","low":"PK","high":"5","students":"564","cost":"No","url":"https:\/\/champlain.bsdvt.org\/","review":"https:\/\/www.publicschoolreview.com\/champlain-school-profile","virtual":"Yes"},{"title":"Champlain Valley Christian School","lat":"44.0656","lon":"-73.3819","type":"Private School","address":"2 Church St","grades":["Elementary","Middle"],"city":"Vergennes","state":"VT","zip":"5491","phone":"(802) 877-3640","low":"K","high":"8","students":"43","cost":"Yes","url":"https:\/\/www.cvcsvt.com\/","review":"https:\/\/www.privateschoolreview.com\/champlain-valley-christian-school-profile","virtual":"No"},{"title":"Champlain Valley Union High School","lat":"44.343149","lon":"-73.109245","type":"Traditional Public School","address":"396 Cvu Road","grades":["High"],"city":"Hinesburg","state":"VT","zip":"5461","phone":"(802) 482-7100","low":"9","high":"12","students":"1297","cost":"No","url":"https:\/\/www.cvsdvt.org\/cvuhs","review":"https:\/\/www.publicschoolreview.com\/champlain-valley-union-high-school-profile","virtual":"Yes"},{"title":"Charleston Elementary School","lat":"44.843182","lon":"-72.020196","type":"Traditional Public School","address":"255 Center School Road","grades":["Pre-K","Elementary","Middle"],"city":"West Charleston","state":"VT","zip":"5872","phone":"(802) 895-2915","low":"PK","high":"8","students":"128","cost":"No","url":"https:\/\/ces.ncsuvt.org\/","review":"https:\/\/www.publicschoolreview.com\/charleston-elementary-school-profile\/05872","virtual":"Yes"},{"title":"Charlotte Central School","lat":"44.315528","lon":"-73.226477","type":"Traditional Public School","address":"408 Hinesburg Road","grades":["Pre-K","Elementary","Middle"],"city":"Charlotte","state":"VT","zip":"5445","phone":"(802) 425-2771","low":"PK","high":"8","students":"416","cost":"No","url":"https:\/\/www.cvsdvt.org\/Domain\/8","review":"https:\/\/www.publicschoolreview.com\/charlotte-central-school-profile","virtual":"Yes"},{"title":"Chelsea Elementary Middle School","lat":"43.987251","lon":"-72.446505","type":"Traditional Public School","address":"6 School Street","grades":["Pre-K","Elementary","Middle"],"city":"Chelsea","state":"VT","zip":"5038","phone":"(802) 685-4551","low":"PK","high":"8","students":"100","cost":"No","url":"http:\/\/chelsea.owsu.org\/","review":"https:\/\/www.publicschoolreview.com\/chelsea-elementary-middle-school-profile","virtual":"Yes"},{"title":"Chester Andover Elementary School","lat":"43.264718","lon":"-72.595487","type":"Traditional Public School","address":"72 Main Street","grades":["Pre-K","Elementary","Middle"],"city":"Chester","state":"VT","zip":"5143","phone":"(802) 875-2108","low":"PK","high":"6","students":"241","cost":"No","url":"https:\/\/caes.trsu.org\/","review":"https:\/\/www.publicschoolreview.com\/chester-andover-elementary-school-profile","virtual":"Yes"},{"title":"Choice Academy","lat":"44.1997","lon":"-72.5016","type":"Private School","address":"23 Summer St","grades":["Elementary","Middle","High"],"city":"Barre","state":"VT","zip":"5641","phone":"(802) 479-0012","low":"5","high":"12","students":"39","cost":"Yes","url":"http:\/\/wcmha.org\/","review":"","virtual":"No"},{"title":"Christ The King School","lat":"43.60796175","lon":"-72.97236474","type":"Private School","address":"60 S Main St","grades":["Pre-K","Elementary","Middle"],"city":"Rutland","state":"VT","zip":"5701","phone":"(802) 773-0500","low":"PK","high":"8","students":"196","cost":"Yes","url":"https:\/\/www.google.com\/a\/cksrutland.org\/ServiceLogin2?continue=https%3A%2F%2Fsites.google.com%2Fa%2Fcksrutland.org%2Fcks%2F&followup=https%3A%2F%2Fsites.google.com%2Fa%2Fcksrutland.org%2Fcks%2F&service=jotspot&passive=true&ul=1","review":"https:\/\/www.privateschoolreview.com\/christ-the-king-school-profile\/05701","virtual":"No"},{"title":"Christ The King School","lat":"44.46344586","lon":"-73.20974119","type":"Private School","address":"136 Locust St","grades":["Pre-K","Elementary","Middle"],"city":"Burlington","state":"VT","zip":"5401","phone":"(802) 862-6696","low":"NS","high":"8","students":"194","cost":"Yes","url":"https:\/\/cksvt.org\/","review":"https:\/\/www.privateschoolreview.com\/christ-the-king-school-profile\/05401","virtual":"No"},{"title":"Clarendon Elementary School","lat":"43.563666","lon":"-72.967718","type":"Traditional Public School","address":"84 Grange Hall Road","grades":["Pre-K","Elementary","Middle"],"city":"North Clarendon","state":"VT","zip":"5759","phone":"(802) 775-5379","low":"PK","high":"6","students":"154","cost":"No","url":"http:\/\/millriverschools.org\/ces\/","review":"https:\/\/www.publicschoolreview.com\/clarendon-elementary-school-profile\/05759","virtual":"Yes"},{"title":"Colchester High School","lat":"44.539822","lon":"-73.214709","type":"Traditional Public School","address":"131 Laker Lane","grades":["High"],"city":"Colchester","state":"VT","zip":"5446","phone":"(802) 264-5700","low":"9","high":"12","students":"679","cost":"No","url":"https:\/\/www.csdvt.org\/chs\/index.php","review":"https:\/\/www.publicschoolreview.com\/colchester-high-school-profile","virtual":"Yes"},{"title":"Colchester Middle School","lat":"44.540131","lon":"-73.210827","type":"Traditional Public School","address":"425 Blakely Road","grades":["Middle"],"city":"Colchester","state":"VT","zip":"5446","phone":"(802) 264-5800","low":"6","high":"8","students":"512","cost":"No","url":"https:\/\/www.csdvt.org\/cms\/","review":"https:\/\/www.publicschoolreview.com\/colchester-middle-school-profile","virtual":"Yes"},{"title":"Cold Hollow Career Center","lat":"44.90513","lon":"-72.804205","type":"Specialized Public School","address":"Cold Hollow Road","grades":["High"],"city":"Enosburg Falls","state":"VT","zip":"5450","phone":"(802) 933-4003","low":"9","high":"12","students":"See website","cost":"No","url":"https:\/\/www.ed2go.com\/chccvt\/","review":"https:\/\/www.publicschoolreview.com\/cold-hollow-career-center-profile","virtual":"Yes"},{"title":"Community Schoolhouse","lat":"42.853571","lon":"-72.563219","type":"Private School","address":"10 Oak Street","grades":["Elementary","Middle"],"city":"Brattleboro","state":"VT","zip":"5301","phone":"(802) 257-7470","low":"1","high":"7","students":"21","cost":"Yes","url":"https:\/\/www.communityhousevt.org\/","review":"","virtual":"No"},{"title":"Compass School","lat":"43.1219415","lon":"-72.4361351","type":"Private School","address":"7892 US Route 5","grades":["Middle","High"],"city":"Westminster Station","state":"VT","zip":"5159","phone":"(802) 463-2525","low":"7","high":"12","students":"78","cost":"Yes","url":"https:\/\/www.compass-school.org\/","review":"https:\/\/www.privateschoolreview.com\/compass-school-profile","virtual":"No"},{"title":"Concord Graded\/Middle School","lat":"44.426358","lon":"-71.890554","type":"Traditional Public School","address":"173 School Street","grades":["Pre-K","Elementary","Middle"],"city":"Concord","state":"VT","zip":"5824","phone":"(802) 695-2550","low":"PK","high":"8","students":"84","cost":"No","url":"","review":"https:\/\/www.publicschoolreview.com\/concord-graded-middle-school-profile","virtual":"No"},{"title":"Cornerstone School","lat":"44.42075322","lon":"-72.00560991","type":"Private School","address":"510 Portland St","grades":["Elementary","Middle"],"city":"Saint Johnsbury","state":"VT","zip":"5819","phone":"(802) 748-6282","low":"1","high":"8","students":"23","cost":"Yes","url":"https:\/\/www.nfivermont.org\/services\/educational-services\/cornerstone-school\/","review":"https:\/\/www.privateschoolreview.com\/cornerstone-school-profile\/05819","virtual":"No"},{"title":"Coventry Village School","lat":"44.863284","lon":"-72.265281","type":"Traditional Public School","address":"348 Route 5","grades":["Pre-K","Elementary","Middle"],"city":"Coventry","state":"VT","zip":"5825","phone":"(802) 754-6464","low":"PK","high":"8","students":"126","cost":"No","url":"https:\/\/cvs.ncsuvt.org\/","review":"https:\/\/www.publicschoolreview.com\/coventry-village-school-profile","virtual":"Yes"},{"title":"Craftsbury Schools","lat":"44.654176","lon":"-72.382265","type":"Traditional Public School","address":"1422 North Craftsbury Road","grades":["Pre-K","Elementary","Middle","High"],"city":"Craftsbury Common","state":"VT","zip":"5827","phone":"(802) 586-2541","low":"PK","high":"12","students":"209","cost":"No","url":"https:\/\/craftsbury.ossu.org\/","review":"https:\/\/www.publicschoolreview.com\/craftsbury-schools-profile","virtual":"Yes"},{"title":"Crossett Brook Middle School","lat":"44.321322","lon":"-72.752574","type":"Traditional Public School","address":"5672 Vt Route 100","grades":["Elementary","Middle"],"city":"Waterbury","state":"VT","zip":"5676","phone":"(802) 244-6100","low":"5","high":"8","students":"290","cost":"No","url":"https:\/\/cbms.wwsu.org\/","review":"https:\/\/www.publicschoolreview.com\/crossett-brook-middle-school-profile","virtual":"Yes"},{"title":"Currier Memorial Union School","lat":"43.350052","lon":"-72.995135","type":"Traditional Public School","address":"234 North Main Street","grades":["Pre-K","Elementary"],"city":"Danby","state":"VT","zip":"5739","phone":"(802) 293-5191","low":"PK","high":"5","students":"79","cost":"No","url":"http:\/\/brsu.haikulearning.com\/cjarvis\/curriermemorialschool\/cms_page\/view","review":"https:\/\/www.publicschoolreview.com\/currier-memorial-union-school-profile","virtual":"Yes"},{"title":"Danville School","lat":"44.409376","lon":"-72.139854","type":"Traditional Public School","address":"143 Peacham Road","grades":["Pre-K","Elementary","Middle","High"],"city":"Danville","state":"VT","zip":"5828","phone":"(802) 684-3651","low":"PK","high":"12","students":"355","cost":"No","url":"https:\/\/www.danvilleschoolvt.org\/cms\/One.aspx","review":"https:\/\/www.publicschoolreview.com\/danville-school-profile","virtual":"Yes"},{"title":"Derby Elementary School","lat":"45.003344","lon":"-72.118149","type":"Traditional Public School","address":"907 Elm Street","grades":["Pre-K","Elementary","Middle"],"city":"Derby Line","state":"VT","zip":"5830","phone":"(802) 873-3162","low":"PK","high":"6","students":"470","cost":"No","url":"https:\/\/des.ncsuvt.org\/","review":"https:\/\/www.publicschoolreview.com\/derby-elementary-school-profile","virtual":"Yes"},{"title":"Dorset Elementary School","lat":"43.22192","lon":"-73.066048","type":"Traditional Public School","address":"130 School Drive","grades":["Pre-K","Elementary","Middle"],"city":"Dorset","state":"VT","zip":"5251","phone":"(802) 362-2606","low":"PK","high":"8","students":"161","cost":"No","url":"https:\/\/sites.google.com\/brsu.org\/thedorsetschool\/home","review":"https:\/\/www.publicschoolreview.com\/dorset-elementary-school-profile","virtual":"Yes"},{"title":"Dothan Brook School","lat":"43.687548","lon":"-72.320782","type":"Traditional Public School","address":"2300 Christian Street","grades":["Pre-K","Elementary"],"city":"White River Junction","state":"VT","zip":"5001","phone":"(802) 295-8647","low":"PK","high":"5","students":"236","cost":"No","url":"https:\/\/www.dbsvt.com\/","review":"https:\/\/www.publicschoolreview.com\/dothan-brook-school-profile","virtual":"Yes"},{"title":"Doty Memorial School","lat":"44.372875","lon":"-72.548072","type":"Traditional Public School","address":"24 Calais Road","grades":["Pre-K","Elementary","Middle"],"city":"Worcester","state":"VT","zip":"5682","phone":"(802) 223-5656","low":"PK","high":"6","students":"71","cost":"No","url":"https:\/\/www.wcsu32.org\/Domain\/24","review":"https:\/\/www.publicschoolreview.com\/doty-memorial-school-profile","virtual":"Yes"},{"title":"Dover Elementary School","lat":"42.946729","lon":"-72.792802","type":"Traditional Public School","address":"9 Schoolhouse Road","grades":["Pre-K","Elementary","Middle"],"city":"East Dover","state":"VT","zip":"5341","phone":"(802) 464-5386","low":"PK","high":"6","students":"109","cost":"No","url":"https:\/\/sites.google.com\/a\/doverschool.net\/main\/home","review":"https:\/\/www.publicschoolreview.com\/dover-elementary-school-profile\/05341","virtual":"Yes"},{"title":"Dummerston Schools","lat":"42.933265","lon":"-72.537853","type":"Traditional Public School","address":"52 Schoolhouse Road","grades":["Pre-K","Elementary","Middle"],"city":"Putney","state":"VT","zip":"5346","phone":"(802) 254-2733","low":"PK","high":"8","students":"161","cost":"No","url":"","review":"https:\/\/www.publicschoolreview.com\/dummerston-schools-profile","virtual":"Yes"},{"title":"East Burke School","lat":"44.6094","lon":"-71.9364","type":"Private School","address":"611 Vt Rte 114","grades":["Middle","High"],"city":"East Burke","state":"VT","zip":"5832","phone":"(802) 626-8317","low":"8","high":"12","students":"See website","cost":"Yes","url":"https:\/\/www.eastburkeschool.org\/","review":"","virtual":"No"},{"title":"East Meadow","lat":"44.57124","lon":"-72.586004","type":"Private School","address":"28 James Rd # 1","grades":["Elementary","Middle","High"],"city":"Morrisville","state":"VT","zip":"5661","phone":"(802) 888-4151","low":"3","high":"11","students":"14","cost":"Yes","url":"","review":"","virtual":"No"},{"title":"East Montpelier Elementary School","lat":"44.286713","lon":"-72.494506","type":"Traditional Public School","address":"665 Vincent Flats Road","grades":["Pre-K","Elementary","Middle"],"city":"East Montpelier","state":"VT","zip":"5651","phone":"(802) 223-7936","low":"PK","high":"6","students":"226","cost":"No","url":"https:\/\/www.wcsu32.org\/Domain\/25","review":"https:\/\/www.publicschoolreview.com\/east-montpelier-elementary-school-profile","virtual":"Yes"},{"title":"East Valley Academy","lat":"43.9402128","lon":"-72.5542416","type":"Private School","address":"579 Vermont Route 14 South","grades":["Elementary","Middle","High"],"city":"East Randolph","state":"VT","zip":"5041","phone":"(802) 728-8396","low":"3","high":"12","students":"20","cost":"Yes","url":"http:\/\/www.claramartin.org\/","review":"","virtual":"No"},{"title":"Easter Seals Of Vermont","lat":"43.6106237","lon":"-72.9726065","type":"Private School","address":"Mead Building 98 Merchants Road","grades":["High"],"city":"Rutland","state":"VT","zip":"5702","phone":"(802) 747-0185","low":"10","high":"12","students":"See website","cost":"Yes","url":"https:\/\/www.easterseals.com\/vt\/who-we-are\/locations\/","review":"","virtual":"No"},{"title":"Eden Central School","lat":"44.703491","lon":"-72.565316","type":"Traditional Public School","address":"140 Knowles Flat Road","grades":["Pre-K","Elementary","Middle"],"city":"Eden","state":"VT","zip":"5652","phone":"(802) 635-6630","low":"PK","high":"6","students":"115","cost":"No","url":"http:\/\/www.edenschool.net\/","review":"https:\/\/www.publicschoolreview.com\/eden-central-school-profile","virtual":"Yes"},{"title":"Edmunds Elementary School","lat":"44.476138","lon":"-73.207335","type":"Traditional Public School","address":"299 Main Street","grades":["Pre-K","Elementary"],"city":"Burlington","state":"VT","zip":"5401","phone":"(802) 864-8473","low":"PK","high":"5","students":"237","cost":"No","url":"https:\/\/ees.bsdvt.org\/","review":"https:\/\/www.publicschoolreview.com\/edmunds-elementary-school-profile","virtual":"Yes"},{"title":"Edmunds Middle School","lat":"44.476108","lon":"-73.208131","type":"Traditional Public School","address":"275 Main Street","grades":["Middle"],"city":"Burlington","state":"VT","zip":"5401","phone":"(802) 864-8486","low":"6","high":"8","students":"366","cost":"No","url":"https:\/\/ems.bsdvt.org\/","review":"https:\/\/www.publicschoolreview.com\/edmunds-middle-school-profile","virtual":"Yes"},{"title":"Elm Hill School","lat":"43.305573","lon":"-72.48452","type":"Traditional Public School","address":"10 Hoover Street","grades":["Pre-K","Elementary"],"city":"Springfield","state":"VT","zip":"5156","phone":"(802) 885-5154","low":"PK","high":"2","students":"351","cost":"No","url":"https:\/\/elm.ssdvt.org\/","review":"https:\/\/www.publicschoolreview.com\/elm-hill-school-profile","virtual":"Yes"},{"title":"Endeavour Middle School","lat":"44.39777","lon":"-73.220431","type":"Private School","address":"4066 Shelburne Rd","grades":["Elementary","Middle"],"city":"Shelburne","state":"VT","zip":"5482","phone":"(802) 985-2153","low":"5","high":"8","students":"13","cost":"Yes","url":"","review":"","virtual":"No"},{"title":"Enosburg Falls Elementary School","lat":"44.904024","lon":"-72.800738","type":"Traditional Public School","address":"303 Dickenson Avenue","grades":["Pre-K","Elementary"],"city":"Enosburg Falls","state":"VT","zip":"5450","phone":"(802) 933-2171","low":"PK","high":"5","students":"243","cost":"No","url":"https:\/\/ees.ehornets.org\/","review":"https:\/\/www.publicschoolreview.com\/enosburg-falls-elementary-school-profile","virtual":"Yes"},{"title":"Enosburg Falls Junior\/Senior High School","lat":"44.90483","lon":"-72.804968","type":"Traditional Public School","address":"65 Dickenson Avenue","grades":["Middle","High"],"city":"Enosburg Falls","state":"VT","zip":"5450","phone":"(802) 933-7777","low":"6","high":"12","students":"382","cost":"No","url":"https:\/\/hs.ehornets.org\/","review":"https:\/\/www.publicschoolreview.com\/enosburg-falls-junior-senior-high-school-profile","virtual":"Yes"},{"title":"Essex Elementary School","lat":"44.513382","lon":"-73.056913","type":"Traditional Public School","address":"1 Bixby Hill Road","grades":["Pre-K","Elementary"],"city":"Essex Junction","state":"VT","zip":"5452","phone":"(802) 878-2584","low":"PK","high":"2","students":"504","cost":"No","url":"https:\/\/www.ewsd.org\/EES","review":"https:\/\/www.publicschoolreview.com\/essex-elementary-school-profile\/05452","virtual":"Yes"},{"title":"Essex High School","lat":"44.497494","lon":"-73.108592","type":"Traditional Public School","address":"2 Educational Drive","grades":["High"],"city":"Essex Junction","state":"VT","zip":"5452","phone":"(802) 879-7121","low":"9","high":"12","students":"1230","cost":"No","url":"http:\/\/www.ccsuvt.org\/ehs\/","review":"https:\/\/www.publicschoolreview.com\/essex-high-school-profile\/05452","virtual":"Yes"},{"title":"Essex Middle School","lat":"44.499564","lon":"-73.057603","type":"Traditional Public School","address":"60 Founders Road","grades":["Middle"],"city":"Essex Junction","state":"VT","zip":"5452","phone":"(802) 879-7173","low":"6","high":"8","students":"438","cost":"No","url":"https:\/\/www.ewsd.org\/EMS","review":"https:\/\/www.publicschoolreview.com\/essex-middle-school-profile","virtual":"Yes"},{"title":"Fair Haven Grade School","lat":"43.595064","lon":"-73.265199","type":"Traditional Public School","address":"103 North Main Street","grades":["Pre-K","Elementary","Middle"],"city":"Fair Haven","state":"VT","zip":"5743","phone":"(802) 265-3883","low":"PK","high":"8","students":"338","cost":"No","url":"http:\/\/www.fhgs.org\/","review":"https:\/\/www.publicschoolreview.com\/fair-haven-grade-school-profile","virtual":"No"},{"title":"Fair Haven Union High School","lat":"43.603525","lon":"-73.270219","type":"Traditional Public School","address":"33 Mechanic Street","grades":["High"],"city":"Fair Haven","state":"VT","zip":"5743","phone":"(802) 265-4966","low":"9","high":"12","students":"360","cost":"No","url":"http:\/\/www.fhuhs.org\/","review":"https:\/\/www.publicschoolreview.com\/fair-haven-union-high-school-profile","virtual":"Yes"},{"title":"Fairfield Center School","lat":"44.800373","lon":"-72.948312","type":"Traditional Public School","address":"57 Park Street","grades":["Pre-K","Elementary","Middle"],"city":"Fairfield","state":"VT","zip":"5455","phone":"(802) 827-6639","low":"PK","high":"8","students":"257","cost":"No","url":"https:\/\/www.usd453.org\/Domain\/11","review":"https:\/\/www.publicschoolreview.com\/fairfield-center-school-profile","virtual":"Yes"},{"title":"Fayston Elementary School","lat":"44.178767","lon":"-72.884029","type":"Traditional Public School","address":"782 German Flats Road","grades":["Pre-K","Elementary","Middle"],"city":"Waitsfield","state":"VT","zip":"5673","phone":"(802) 496-3636","low":"PK","high":"6","students":"69","cost":"No","url":"https:\/\/www.faystonschool.org\/","review":"https:\/\/www.publicschoolreview.com\/fayston-elementary-school-profile","virtual":"Yes"},{"title":"Ferrisburgh Central School","lat":"44.205504","lon":"-73.247586","type":"Traditional Public School","address":"56 Little Chicago Road","grades":["Pre-K","Elementary","Middle"],"city":"Ferrisburgh","state":"VT","zip":"5456","phone":"(802) 877-3463","low":"PK","high":"6","students":"134","cost":"No","url":"https:\/\/www.bcsoh.org\/Domain\/17","review":"https:\/\/www.publicschoolreview.com\/ferrisburgh-central-school-profile","virtual":"Yes"},{"title":"Fisher School","lat":"43.066362","lon":"-73.152693","type":"Traditional Public School","address":"504 East Arlington Road","grades":["Pre-K","Elementary"],"city":"Arlington","state":"VT","zip":"5250","phone":"(802) 375-6409","low":"PK","high":"5","students":"202","cost":"No","url":"https:\/\/www.fisherelementaryschool.org\/","review":"https:\/\/www.publicschoolreview.com\/fisher-school-profile","virtual":"Yes"},{"title":"Fletcher Elementary School","lat":"44.670452","lon":"-72.923258","type":"Traditional Public School","address":"340 School Road","grades":["Pre-K","Elementary","Middle"],"city":"Cambridge","state":"VT","zip":"5444","phone":"(802) 849-6251","low":"PK","high":"6","students":"102","cost":"No","url":"https:\/\/www.fletcherelementary.org\/","review":"https:\/\/www.publicschoolreview.com\/fletcher-elementary-school-profile\/05444","virtual":"Yes"},{"title":"Flood Brook School","lat":"43.236976","lon":"-72.84816","type":"Traditional Public School","address":"91 Vt Route 11","grades":["Pre-K","Elementary","Middle"],"city":"Londonderry","state":"VT","zip":"5148","phone":"(802) 824-6811","low":"PK","high":"8","students":"278","cost":"No","url":"https:\/\/sites.google.com\/brsu.org\/floodbrookschool\/home","review":"https:\/\/www.publicschoolreview.com\/flood-brook-school-profile","virtual":"Yes"},{"title":"Folsum Education & Community Center","lat":"44.636306","lon":"-73.302636","type":"Traditional Public School","address":"75 South Street","grades":["Pre-K","Elementary","Middle"],"city":"South Hero","state":"VT","zip":"5486","phone":"(802) 372-6600","low":"PK","high":"8","students":"151","cost":"No","url":"https:\/\/www.gofolsom.org\/","review":"https:\/\/www.publicschoolreview.com\/folsum-education-community-center-profile","virtual":"Yes"},{"title":"Forrest Ward Memorial School","lat":"42.915808","lon":"-73.204124","type":"Private School","address":"404 Houghton Lanae","grades":["Elementary","Middle"],"city":"Bennington","state":"VT","zip":"5201","phone":"(802) 681-7029","low":"1","high":"8","students":"See website","cost":"Yes","url":"https:\/\/forrest22.adventistschoolconnect.org\/","review":"https:\/\/www.privateschoolreview.com\/forrest-ward-memorial-school-profile","virtual":"No"},{"title":"Foundations","lat":"43.477581","lon":"-72.387199","type":"Private School","address":"147 Main St","grades":["Elementary","Middle","High"],"city":"Windsor","state":"VT","zip":"5089","phone":"(802) 674-4428","low":"K","high":"12","students":"See website","cost":"Yes","url":"https:\/\/www.sdplus.org\/","review":"","virtual":"No"},{"title":"Founders Memorial School","lat":"44.49993","lon":"-73.055392","type":"Traditional Public School","address":"33 Founders Road","grades":["Elementary"],"city":"Essex Junction","state":"VT","zip":"5452","phone":"(802) 879-6326","low":"3","high":"5","students":"351","cost":"No","url":"https:\/\/www.ewsd.org\/FMS","review":"https:\/\/www.publicschoolreview.com\/founders-memorial-school-profile","virtual":"Yes"},{"title":"Franklin Central School","lat":"44.983478","lon":"-72.918839","type":"Traditional Public School","address":"15 School Street","grades":["Pre-K","Elementary","Middle"],"city":"Franklin","state":"VT","zip":"5457","phone":"(802) 285-2100","low":"PK","high":"6","students":"135","cost":"No","url":"http:\/\/www.franklin.k12.vt.us\/","review":"https:\/\/www.publicschoolreview.com\/franklin-central-school-profile\/05457","virtual":"Yes"},{"title":"Frederick H. Tuttle Middle School","lat":"44.457315","lon":"-73.179402","type":"Traditional Public School","address":"550 Dorset Street","grades":["Middle"],"city":"South Burlington","state":"VT","zip":"5403","phone":"(802) 652-7100","low":"6","high":"8","students":"497","cost":"No","url":"https:\/\/www.sbschools.net\/Domain\/9","review":"https:\/\/www.publicschoolreview.com\/frederick-h-tuttle-middle-school-profile","virtual":"Yes"},{"title":"Georgia Elementary & Middle School","lat":"44.735328","lon":"-73.115941","type":"Traditional Public School","address":"4416 Ethan Allen Highway","grades":["Pre-K","Elementary","Middle"],"city":"Saint Albans","state":"VT","zip":"5478","phone":"(802) 524-6358","low":"PK","high":"8","students":"612","cost":"No","url":"https:\/\/www.gemsvt.org\/","review":"https:\/\/www.publicschoolreview.com\/georgia-elementary-middle-school-profile","virtual":"Yes"},{"title":"Glover Village School","lat":"44.705886","lon":"-72.189441","type":"Traditional Public School","address":"100 School Street","grades":["Pre-K","Elementary","Middle"],"city":"Glover","state":"VT","zip":"5839","phone":"(802) 525-6958","low":"PK","high":"8","students":"106","cost":"No","url":"https:\/\/glovercommunityschool.weebly.com\/","review":"https:\/\/www.publicschoolreview.com\/glover-village-school-profile","virtual":"Yes"},{"title":"Good Shepherd Catholic School","lat":"44.420427","lon":"-72.017698","type":"Private School","address":"121 Maple St","grades":["Pre-K","Elementary","Middle"],"city":"Saint Johnsbury","state":"VT","zip":"5819","phone":"(802) 751-8223","low":"NS","high":"8","students":"109","cost":"Yes","url":"https:\/\/www.goodshepherdschoolvt.org\/","review":"https:\/\/www.privateschoolreview.com\/good-shepherd-catholic-school-profile\/05819","virtual":"No"},{"title":"Grace Christian School","lat":"42.8943","lon":"-73.19712546","type":"Private School","address":"104 Kocher Dr","grades":["Pre-K","Elementary","Middle","High"],"city":"Bennington","state":"VT","zip":"5201","phone":"(802) 447-2233","low":"PK","high":"12","students":"112","cost":"Yes","url":"https:\/\/gcsvt.org\/","review":"https:\/\/www.privateschoolreview.com\/grace-christian-school-profile\/05201","virtual":"No"},{"title":"Grafton Elementary School","lat":"43.170565","lon":"-72.608923","type":"Traditional Public School","address":"58 School Street","grades":["Pre-K","Elementary","Middle"],"city":"Grafton","state":"VT","zip":"5146","phone":"(802) 843-2495","low":"PK","high":"6","students":"53","cost":"No","url":"https:\/\/ges.wnesu.org\/","review":"https:\/\/www.publicschoolreview.com\/grafton-elementary-school-profile\/05146","virtual":"Yes"},{"title":"Grand Isle Elementary School","lat":"44.725385","lon":"-73.292709","type":"Traditional Public School","address":"224 U.s. Route 2","grades":["Pre-K","Elementary","Middle"],"city":"Grand Isle","state":"VT","zip":"5458","phone":"(802) 372-6913","low":"PK","high":"6","students":"147","cost":"No","url":"https:\/\/www.grandisleschool.org\/","review":"https:\/\/www.publicschoolreview.com\/grand-isle-elementary-school-profile","virtual":"Yes"},{"title":"Green Mountain Montessori School","lat":"44.5112","lon":"-73.0584","type":"Private School","address":"8 Jericho Rd","grades":["Elementary"],"city":"Essex Junction","state":"VT","zip":"5452","phone":"(802) 879-9114","low":"K","high":"2","students":"45","cost":"Yes","url":"https:\/\/gmmontessori.org\/","review":"","virtual":"No"},{"title":"Green Mountain Technology And Career Center","lat":"44.601853","lon":"-72.630733","type":"Specialized Public School","address":"Route 15 West","grades":["High"],"city":"Hyde Park","state":"VT","zip":"5655","phone":"(802) 888-4447","low":"9","high":"12","students":"See website","cost":"No","url":"http:\/\/www.gmtcc.info\/","review":"https:\/\/www.publicschoolreview.com\/green-mountain-technology-and-career-center-profile","virtual":"Yes"},{"title":"Green Mountain Union High School","lat":"43.253621","lon":"-72.58146","type":"Traditional Public School","address":"716 Vt Route 103 South","grades":["Middle","High"],"city":"Chester","state":"VT","zip":"5143","phone":"(802) 875-2146","low":"7","high":"12","students":"346","cost":"No","url":"https:\/\/gmuhs.trsu.org\/","review":"https:\/\/www.publicschoolreview.com\/green-mountain-union-high-school-profile","virtual":"Yes"},{"title":"Green Mountain Valley School","lat":"44.18558005","lon":"-72.8503053","type":"Private School","address":"271 Moulton Rd","grades":["Middle","High"],"city":"Waitsfield","state":"VT","zip":"5673","phone":"(802) 496-2150","low":"8","high":"12","students":"92","cost":"Yes","url":"https:\/\/gmvs.org\/","review":"https:\/\/www.privateschoolreview.com\/green-mountain-valley-school-profile","virtual":"No"},{"title":"Green Street School","lat":"42.852271","lon":"-72.565018","type":"Traditional Public School","address":"164 Green Street","grades":["Pre-K","Elementary","Middle"],"city":"Brattleboro","state":"VT","zip":"5301","phone":"(802) 254-3737","low":"PK","high":"6","students":"245","cost":"No","url":"https:\/\/www.greenstreetschoolvt.com\/","review":"https:\/\/www.publicschoolreview.com\/green-street-school-profile","virtual":"Yes"},{"title":"Guilford Central School","lat":"42.80051","lon":"-72.62236","type":"Traditional Public School","address":"374 School Road","grades":["Pre-K","Elementary","Middle"],"city":"Brattleboro","state":"VT","zip":"5301","phone":"(802) 254-2271","low":"PK","high":"6","students":"133","cost":"No","url":"http:\/\/sites.google.com\/site\/vermontgcs\/","review":"https:\/\/www.publicschoolreview.com\/guilford-central-school-profile","virtual":"Yes"},{"title":"Halifax West School","lat":"42.784524","lon":"-72.76813","type":"Traditional Public School","address":"246 Branch Road","grades":["Pre-K","Elementary","Middle"],"city":"West Halifax","state":"VT","zip":"5358","phone":"(802) 368-2888","low":"PK","high":"8","students":"70","cost":"No","url":"http:\/\/www.halifaxschool.net\/","review":"https:\/\/www.publicschoolreview.com\/halifax-west-school-profile","virtual":"Yes"},{"title":"Hardwick Elementary School","lat":"44.503714","lon":"-72.368507","type":"Traditional Public School","address":"135 South Main Street","grades":["Pre-K","Elementary","Middle"],"city":"Hardwick","state":"VT","zip":"5843","phone":"(802) 472-5411","low":"PK","high":"6","students":"231","cost":"No","url":"https:\/\/hardwick.ossu.org\/","review":"https:\/\/www.publicschoolreview.com\/hardwick-elementary-school-profile\/05843","virtual":"Yes"},{"title":"Hartford Area Career & Technology Center","lat":"43.658325","lon":"-72.319062","type":"Specialized Public School","address":"1 Gifford Road","grades":["High"],"city":"White River Junction","state":"VT","zip":"5001","phone":"(802) 295-8630","low":"9","high":"12","students":"See website","cost":"No","url":"https:\/\/www.hactc.com\/","review":"https:\/\/www.publicschoolreview.com\/hartford-area-career-technology-center-profile","virtual":"No"},{"title":"Hartford High School","lat":"43.656273","lon":"-72.316924","type":"Traditional Public School","address":"37 Highland Avenue","grades":["High"],"city":"White River Junction","state":"VT","zip":"5001","phone":"(802) 295-8610","low":"9","high":"12","students":"503","cost":"No","url":"https:\/\/www.hhsvt.com\/","review":"https:\/\/www.publicschoolreview.com\/hartford-high-school-profile\/05001","virtual":"Yes"},{"title":"Hartford Memorial Middle School","lat":"43.655985","lon":"-72.320124","type":"Traditional Public School","address":"245 Highland Avenue","grades":["Middle"],"city":"White River Junction","state":"VT","zip":"5001","phone":"(802) 295-8640","low":"6","high":"8","students":"295","cost":"No","url":"https:\/\/www.hmmsvt.com\/","review":"https:\/\/www.publicschoolreview.com\/hartford-memorial-middle-school-profile","virtual":"Yes"},{"title":"Hartland Elementary School","lat":"43.537978","lon":"-72.39329","type":"Traditional Public School","address":"97 Martinsville Road","grades":["Pre-K","Elementary","Middle"],"city":"Hartland","state":"VT","zip":"5048","phone":"(802) 436-2255","low":"PK","high":"8","students":"296","cost":"No","url":"https:\/\/hes.wsesu.net\/","review":"https:\/\/www.publicschoolreview.com\/hartland-elementary-school-profile","virtual":"Yes"},{"title":"Harwood Union Middle\/High School","lat":"44.254041","lon":"-72.786438","type":"Traditional Public School","address":"458 Vt Route 100","grades":["Middle","High"],"city":"Moretown","state":"VT","zip":"5660","phone":"(802) 244-5186","low":"7","high":"12","students":"601","cost":"No","url":"http:\/\/harwoodunion.com\/harwood2013\/","review":"https:\/\/www.publicschoolreview.com\/harwood-union-middle-high-school-profile","virtual":"Yes"},{"title":"Hazen Uhsd # 26","lat":"44.508621","lon":"-72.364773","type":"Traditional Public School","address":"126 Hazen Union Drive","grades":["Middle","High"],"city":"Hardwick","state":"VT","zip":"5843","phone":"(802) 472-6511","low":"7","high":"12","students":"296","cost":"No","url":"https:\/\/hazen.ossu.org\/","review":"https:\/\/www.publicschoolreview.com\/hazen-uhsd-26-profile","virtual":"Yes"},{"title":"Hiawatha School","lat":"44.489926","lon":"-73.127658","type":"Traditional Public School","address":"34 Hiawatha Avenue","grades":["Pre-K","Elementary"],"city":"Essex Junction","state":"VT","zip":"5452","phone":"(802) 878-1384","low":"PK","high":"3","students":"220","cost":"No","url":"https:\/\/www.ewsd.org\/HIA","review":"https:\/\/www.publicschoolreview.com\/hiawatha-school-profile\/05452","virtual":"Yes"},{"title":"Highgate School","lat":"44.940713","lon":"-73.04281","type":"Traditional Public School","address":"219 Gore Road","grades":["Pre-K","Elementary","Middle"],"city":"Highgate Center","state":"VT","zip":"5459","phone":"(802) 868-4170","low":"PK","high":"6","students":"236","cost":"No","url":"https:\/\/sites.google.com\/a\/fnwsu.org\/hes\/","review":"https:\/\/www.publicschoolreview.com\/highgate-school-profile","virtual":"Yes"},{"title":"Hiland Hall School","lat":"42.93218","lon":"-73.21004333","type":"Private School","address":"2196 Harwood Hill Rd","grades":["Elementary","Middle"],"city":"Bennington","state":"VT","zip":"5201","phone":"(802) 442-3868","low":"K","high":"8","students":"36","cost":"Yes","url":"https:\/\/www.hilandhallschool.org\/","review":"https:\/\/www.privateschoolreview.com\/hiland-hall-school-profile","virtual":"No"},{"title":"Hilltop Montessori School","lat":"42.8509152","lon":"-72.5578678","type":"Private School","address":"99 Stafford Farm Hill","grades":["Pre-K","Elementary","Middle"],"city":"Brattleboro","state":"VT","zip":"5301","phone":"(802) 257-0500","low":"NS","high":"8","students":"130","cost":"Yes","url":"https:\/\/hilltopmontessori.org\/","review":"https:\/\/www.privateschoolreview.com\/hilltop-montessori-school-profile","virtual":"No"},{"title":"Hinesburg Elementary School","lat":"44.326634","lon":"-73.108316","type":"Traditional Public School","address":"10888 Route 116","grades":["Pre-K","Elementary","Middle"],"city":"Hinesburg","state":"VT","zip":"5461","phone":"(802) 482-2106","low":"PK","high":"8","students":"579","cost":"No","url":"https:\/\/www.cvsdvt.org","review":"https:\/\/www.publicschoolreview.com\/hinesburg-elementary-school-profile","virtual":"Yes"},{"title":"Hunger Mountain Children's Center","lat":"44.331326","lon":"-72.750293","type":"Private School","address":"123 S Main St","grades":["Elementary"],"city":"Waterbury","state":"VT","zip":"5676","phone":"(802) 244-5544","low":"K","high":"K","students":"31","cost":"Yes","url":"https:\/\/sites.google.com\/a\/hungermtncc.org\/www\/","review":"","virtual":"No"},{"title":"Hyde Park Elementary School","lat":"44.592579","lon":"-72.613558","type":"Traditional Public School","address":"50 East Main Street","grades":["Pre-K","Elementary","Middle"],"city":"Hyde Park","state":"VT","zip":"5655","phone":"(802) 888-2237","low":"PK","high":"6","students":"192","cost":"No","url":"http:\/\/www.hpes.org\/","review":"https:\/\/www.publicschoolreview.com\/hyde-park-elementary-school-profile\/05655","virtual":"Yes"},{"title":"Inspire For Autism","lat":"42.84224","lon":"-72.574521","type":"Private School","address":"130 Austine Dr Ste 240","grades":["Elementary","Middle","High"],"city":"Brattleboro","state":"VT","zip":"5301","phone":"(802) 251-7301","low":"5","high":"12","students":"28","cost":"Yes","url":"http:\/\/theinspireschool.org\/","review":"","virtual":"No"},{"title":"Integrated Arts Academy At H. O. Wheeler","lat":"44.487701","lon":"-73.213847","type":"Public Magnet School","address":"6 Archibald Street","grades":["Pre-K","Elementary"],"city":"Burlington","state":"VT","zip":"5401","phone":"(802) 864-8475","low":"PK","high":"5","students":"253","cost":"No","url":"https:\/\/iaa.bsdvt.org\/","review":"https:\/\/www.publicschoolreview.com\/integrated-arts-academy-at-h-o-wheeler-profile","virtual":"Yes"},{"title":"International Children's School Inc.","lat":"44.469019","lon":"-73.172791","type":"Private School","address":"1 Executive Drive, P.O.Box 9435","grades":["Pre-K","Elementary"],"city":"South Burlington","state":"VT","zip":"5407","phone":"(802) 865-3344","low":"PK","high":"3","students":"30","cost":"Yes","url":"https:\/\/internationalchildrensschool.com\/","review":"https:\/\/www.privateschoolreview.com\/international-children-s-school-inc-profile","virtual":"No"},{"title":"Irasburg Village School","lat":"44.804263","lon":"-72.273621","type":"Traditional Public School","address":"292 Route 58 East","grades":["Pre-K","Elementary","Middle"],"city":"Irasburg","state":"VT","zip":"5845","phone":"(802) 754-8810","low":"PK","high":"8","students":"126","cost":"No","url":"https:\/\/irasburgschool.weebly.com\/","review":"https:\/\/www.publicschoolreview.com\/irasburg-village-school-profile","virtual":"Yes"},{"title":"J. F. Kennedy Elementary School","lat":"44.500415","lon":"-73.181055","type":"Traditional Public School","address":"70 Normand Street","grades":["Pre-K","Elementary"],"city":"Winooski","state":"VT","zip":"5404","phone":"(802) 655-0411","low":"PK","high":"5","students":"429","cost":"No","url":"https:\/\/www.wsdschools.org\/schools-programs\/jfk-elementary\/","review":"https:\/\/www.publicschoolreview.com\/j-f-kennedy-elementary-school-profile\/05404","virtual":"Yes"},{"title":"J. J. Flynn School","lat":"44.517219","lon":"-73.258956","type":"Traditional Public School","address":"1645 North Avenue","grades":["Pre-K","Elementary"],"city":"Burlington","state":"VT","zip":"5401","phone":"(802) 864-8478","low":"PK","high":"5","students":"321","cost":"No","url":"https:\/\/flynn.bsdvt.org\/","review":"https:\/\/www.publicschoolreview.com\/j-j-flynn-school-profile","virtual":"Yes"},{"title":"Jamaica Village School","lat":"43.103402","lon":"-72.775219","type":"Traditional Public School","address":"347 Depot Street","grades":["Pre-K","Elementary"],"city":"Jamaica","state":"VT","zip":"5343","phone":"(802) 874-4822","low":"PK","high":"5","students":"22","cost":"No","url":"https:\/\/www.jamaicavillageschool.org\/","review":"https:\/\/www.publicschoolreview.com\/jamaica-village-school-profile","virtual":"Yes"},{"title":"Jay\/Westfield Joint Elementary School","lat":"44.952665","lon":"-72.435028","type":"Traditional Public School","address":"257 Revoir Flats Road","grades":["Pre-K","Elementary","Middle"],"city":"North Troy","state":"VT","zip":"5859","phone":"(802) 988-4042","low":"PK","high":"6","students":"80","cost":"No","url":"https:\/\/jwjs.ncsuvt.org\/","review":"https:\/\/www.publicschoolreview.com\/jay-westfield-joint-elementary-school-profile","virtual":"Yes"},{"title":"Jean Garvin School","lat":"44.45116634","lon":"-73.1181","type":"Private School","address":"90 Harvest Ln","grades":["Middle","High"],"city":"Williston","state":"VT","zip":"5495","phone":"(802) 488-6766","low":"7","high":"12","students":"24","cost":"Yes","url":"https:\/\/howardcenter.org\/jean-garvin-school\/","review":"https:\/\/www.privateschoolreview.com\/jean-garvin-school-profile","virtual":"No"},{"title":"Jericho Elementary School","lat":"44.506803","lon":"-72.990707","type":"Traditional Public School","address":"90 Vt Route 15","grades":["Pre-K","Elementary"],"city":"Jericho","state":"VT","zip":"5465","phone":"(802) 899-2272","low":"PK","high":"4","students":"392","cost":"No","url":"https:\/\/jericho.cesuvt.org\/","review":"https:\/\/www.publicschoolreview.com\/jericho-elementary-school-profile\/05465","virtual":"Yes"},{"title":"Johnson Elementary School","lat":"44.636978","lon":"-72.674316","type":"Traditional Public School","address":"57 College Hill","grades":["Pre-K","Elementary","Middle"],"city":"Johnson","state":"VT","zip":"5656","phone":"(802) 635-2211","low":"PK","high":"6","students":"219","cost":"No","url":"http:\/\/www.jesvt.org\/","review":"https:\/\/www.publicschoolreview.com\/johnson-elementary-school-profile\/05656","virtual":"Yes"},{"title":"Kids & Fitness","lat":"44.4515002","lon":"-73.2032692","type":"Private School","address":"80 Eastwood Dr","grades":["Pre-K","Elementary"],"city":"South Burlington","state":"VT","zip":"5403","phone":"(802) 658-0080","low":"PK","high":"K","students":"57","cost":"Yes","url":"http:\/\/edgevt.com\/kids-fitness\/","review":"","virtual":"No"},{"title":"Killington Elementary School","lat":"43.645392","lon":"-72.794791","type":"Traditional Public School","address":"686 School House Road","grades":["Pre-K","Elementary","Middle"],"city":"Killington","state":"VT","zip":"5751","phone":"(802) 422-3366","low":"PK","high":"6","students":"121","cost":"No","url":"http:\/\/www.sesvt.org\/","review":"https:\/\/www.publicschoolreview.com\/killington-elementary-school-profile","virtual":"Yes"},{"title":"Killington Mountain School","lat":"43.6364","lon":"-72.79177135","type":"Private School","address":"2708 Killington Rd","grades":["Middle","High"],"city":"Killington","state":"VT","zip":"5751","phone":"(802) 422-5671","low":"7","high":"12","students":"73","cost":"Yes","url":"https:\/\/www.killingtonmountainschool.org\/","review":"","virtual":"No"},{"title":"Kindle Farm School","lat":"42.9967","lon":"-72.643","type":"Private School","address":"708 Vt Route 30","grades":["Elementary","Middle","High"],"city":"Newfane","state":"VT","zip":"5345","phone":"(802) 365-7909","low":"4","high":"12","students":"41","cost":"Yes","url":"https:\/\/www.kindlefarm.org\/","review":"https:\/\/www.privateschoolreview.com\/kindle-farm-school-profile","virtual":"No"},{"title":"Kurn Hattin Homes","lat":"43.0679","lon":"-72.4585","type":"Private School","address":"708 Kurn Hattin Rd","grades":["Elementary","Middle"],"city":"Westminster","state":"VT","zip":"5158","phone":"(802) 721-6932","low":"K","high":"8","students":"97","cost":"Yes","url":"https:\/\/kurnhattin.org\/","review":"https:\/\/www.privateschoolreview.com\/kurn-hattin-homes-profile","virtual":"No"},{"title":"Lake Champlain Waldorf School","lat":"44.387337","lon":"-73.236099","type":"Private School","address":"359 Turtle Lane","grades":["Pre-K","Elementary","Middle","High"],"city":"Shelburne","state":"VT","zip":"5482","phone":"(802) 985-2827","low":"NS","high":"12","students":"214","cost":"Yes","url":"https:\/\/lakechamplainwaldorfschool.org\/","review":"https:\/\/www.privateschoolreview.com\/lake-champlain-waldorf-school-profile","virtual":"No"},{"title":"Lake Elmore School","lat":"44.5674","lon":"-72.5727","type":"Traditional Public School","address":"1199 Vt Route 12","grades":["Elementary"],"city":"Lake Elmore","state":"VT","zip":"5657","phone":"(802) 888-2966","low":"1","high":"3","students":"15","cost":"No","url":"https:\/\/www.elmorevt.org\/","review":"https:\/\/www.publicschoolreview.com\/lake-elmore-school-profile","virtual":"Yes"},{"title":"Lake Region Uhsd #24","lat":"44.784145","lon":"-72.219213","type":"Traditional Public School","address":"317 Lake Region Road","grades":["High"],"city":"Orleans","state":"VT","zip":"5860","phone":"(802) 754-6521","low":"9","high":"12","students":"358","cost":"No","url":"https:\/\/www.lruhs.org\/","review":"https:\/\/www.publicschoolreview.com\/lake-region-uhsd-24-profile","virtual":"Yes"},{"title":"Lakeview Usd #43","lat":"44.580622","lon":"-72.293821","type":"Traditional Public School","address":"189 Lauredon Avenue","grades":["Pre-K","Elementary","Middle"],"city":"Greensboro","state":"VT","zip":"5841","phone":"(802) 533-7066","low":"PK","high":"6","students":"49","cost":"No","url":"https:\/\/lakeview.ossu.org\/","review":"https:\/\/www.publicschoolreview.com\/lakeview-usd-43-profile","virtual":"Yes"},{"title":"Lamoille Union High School","lat":"44.601174","lon":"-72.630638","type":"Traditional Public School","address":"736 Vt Route 15 West","grades":["High"],"city":"Hyde Park","state":"VT","zip":"5655","phone":"(802) 888-4261","low":"9","high":"12","students":"486","cost":"No","url":"http:\/\/luhsvt.org\/","review":"https:\/\/www.publicschoolreview.com\/lamoille-union-high-school-profile","virtual":"Yes"},{"title":"Lamoille Union Middle School","lat":"44.599929","lon":"-72.631009","type":"Traditional Public School","address":"736 Vt Route 15 West","grades":["Middle"],"city":"Hyde Park","state":"VT","zip":"5655","phone":"(802) 851-1300","low":"7","high":"8","students":"283","cost":"No","url":"https:\/\/sites.google.com\/a\/aps.edu\/la-mesa-elementary\/","review":"https:\/\/www.publicschoolreview.com\/lamoille-union-middle-school-profile","virtual":"Yes"},{"title":"Laraway School","lat":"44.6356063","lon":"-72.6803979","type":"Private School","address":"275 VT-15","grades":["Pre-K","Elementary","Middle","High"],"city":"Johnson","state":"VT","zip":"5656","phone":"(802) 635-2805","low":"NS","high":"12","students":"28","cost":"Yes","url":"http:\/\/laraway.org","review":"https:\/\/www.privateschoolreview.com\/laraway-school-profile","virtual":"No"},{"title":"Learn, Inc.","lat":"44.5331","lon":"-71.9993","type":"Private School","address":"216 Broad St.","grades":["High"],"city":"Lyndonville","state":"VT","zip":"5851","phone":"(802) 626-8056","low":"10","high":"12","students":"19","cost":"Yes","url":"","review":"https:\/\/www.privateschoolreview.com\/learn-inc-profile","virtual":"No"},{"title":"Leland & Gray Union Middle & High School","lat":"43.0466","lon":"-72.667084","type":"Traditional Public School","address":"2042 Vt Route 30","grades":["Middle","High"],"city":"Townshend","state":"VT","zip":"5353","phone":"(802) 365-7355","low":"6","high":"12","students":"286","cost":"No","url":"http:\/\/www.lelandandgray.org\/","review":"https:\/\/www.publicschoolreview.com\/leland-gray-union-middle-high-school-profile","virtual":"Yes"},{"title":"Lihigh School","lat":"43.517628","lon":"-73.236328","type":"Private School","address":"28 Depot Street","grades":["Middle","High"],"city":"Poultney","state":"VT","zip":"5764","phone":"(802) 488-4191","low":"7","high":"12","students":"27","cost":"Yes","url":"https:\/\/www.lihighschool.org\/","review":"https:\/\/www.privateschoolreview.com\/lihigh-school-profile","virtual":"No"},{"title":"Lincoln Community School","lat":"44.097592","lon":"-72.986559","type":"Traditional Public School","address":"795 East River Road","grades":["Pre-K","Elementary","Middle"],"city":"Bristol","state":"VT","zip":"5443","phone":"(802) 453-2119","low":"PK","high":"6","students":"82","cost":"No","url":"https:\/\/lcsvt.org\/","review":"https:\/\/www.publicschoolreview.com\/lincoln-community-school-profile\/05443","virtual":"Yes"},{"title":"Long Trail School","lat":"43.2707","lon":"-73.0968","type":"Private School","address":"1045 Kirby Hollow Rd","grades":["Middle","High"],"city":"Dorset","state":"VT","zip":"5251","phone":"(802) 867-5717","low":"6","high":"12","students":"188","cost":"Yes","url":"https:\/\/www.longtrailschool.org\/","review":"","virtual":"No"},{"title":"Lothrop School","lat":"43.706614","lon":"-73.01892","type":"Traditional Public School","address":"3447 U.s. Route 7","grades":["Pre-K","Elementary","Middle"],"city":"Pittsford","state":"VT","zip":"5763","phone":"(802) 483-2242","low":"PK","high":"6","students":"193","cost":"No","url":"https:\/\/sites.google.com\/a\/rnesu.org\/lothrop-elementary\/","review":"https:\/\/www.publicschoolreview.com\/lothrop-school-profile","virtual":"Yes"},{"title":"Lowell Village School","lat":"44.804963","lon":"-72.448934","type":"Traditional Public School","address":"52 Gelo Park Road","grades":["Pre-K","Elementary","Middle"],"city":"Lowell","state":"VT","zip":"5847","phone":"(802) 744-6641","low":"PK","high":"8","students":"94","cost":"No","url":"https:\/\/lgs.ncsuvt.org\/","review":"https:\/\/www.publicschoolreview.com\/lowell-village-school-profile","virtual":"Yes"},{"title":"Ludlow Elementary School","lat":"43.396663","lon":"-72.68883","type":"Traditional Public School","address":"45 Main Street","grades":["Pre-K","Elementary","Middle"],"city":"Ludlow","state":"VT","zip":"5149","phone":"(802) 228-5151","low":"PK","high":"6","students":"96","cost":"No","url":"https:\/\/les.trsu.org\/","review":"https:\/\/www.publicschoolreview.com\/ludlow-elementary-school-profile\/05149","virtual":"Yes"},{"title":"Lyman C. Hunt Middle School","lat":"44.511804","lon":"-73.251503","type":"Traditional Public School","address":"1364 North Avenue","grades":["Middle"],"city":"Burlington","state":"VT","zip":"5401","phone":"(802) 864-8469","low":"6","high":"8","students":"384","cost":"No","url":"https:\/\/hunt.bsdvt.org\/","review":"https:\/\/www.publicschoolreview.com\/lyman-c-hunt-middle-school-profile","virtual":"Yes"},{"title":"Lyndon Institute","lat":"44.5383667","lon":"-72.0150356","type":"Private School","address":"168 Institute Circle","grades":["High"],"city":"Lyndon Center","state":"VT","zip":"5850","phone":"(802) 535-3636","low":"9","high":"12","students":"457","cost":"Yes","url":"https:\/\/www.lyndoninstitute.org\/","review":"https:\/\/www.privateschoolreview.com\/lyndon-institute-profile","virtual":"No"},{"title":"Lyndon Town School","lat":"44.546264","lon":"-71.983618","type":"Traditional Public School","address":"2591 Lily Pond Road","grades":["Pre-K","Elementary","Middle"],"city":"Lyndonville","state":"VT","zip":"5851","phone":"(802) 626-3209","low":"PK","high":"8","students":"463","cost":"No","url":"http:\/\/www.lyndontownschool.org\/","review":"https:\/\/www.publicschoolreview.com\/lyndon-town-school-profile","virtual":"No"},{"title":"Main Street School","lat":"44.262647","lon":"-72.569793","type":"Traditional Public School","address":"170 Main Street","grades":["Elementary","Middle"],"city":"Montpelier","state":"VT","zip":"5602","phone":"(802) 223-3404","low":"5","high":"8","students":"365","cost":"No","url":"https:\/\/www.mrpsvt.org\/msms","review":"https:\/\/www.publicschoolreview.com\/main-street-school-profile\/05602","virtual":"Yes"},{"title":"Malletts Bay School","lat":"44.530382","lon":"-73.195089","type":"Traditional Public School","address":"Blakely Road","grades":["Elementary"],"city":"Colchester","state":"VT","zip":"5446","phone":"(802) 264-5900","low":"3","high":"5","students":"465","cost":"No","url":"https:\/\/www.csdvt.org\/ee\/index.php","review":"https:\/\/www.publicschoolreview.com\/malletts-bay-school-profile","virtual":"Yes"},{"title":"Manchester Elementary\/Middle School","lat":"43.178752","lon":"-73.05367","type":"Traditional Public School","address":"80 Memorial Avenue","grades":["Pre-K","Elementary","Middle"],"city":"Manchester Center","state":"VT","zip":"5255","phone":"(802) 362-1597","low":"PK","high":"8","students":"385","cost":"No","url":"http:\/\/www.manchesterschools.org\/","review":"https:\/\/www.publicschoolreview.com\/manchester-elementary-middle-school-profile\/05255","virtual":"Yes"},{"title":"Manchester Village School","lat":"43.1636875","lon":"-73.0723268","type":"Private School","address":"4002 Main St.","grades":["Elementary","Middle","High"],"city":"Manchester","state":"VT","zip":"5254","phone":"(802) 362-4898","low":"1","high":"12","students":"21","cost":"Yes","url":"https:\/\/www.manchestervillageschool.org\/","review":"","virtual":"No"},{"title":"Maple Hill School","lat":"44.2781151","lon":"-72.4264926","type":"Private School","address":"1350 East Hill Road","grades":["Middle","High"],"city":"Plainfield","state":"VT","zip":"5667","phone":"(802) 454-7747","low":"7","high":"12","students":"24","cost":"Yes","url":"https:\/\/www.maplehillschoolandfarm.org\/","review":"https:\/\/www.privateschoolreview.com\/maple-hill-school-profile","virtual":"No"},{"title":"Maple Street School","lat":"43.1695","lon":"-73.0578","type":"Private School","address":"322 Maple St","grades":["Elementary","Middle"],"city":"Manchester Center","state":"VT","zip":"5255","phone":"(802) 362-7137","low":"K","high":"8","students":"120","cost":"Yes","url":"https:\/\/www.maplestreetschool.com\/","review":"https:\/\/www.privateschoolreview.com\/maple-street-school-profile","virtual":"No"},{"title":"Marion W. Cross School","lat":"43.713676","lon":"-72.307188","type":"Traditional Public School","address":"22 Church Street","grades":["Pre-K","Elementary","Middle"],"city":"Norwich","state":"VT","zip":"5055","phone":"(802) 649-1703","low":"PK","high":"6","students":"291","cost":"No","url":"https:\/\/www.marioncross.org\/","review":"https:\/\/www.publicschoolreview.com\/marion-w-cross-school-profile","virtual":"Yes"},{"title":"Marlboro Elementary School","lat":"42.8687","lon":"-72.7197","type":"Traditional Public School","address":"2669 Route 9","grades":["Pre-K","Elementary","Middle"],"city":"Marlboro","state":"VT","zip":"5344","phone":"(802) 254-2668","low":"PK","high":"8","students":"90","cost":"No","url":"https:\/\/www.marlboroschool.net\/","review":"https:\/\/www.publicschoolreview.com\/marlboro-elementary-school-profile\/05344","virtual":"Yes"},{"title":"Mary Johnson Children's Center","lat":"44.01010449","lon":"-73.1660343","type":"Private School","address":"81 Water Street","grades":["Pre-K","Elementary"],"city":"Middlebury","state":"VT","zip":"5753","phone":"(802) 388-2853","low":"PK","high":"K","students":"63","cost":"Yes","url":"http:\/\/www.mjccvt.org","review":"https:\/\/www.privateschoolreview.com\/mary-johnson-children-s-center-profile","virtual":"No"},{"title":"Mater Christi School","lat":"44.48207786","lon":"-73.19876347","type":"Private School","address":"50 Mansfield Avenue","grades":["Pre-K","Elementary","Middle"],"city":"Burlington","state":"VT","zip":"5401","phone":"(802) 658-3992","low":"PK","high":"8","students":"278","cost":"Yes","url":"https:\/\/mcschool.org\/","review":"https:\/\/www.privateschoolreview.com\/mater-christi-school-profile","virtual":"No"},{"title":"Mettawee Community School","lat":"43.385738","lon":"-73.223691","type":"Traditional Public School","address":"5788 Vt Route 153","grades":["Pre-K","Elementary","Middle"],"city":"West Pawlet","state":"VT","zip":"5775","phone":"(802) 645-9009","low":"PK","high":"6","students":"146","cost":"No","url":"http:\/\/brsu.haikulearning.com\/brsu\/mettaweecommunityschool\/cms_page\/view","review":"https:\/\/www.publicschoolreview.com\/mettawee-community-school-profile","virtual":"Yes"},{"title":"Mid Vermont Christian School","lat":"43.64376087","lon":"-72.42773035","type":"Private School","address":"399 W Gilson Avenue","grades":["Pre-K","Elementary","Middle","High"],"city":"White River Junction","state":"VT","zip":"5001","phone":"(802) 295-6800","low":"NS","high":"12","students":"117","cost":"Yes","url":"https:\/\/www.mvcs.info\/","review":"https:\/\/www.privateschoolreview.com\/mid-vermont-christian-school-profile","virtual":"No"},{"title":"Middlebury Id #4 School","lat":"44.010644","lon":"-73.162363","type":"Traditional Public School","address":"201 Mary Hogan Drive","grades":["Pre-K","Elementary","Middle"],"city":"Middlebury","state":"VT","zip":"5753","phone":"(802) 388-4421","low":"PK","high":"6","students":"544","cost":"No","url":"https:\/\/www.acsdvt.org\/maryhogan","review":"https:\/\/www.publicschoolreview.com\/middlebury-id-4-school-profile","virtual":"Yes"},{"title":"Middlebury Union High School","lat":"44.006703","lon":"-73.163138","type":"Traditional Public School","address":"73 Charles Avenue","grades":["High"],"city":"Middlebury","state":"VT","zip":"5753","phone":"(802) 382-1500","low":"9","high":"12","students":"518","cost":"No","url":"https:\/\/muhs-school.org\/","review":"https:\/\/www.publicschoolreview.com\/middlebury-union-high-school-profile","virtual":"Yes"},{"title":"Middlebury Union Middle School","lat":"43.998491","lon":"-73.153032","type":"Traditional Public School","address":"48 Deerfield Lane","grades":["Middle"],"city":"Middlebury","state":"VT","zip":"5753","phone":"(802) 382-1600","low":"7","high":"8","students":"258","cost":"No","url":"https:\/\/www.acsdvt.org\/mums","review":"https:\/\/www.publicschoolreview.com\/middlebury-union-middle-school-profile","virtual":"Yes"},{"title":"Middletown Springs Elementary School","lat":"43.484206","lon":"-73.120406","type":"Traditional Public School","address":"15 Schoolhouse Road","grades":["Pre-K","Elementary","Middle"],"city":"Middletown Springs","state":"VT","zip":"5757","phone":"(802) 235-2365","low":"PK","high":"6","students":"54","cost":"No","url":"http:\/\/middletownsprings.vt.gov\/school-education\/middletown-springs-elementary-school\/","review":"https:\/\/www.publicschoolreview.com\/middletown-springs-elementary-school-profile","virtual":"Yes"},{"title":"Mill River Union High School","lat":"43.547166","lon":"-72.969979","type":"Traditional Public School","address":"2321 Middle Road","grades":["Middle","High"],"city":"North Clarendon","state":"VT","zip":"5759","phone":"(802) 775-1925","low":"7","high":"12","students":"394","cost":"No","url":"http:\/\/millriverschools.org\/mru\/contact-us\/","review":"https:\/\/www.publicschoolreview.com\/mill-river-union-high-school-profile","virtual":"Yes"},{"title":"Millers Run Union High School","lat":"44.602718","lon":"-72.119216","type":"Traditional Public School","address":"3249 Vt Route 122","grades":["Pre-K","Elementary","Middle"],"city":"Sheffield","state":"VT","zip":"5866","phone":"(802) 626-9755","low":"PK","high":"8","students":"104","cost":"No","url":"","review":"https:\/\/www.publicschoolreview.com\/millers-run-union-high-school-profile","virtual":"No"},{"title":"Milton Elementary School","lat":"44.632492","lon":"-73.110804","type":"Traditional Public School","address":"42 Herrick Avenue","grades":["Pre-K","Elementary"],"city":"Milton","state":"VT","zip":"5468","phone":"(802) 893-5400","low":"PK","high":"5","students":"714","cost":"No","url":"http:\/\/www.mtsd-vt.org\/mes\/","review":"https:\/\/www.publicschoolreview.com\/milton-elementary-school-profile\/05468","virtual":"Yes"},{"title":"Milton Middle School","lat":"44.628802","lon":"-73.118757","type":"Traditional Public School","address":"17 Rebecca Lander Drive","grades":["Middle"],"city":"Milton","state":"VT","zip":"5468","phone":"(802) 893-5400","low":"6","high":"8","students":"330","cost":"No","url":"http:\/\/www.mtsd-vt.org\/mhs\/","review":"https:\/\/www.publicschoolreview.com\/milton-middle-school-profile\/05468","virtual":"Yes"},{"title":"Milton Senior High School","lat":"44.628802","lon":"-73.118757","type":"Traditional Public School","address":"17 Rebecca Lander Drive","grades":["High"],"city":"Milton","state":"VT","zip":"5468","phone":"(802) 893-5400","low":"9","high":"12","students":"490","cost":"No","url":"http:\/\/www.mtsd-vt.org\/mhs\/","review":"https:\/\/www.publicschoolreview.com\/milton-senior-high-school-profile","virtual":"Yes"},{"title":"Missisquoi Valley Union High School","lat":"44.927872","lon":"-73.101825","type":"Traditional Public School","address":"100 Thunder Bird Drive","grades":["Middle","High"],"city":"Swanton","state":"VT","zip":"5488","phone":"(802) 868-7311","low":"7","high":"12","students":"781","cost":"No","url":"http:\/\/www.mvuschool.org\/wordpress\/","review":"https:\/\/www.publicschoolreview.com\/missisquoi-valley-union-high-school-profile","virtual":"Yes"},{"title":"Molly Stark School","lat":"42.898462","lon":"-73.203016","type":"Traditional Public School","address":"181 Orchard Street","grades":["Pre-K","Elementary"],"city":"Bennington","state":"VT","zip":"5201","phone":"(802) 442-2692","low":"PK","high":"5","students":"414","cost":"No","url":"http:\/\/mollystark.apps.svsu.org\/home","review":"https:\/\/www.publicschoolreview.com\/molly-stark-school-profile","virtual":"Yes"},{"title":"Monkton Central School","lat":"44.24383","lon":"-73.139493","type":"Traditional Public School","address":"1036 Monkton Road","grades":["Pre-K","Elementary","Middle"],"city":"Monkton","state":"VT","zip":"5469","phone":"(802) 453-2314","low":"PK","high":"6","students":"123","cost":"No","url":"https:\/\/mcs.mausd.org\/","review":"https:\/\/www.publicschoolreview.com\/monkton-central-school-profile","virtual":"Yes"},{"title":"Montessori School Of Central","lat":"44.2600593","lon":"-72.5753869","type":"Private School","address":"89 Karl Cir # 3","grades":["Pre-K","Elementary"],"city":"Montpelier","state":"VT","zip":"5602","phone":"(802) 479-0912","low":"PK","high":"5","students":"67","cost":"Yes","url":"https:\/\/mscvt.org\/","review":"","virtual":"No"},{"title":"Montgomery Center School","lat":"44.886842","lon":"-72.615885","type":"Traditional Public School","address":"249 School Drive","grades":["Pre-K","Elementary","Middle"],"city":"Montgomery Center","state":"VT","zip":"5471","phone":"(802) 326-4618","low":"PK","high":"8","students":"123","cost":"No","url":"http:\/\/www.mesk8.net","review":"https:\/\/www.publicschoolreview.com\/montgomery-center-school-profile","virtual":"Yes"},{"title":"Montpelier High School","lat":"44.260581","lon":"-72.586533","type":"Traditional Public School","address":"5 High School Drive","grades":["High"],"city":"Montpelier","state":"VT","zip":"5602","phone":"(802) 225-8000","low":"9","high":"12","students":"367","cost":"No","url":"https:\/\/www.mrpsvt.org\/mhs","review":"https:\/\/www.publicschoolreview.com\/montpelier-high-school-profile","virtual":"Yes"},{"title":"Montpelier Waldorf Child's Garden","lat":"44.2481216","lon":"-72.5847749","type":"Private School","address":"155 Northfield Street","grades":["Pre-K"],"city":"Montpelier","state":"VT","zip":"5602","phone":"(802) 223-4338","low":"NS","high":"NS","students":"11","cost":"Yes","url":"https:\/\/www.ovws.org\/","review":"https:\/\/www.privateschoolreview.com\/montpelier-waldorf-child-s-garden-profile","virtual":"No"},{"title":"Monument School","lat":"42.884435","lon":"-73.211201","type":"Traditional Public School","address":"66 Main Street","grades":["Pre-K","Elementary"],"city":"Bennington","state":"VT","zip":"5201","phone":"(802) 447-7979","low":"PK","high":"5","students":"155","cost":"No","url":"http:\/\/monument.apps.svsu.org\/home\/","review":"https:\/\/www.publicschoolreview.com\/monument-school-profile\/05201","virtual":"Yes"},{"title":"Moretown Elementary School","lat":"44.247969","lon":"-72.763309","type":"Traditional Public School","address":"940 Route 100b","grades":["Pre-K","Elementary","Middle"],"city":"Moretown","state":"VT","zip":"5660","phone":"(802) 496-3742","low":"PK","high":"6","students":"141","cost":"No","url":"http:\/\/www.moretownschool.com\/","review":"https:\/\/www.publicschoolreview.com\/moretown-elementary-school-profile","virtual":"Yes"},{"title":"Morristown Elementary School","lat":"44.564699","lon":"-72.585994","type":"Traditional Public School","address":"548 Park Street","grades":["Pre-K","Elementary"],"city":"Morrisville","state":"VT","zip":"5661","phone":"(802) 888-3101","low":"PK","high":"4","students":"277","cost":"No","url":"https:\/\/www.morrisville.org\/school\/morristown-elementary-school.php","review":"https:\/\/www.publicschoolreview.com\/morristown-elementary-school-profile\/05661","virtual":"Yes"},{"title":"Mount Snow Academy","lat":"42.950099","lon":"-72.875222","type":"Private School","address":"248 Vermont 100","grades":["Elementary","Middle","High"],"city":"West Dover","state":"VT","zip":"5356","phone":"(802) 464-7669","low":"5","high":"12","students":"36","cost":"Yes","url":"http:\/\/WWW.yesmsa.org\/","review":"","virtual":"No"},{"title":"Mount St Joseph Academy","lat":"43.603","lon":"-72.98626244","type":"Private School","address":"127 Convent Ave","grades":["High"],"city":"Rutland","state":"VT","zip":"5701","phone":"(802) 775-0151","low":"9","high":"12","students":"102","cost":"Yes","url":"https:\/\/www.msjvermont.org\/","review":"https:\/\/www.privateschoolreview.com\/mount-st-joseph-academy-profile\/05701","virtual":"No"},{"title":"Mountain School At Winhall","lat":"43.144455","lon":"-72.889116","type":"Private School","address":"9 School St","grades":["Pre-K","Elementary","Middle"],"city":"Bondville","state":"VT","zip":"5340","phone":"(802) 297-2662","low":"PK","high":"8","students":"82","cost":"Yes","url":"https:\/\/www.themountainschool.org\/","review":"https:\/\/www.privateschoolreview.com\/mountain-school-at-winhall-profile","virtual":"No"},{"title":"Mt Mansfield Union High School","lat":"44.486818","lon":"-72.963198","type":"Traditional Public School","address":"211 Browns Trace Road","grades":["High"],"city":"Jericho","state":"VT","zip":"5465","phone":"(802) 899-4690","low":"9","high":"12","students":"779","cost":"No","url":"https:\/\/mmu.cesuvt.org","review":"https:\/\/www.publicschoolreview.com\/mt-mansfield-union-high-school-profile","virtual":"Yes"},{"title":"Mt. Abraham Union High School #61","lat":"44.135617","lon":"-73.093966","type":"Traditional Public School","address":"220 Airport Drive","grades":["Middle","High"],"city":"Bristol","state":"VT","zip":"5443","phone":"(802) 453-2333","low":"7","high":"12","students":"641","cost":"No","url":"https:\/\/mta.mausd.org\/","review":"https:\/\/www.publicschoolreview.com\/mt-abraham-union-high-school-61-profile","virtual":"Yes"},{"title":"Mt. Anthony Senior Uhsd #14","lat":"42.884363","lon":"-73.192908","type":"Traditional Public School","address":"301 Park Street Extension","grades":["High"],"city":"Bennington","state":"VT","zip":"5201","phone":"(802) 447-7511","low":"9","high":"12","students":"888","cost":"No","url":"http:\/\/mauhs.apps.svsu.org\/","review":"https:\/\/www.publicschoolreview.com\/mt-anthony-senior-uhsd-14-profile","virtual":"Yes"},{"title":"Mt. Anthony Union Middle School","lat":"42.905391","lon":"-73.1903","type":"Traditional Public School","address":"747 East Road","grades":["Middle"],"city":"Bennington","state":"VT","zip":"5201","phone":"(802) 447-7541","low":"6","high":"8","students":"568","cost":"No","url":"http:\/\/maums.apps.svsu.org\/","review":"https:\/\/www.publicschoolreview.com\/mt-anthony-union-middle-school-profile","virtual":"Yes"},{"title":"Mt. Holly School","lat":"43.4458","lon":"-72.823","type":"Traditional Public School","address":"150 School Street","grades":["Pre-K","Elementary","Middle"],"city":"Mount Holly","state":"VT","zip":"5758","phone":"(802) 259-2392","low":"PK","high":"6","students":"95","cost":"No","url":"https:\/\/mhs.trsu.org\/","review":"https:\/\/www.publicschoolreview.com\/mt-holly-school-profile","virtual":"Yes"},{"title":"Mt. Mansfield Winter Academy","lat":"44.475278","lon":"-72.702222","type":"Private School","address":"3576 Mountain Rd","grades":["Middle","High"],"city":"Stowe","state":"VT","zip":"5672","phone":"(802) 253-7409","low":"8","high":"12","students":"36","cost":"Yes","url":"https:\/\/mmwa.org\/","review":"","virtual":"No"},{"title":"Neighborhood Schoolhouse","lat":"42.8247","lon":"-72.5886","type":"Private School","address":"231 Western Ave","grades":["Pre-K","Elementary","Middle"],"city":"Brattleboro","state":"VT","zip":"5301","phone":"(802) 257-5544","low":"PK","high":"6","students":"55","cost":"Yes","url":"http:\/\/www.neighborhoodschoolhouse.com\/","review":"https:\/\/www.privateschoolreview.com\/neighborhood-schoolhouse-profile","virtual":"No"},{"title":"Neshobe School","lat":"43.82636","lon":"-73.054472","type":"Traditional Public School","address":"17 Neshobe Circle","grades":["Pre-K","Elementary","Middle"],"city":"Brandon","state":"VT","zip":"5733","phone":"(802) 247-3721","low":"PK","high":"6","students":"402","cost":"No","url":"https:\/\/neshobe.rnesu.org\/","review":"https:\/\/www.publicschoolreview.com\/neshobe-school-profile","virtual":"Yes"},{"title":"Newark School","lat":"44.657631","lon":"-71.957542","type":"Traditional Public School","address":"1448 Newark Street","grades":["Pre-K","Elementary","Middle"],"city":"West Burke","state":"VT","zip":"5871","phone":"(802) 467-3401","low":"PK","high":"8","students":"57","cost":"No","url":"https:\/\/www.kingdomeast.org\/newark-school","review":"https:\/\/www.publicschoolreview.com\/newark-school-profile","virtual":"Yes"},{"title":"Newbrook Elementary School","lat":"42.9599339","lon":"-72.650055","type":"Traditional Public School","address":"14 School Road","grades":["Pre-K","Elementary"],"city":"Newfane","state":"VT","zip":"5345","phone":"(802) 365-7536","low":"PK","high":"5","students":"95","cost":"No","url":"https:\/\/sites.google.com\/newbrookschool.org\/www-newbrookschool-org\/our-school\/newbrook-at-a-glance?authuser=0","review":"https:\/\/www.publicschoolreview.com\/newbrook-elementary-school-profile","virtual":"Yes"},{"title":"Newbury Elementary School","lat":"44.079052","lon":"-72.060506","type":"Traditional Public School","address":"214 Pulaski Street","grades":["Pre-K","Elementary","Middle"],"city":"Newbury","state":"VT","zip":"5051","phone":"(802) 866-5621","low":"PK","high":"6","students":"116","cost":"No","url":"https:\/\/www.nesvt.org\/","review":"https:\/\/www.publicschoolreview.com\/newbury-elementary-school-profile\/05051","virtual":"Yes"},