[{"title":"A. T. Allison Elementary School","lat":"40.614749","lon":"-80.561371","type":"Traditional Public School","address":"605 Railroad Street","grades":["Pre-K","Elementary"],"city":"Chester","state":"WV","zip":"26034","phone":"(304) 387-1915","low":"PK","high":"4","students":"348","cost":"No","url":"https:\/\/allison.hancock.k12.wv.us\/","review":"https:\/\/www.publicschoolreview.com\/a-t-allison-elementary-school-profile","virtual":"Yes"},{"title":"Abundant Life Christian School","lat":"40.0561","lon":"-80.6276","type":"Private School","address":"976 Chapel Hill Rd","grades":["Elementary","Middle","High"],"city":"Triadelphia","state":"WV","zip":"26059","phone":"(304) 547-4370","low":"K","high":"12","students":"22","cost":"Yes","url":"http:\/\/www.abundantlifewhg.com\/","review":"","virtual":"No"},{"title":"Academy Of Careers And Technology","lat":"37.799712","lon":"-81.168613","type":"Specialized Public School","address":"390 Stanaford Road","grades":["High"],"city":"Beckley","state":"WV","zip":"25801","phone":"(304) 256-4615","low":"9","high":"12","students":"See website","cost":"No","url":"https:\/\/www.wvact.net\/","review":"https:\/\/www.publicschoolreview.com\/academy-of-careers-and-technology-profile","virtual":"Yes"},{"title":"Academy Programs","lat":"39.449411","lon":"-80.162736","type":"Specialized Public School","address":"#5 Crosswind Drive","grades":["Middle","High"],"city":"Fairmont","state":"WV","zip":"26554","phone":"(304) 363-3348","low":"7","high":"12","students":"65","cost":"No","url":"http:\/\/academyprograms.org\/","review":"https:\/\/www.publicschoolreview.com\/academy-programs-profile","virtual":"Yes"},{"title":"Adamston Elementary School","lat":"39.290876","lon":"-80.358783","type":"Traditional Public School","address":"1636 W Pike St","grades":["Pre-K","Elementary"],"city":"Clarksburg","state":"WV","zip":"26301","phone":"(304) 326-7070","low":"PK","high":"5","students":"222","cost":"No","url":"https:\/\/www.harcoboe.net\/o\/aes","review":"https:\/\/www.publicschoolreview.com\/adamston-elementary-school-profile","virtual":"Yes"},{"title":"Adventist Christian School","lat":"39.652803","lon":"-79.966434","type":"Private School","address":"437 Drummond St","grades":["Elementary","Middle"],"city":"Morgantown","state":"WV","zip":"26505","phone":"(304) 599-0584","low":"3","high":"8","students":"See website","cost":"Yes","url":"https:\/\/www.adventist.org\/en\/","review":"","virtual":"No"},{"title":"Alban Elementary School","lat":"38.385429","lon":"-81.81352","type":"Traditional Public School","address":"2030 Harrison Avenue","grades":["Pre-K","Elementary"],"city":"Saint Albans","state":"WV","zip":"25177","phone":"(304) 722-0234","low":"PK","high":"5","students":"284","cost":"No","url":"https:\/\/alban.kana.k12.wv.us\/","review":"https:\/\/www.publicschoolreview.com\/alban-elementary-school-profile","virtual":"Yes"},{"title":"Alderson Elementary School","lat":"37.726721","lon":"-80.635674","type":"Traditional Public School","address":"305 Elmwood Avenue","grades":["Pre-K","Elementary"],"city":"Alderson","state":"WV","zip":"24910","phone":"(304) 445-7241","low":"PK","high":"5","students":"204","cost":"No","url":"https:\/\/aes.greenbriercountyschools.org\/","review":"https:\/\/www.publicschoolreview.com\/alderson-elementary-school-profile","virtual":"Yes"},{"title":"All Saints Catholic School","lat":"40.01638778","lon":"-80.73501911","type":"Private School","address":"52 7th St","grades":["Pre-K","Elementary","Middle"],"city":"Benwood","state":"WV","zip":"26031","phone":"(304) 232-1587","low":"PK","high":"8","students":"77","cost":"Yes","url":"","review":"","virtual":"No"},{"title":"Altizer Elementary School","lat":"38.414735","lon":"-82.364621","type":"Traditional Public School","address":"250 Third Street Altizer","grades":["Pre-K","Elementary"],"city":"Huntington","state":"WV","zip":"25705","phone":"(304) 528-5100","low":"PK","high":"5","students":"220","cost":"No","url":"","review":"https:\/\/www.publicschoolreview.com\/altizer-elementary-school-profile","virtual":"Yes"},{"title":"Alum Creek Elementary School","lat":"38.270842","lon":"-81.777038","type":"Traditional Public School","address":"4540 Brounland Road","grades":["Pre-K","Elementary"],"city":"South Charleston","state":"WV","zip":"25309","phone":"(304) 348-1935","low":"PK","high":"5","students":"166","cost":"No","url":"https:\/\/alumcreek.kana.k12.wv.us\/","review":"https:\/\/www.publicschoolreview.com\/alum-creek-elementary-school-profile\/25309","virtual":"Yes"},{"title":"Ambassador Christian Academy","lat":"37.733993","lon":"-82.15662","type":"Private School","address":"Box 701","grades":["Pre-K","Elementary","Middle","High"],"city":"Williamson","state":"WV","zip":"25661","phone":"(304) 236-3501","low":"PK","high":"12","students":"144","cost":"Yes","url":"https:\/\/www.ambassadorchristian.org\/","review":"https:\/\/www.privateschoolreview.com\/ambassador-christian-academy-profile\/25661","virtual":"No"},{"title":"Ambassador Christian Academy","lat":"38.94288","lon":"-79.854131","type":"Private School","address":"400 Pike St","grades":["Elementary","Middle","High"],"city":"Elkins","state":"WV","zip":"26241","phone":"(304) 591-4554","low":"K","high":"11","students":"See website","cost":"Yes","url":"","review":"","virtual":"No"},{"title":"Amplify Children's Academy","lat":"39.658404","lon":"-79.893397","type":"Private School","address":"10000 Coombs Farm Dr","grades":["Pre-K","Elementary"],"city":"Morgantown","state":"WV","zip":"26508","phone":"(304) 333-2544","low":"PK","high":"K","students":"18","cost":"Yes","url":"http:\/\/amplifychildrensacademy.com\/","review":"","virtual":"No"},{"title":"Andrew Jackson Middle School","lat":"38.427208","lon":"-81.784208","type":"Traditional Public School","address":"5445 Big Tyler Road","grades":["Middle"],"city":"Charleston","state":"WV","zip":"25313","phone":"(304) 776-3310","low":"6","high":"8","students":"614","cost":"No","url":"https:\/\/sites.google.com\/a\/mail.kana.k12.wv.us\/ajmiddle\/","review":"https:\/\/www.publicschoolreview.com\/andrew-jackson-middle-school-profile\/25313","virtual":"Yes"},{"title":"Andrews Heights Elementary School","lat":"38.318181","lon":"-81.835992","type":"Traditional Public School","address":"7776 Coal River Road","grades":["Pre-K","Elementary"],"city":"Tornado","state":"WV","zip":"25202","phone":"(304) 722-0232","low":"PK","high":"5","students":"285","cost":"No","url":"https:\/\/ah.kana.k12.wv.us\/","review":"https:\/\/www.publicschoolreview.com\/andrews-heights-elementary-school-profile","virtual":"Yes"},{"title":"Anna Jarvis Elementary School","lat":"39.344338","lon":"-80.022661","type":"Traditional Public School","address":"650 N. Pike Street","grades":["Pre-K","Elementary"],"city":"Grafton","state":"WV","zip":"26354","phone":"(304) 304-4090","low":"PK","high":"4","students":"515","cost":"No","url":"http:\/\/www.wvonline.com\/taylorcounty\/anna.htm","review":"https:\/\/www.publicschoolreview.com\/anna-jarvis-elementary-school-profile","virtual":"Yes"},{"title":"Anne Bailey Elementary School","lat":"38.408111","lon":"-81.85844","type":"Traditional Public School","address":"405 Winfield Road","grades":["Pre-K","Elementary"],"city":"Saint Albans","state":"WV","zip":"25177","phone":"(304) 722-0230","low":"PK","high":"5","students":"236","cost":"No","url":"https:\/\/ab.kana.k12.wv.us\/","review":"https:\/\/www.publicschoolreview.com\/anne-bailey-elementary-school-profile","virtual":"Yes"},{"title":"Ansted Elementary School","lat":"38.134671","lon":"-81.098909","type":"Traditional Public School","address":"27 School Street","grades":["Pre-K","Elementary"],"city":"Ansted","state":"WV","zip":"25812","phone":"(304) 658-5961","low":"PK","high":"5","students":"214","cost":"No","url":"https:\/\/www.boe.faye.k12.wv.us\/o\/aes","review":"https:\/\/www.publicschoolreview.com\/ansted-elementary-school-profile","virtual":"Yes"},{"title":"Anthony Center","lat":"37.963059","lon":"-80.126758","type":"Specialized Public School","address":"Hc 70 Route 92, Box N-1","grades":[],"city":"White Sulphur Springs","state":"WV","zip":"24986","phone":"(304) 536-4151","low":"N","high":"N","students":"See website","cost":"No","url":"","review":"https:\/\/www.publicschoolreview.com\/anthony-center-profile","virtual":"No"},{"title":"Arnoldsburg School","lat":"38.788045","lon":"-81.131799","type":"Traditional Public School","address":"90 Spring Run Road","grades":["Pre-K","Elementary"],"city":"Arnoldsburg","state":"WV","zip":"25234","phone":"(304) 655-8616","low":"PK","high":"4","students":"180","cost":"No","url":"https:\/\/arnoldsburg.calhoun.k12.wv.us\/","review":"https:\/\/www.publicschoolreview.com\/arnoldsburg-school-profile","virtual":"Yes"},{"title":"Arthur I Boreman Elementary School","lat":"39.478017","lon":"-80.888262","type":"Traditional Public School","address":"51 Boreman School Road","grades":["Pre-K","Elementary"],"city":"Middlebourne","state":"WV","zip":"26149","phone":"(304) 758-2152","low":"PK","high":"5","students":"288","cost":"No","url":"https:\/\/www.boremanelementaryschool.org\/","review":"https:\/\/www.publicschoolreview.com\/arthur-i-boreman-elementary-school-profile","virtual":"Yes"},{"title":"Ashford - Rumble Elementary School","lat":"38.183935","lon":"-81.697637","type":"Traditional Public School","address":"1649 Ashford Nellis Road","grades":["Pre-K","Elementary"],"city":"Ashford","state":"WV","zip":"25009","phone":"(304) 836-5381","low":"PK","high":"5","students":"124","cost":"No","url":"http:\/\/ashfordtigers.awardspace.us\/","review":"https:\/\/www.publicschoolreview.com\/ashford-rumble-elementary-school-profile","virtual":"Yes"},{"title":"Ashton Elementary School","lat":"38.624044","lon":"-82.156938","type":"Traditional Public School","address":"997 Ashton Upland Road","grades":["Pre-K","Elementary","Middle"],"city":"Ashton","state":"WV","zip":"25503","phone":"(304) 576-9931","low":"PK","high":"6","students":"346","cost":"No","url":"https:\/\/ashton.maso.k12.wv.us\/","review":"https:\/\/www.publicschoolreview.com\/ashton-elementary-school-profile\/25503","virtual":"Yes"},{"title":"Athens Elementary School","lat":"37.425519","lon":"-81.016048","type":"Traditional Public School","address":"205 South State Street","grades":["Pre-K","Elementary"],"city":"Athens","state":"WV","zip":"24712","phone":"(304) 384-9229","low":"PK","high":"5","students":"239","cost":"No","url":"https:\/\/www.boe.merc.k12.wv.us\/o\/athens","review":"https:\/\/www.publicschoolreview.com\/athens-elementary-school-profile\/24712","virtual":"Yes"},{"title":"Augusta Elementary School","lat":"39.29492","lon":"-78.646226","type":"Traditional Public School","address":"61 Pancione Loop","grades":["Pre-K","Elementary"],"city":"Augusta","state":"WV","zip":"26704","phone":"(304) 496-7001","low":"PK","high":"5","students":"255","cost":"No","url":"http:\/\/boe.hamp.k12.wv.us\/56\/Augusta-Elementary","review":"https:\/\/www.publicschoolreview.com\/augusta-elementary-school-profile\/26704","virtual":"Yes"},{"title":"Augusta Levy Learning Center","lat":"40.0831","lon":"-80.7258","type":"Private School","address":"99 Main St","grades":["Elementary"],"city":"Wheeling","state":"WV","zip":"26003","phone":"(304) 242-6722","low":"K","high":"3","students":"See website","cost":"Yes","url":"https:\/\/www.augustalevy.org\/","review":"","virtual":"No"},{"title":"Aurora School","lat":"39.323649","lon":"-79.550467","type":"Traditional Public School","address":"125 Aurora School Road","grades":["Pre-K","Elementary","Middle"],"city":"Aurora","state":"WV","zip":"26705","phone":"(304) 735-3781","low":"PK","high":"8","students":"155","cost":"No","url":"https:\/\/preston-k12.wvnet.edu\/aurora\/","review":"https:\/\/www.publicschoolreview.com\/aurora-school-profile","virtual":"Yes"},{"title":"B - U Middle School","lat":"38.998344","lon":"-80.239965","type":"Traditional Public School","address":"553 Route 20 South Road","grades":["Middle"],"city":"Buckhannon","state":"WV","zip":"26201","phone":"(304) 472-1520","low":"6","high":"8","students":"817","cost":"No","url":"https:\/\/bums.upshurschools.com\/","review":"https:\/\/www.publicschoolreview.com\/b-u-middle-school-profile","virtual":"Yes"},{"title":"Back Creek Valley Elementary School","lat":"39.407478","lon":"-78.148697","type":"Traditional Public School","address":"1962 Back Creek Valley Road","grades":["Pre-K","Elementary"],"city":"Hedgesville","state":"WV","zip":"25427","phone":"(304) 229-1975","low":"PK","high":"2","students":"150","cost":"No","url":"https:\/\/www.berkeleycountyschools.org\/backcreek","review":"https:\/\/www.publicschoolreview.com\/back-creek-valley-elementary-school-profile","virtual":"Yes"},{"title":"Baileysville Elementary & Middle School","lat":"37.590405","lon":"-81.673197","type":"Traditional Public School","address":"Drawer 409, 11618 R.d. Bailey ","grades":["Pre-K","Elementary","Middle"],"city":"Brenton","state":"WV","zip":"24818","phone":"(304) 732-6399","low":"PK","high":"8","students":"326","cost":"No","url":"https:\/\/baileysville.wyom.k12.wv.us\/","review":"https:\/\/www.publicschoolreview.com\/baileysville-elementary-middle-school-profile","virtual":"Yes"},{"title":"Ballard Christian School","lat":"37.5022","lon":"-80.7633","type":"Private School","address":"1395 Adair Ridge Rd","grades":["Pre-K","Elementary","Middle","High"],"city":"Ballard","state":"WV","zip":"24918","phone":"(304) 753-9942","low":"PK","high":"12","students":"57","cost":"Yes","url":"http:\/\/ballardchristianschool.com\/","review":"https:\/\/www.privateschoolreview.com\/ballard-christian-school-profile","virtual":"No"},{"title":"Barboursville Middle School","lat":"38.403801","lon":"-82.295668","type":"Traditional Public School","address":"1400 Central Ave","grades":["Middle"],"city":"Barboursville","state":"WV","zip":"25504","phone":"(304) 733-3003","low":"6","high":"8","students":"743","cost":"No","url":"https:\/\/www.cabellschools.com\/Domain\/10","review":"https:\/\/www.publicschoolreview.com\/barboursville-middle-school-profile","virtual":"Yes"},{"title":"Barboursville School","lat":"38.398174","lon":"-82.292442","type":"Specialized Public School","address":"1535 Martha Road","grades":["Middle","High"],"city":"Barboursville","state":"WV","zip":"25504","phone":"(304) 736-0915","low":"8","high":"12","students":"16","cost":"No","url":"http:\/\/riverparkhospital.net\/programs-services\/psychiatric-residential-program\/barboursville-school\/","review":"https:\/\/www.publicschoolreview.com\/barboursville-school-profile","virtual":"Yes"},{"title":"Barnes Learning Center (Alc)","lat":"39.500671","lon":"-80.137078","type":"Specialized Public School","address":"100 Naomi Street","grades":["Elementary","Middle","High"],"city":"Fairmont","state":"WV","zip":"26554","phone":"(304) 367-2127","low":"K","high":"12","students":"See website","cost":"No","url":"http:\/\/www.wvschools.com\/barnes\/","review":"https:\/\/www.publicschoolreview.com\/barnes-learning-center-alc-profile","virtual":"Yes"},{"title":"Barrackville Elementary\/Middle School","lat":"39.50277","lon":"-80.165836","type":"Traditional Public School","address":"509 Pike Street","grades":["Pre-K","Elementary","Middle"],"city":"Barrackville","state":"WV","zip":"26559","phone":"(304) 367-2128","low":"PK","high":"8","students":"349","cost":"No","url":"http:\/\/barrackville.marionboe.com\/","review":"https:\/\/www.publicschoolreview.com\/barrackville-elementary-middle-school-profile","virtual":"Yes"},{"title":"Beale Elementary School","lat":"38.766252","lon":"-82.195834","type":"Traditional Public School","address":"12897 Huntington Road","grades":["Pre-K","Elementary","Middle"],"city":"Gallipolis Ferry","state":"WV","zip":"25515","phone":"(304) 675-1260","low":"PK","high":"6","students":"243","cost":"No","url":"https:\/\/beale.maso.k12.wv.us\/","review":"https:\/\/www.publicschoolreview.com\/beale-elementary-school-profile","virtual":"Yes"},{"title":"Beckley - Stratton Middle School","lat":"37.780583","lon":"-81.155791","type":"Traditional Public School","address":"401 Gray Flats Road","grades":["Middle"],"city":"Beckley","state":"WV","zip":"25801","phone":"(304) 256-4616","low":"6","high":"8","students":"688","cost":"No","url":"https:\/\/bsms.rale.k12.wv.us\/","review":"https:\/\/www.publicschoolreview.com\/beckley-stratton-middle-school-profile","virtual":"Yes"},{"title":"Beckley Center","lat":"37.829461","lon":"-81.195749","type":"Specialized Public School","address":"4712 Robert C. Byrd Drive","grades":["Elementary","Middle","High"],"city":"Beckley","state":"WV","zip":"25801","phone":"(304) 250-6570","low":"5","high":"12","students":"23","cost":"No","url":"","review":"https:\/\/www.publicschoolreview.com\/beckley-center-profile","virtual":"Yes"},{"title":"Beckley Elementary School","lat":"37.780552","lon":"-81.155846","type":"Traditional Public School","address":"399 Gray Flats Road","grades":["Pre-K","Elementary"],"city":"Beckley","state":"WV","zip":"25801","phone":"(304) 256-4575","low":"PK","high":"5","students":"323","cost":"No","url":"https:\/\/bes.rale.k12.wv.us\/","review":"https:\/\/www.publicschoolreview.com\/beckley-elementary-school-profile","virtual":"Yes"},{"title":"Bedington Elementary School","lat":"39.525434","lon":"-77.91698","type":"Traditional Public School","address":"149 Bedington Road","grades":["Pre-K","Elementary"],"city":"Martinsburg","state":"WV","zip":"25404","phone":"(304) 274-2535","low":"PK","high":"2","students":"180","cost":"No","url":"https:\/\/www.berkeleycountyschools.org\/bedington","review":"https:\/\/www.publicschoolreview.com\/bedington-elementary-school-profile","virtual":"Yes"},{"title":"Belington Elementary School","lat":"38.979736","lon":"-79.947404","type":"Traditional Public School","address":"471 Morgantown Pike","grades":["Pre-K","Elementary"],"city":"Belington","state":"WV","zip":"26250","phone":"(304) 823-1411","low":"PK","high":"4","students":"274","cost":"No","url":"http:\/\/www.wvschools.com\/bes\/","review":"https:\/\/www.publicschoolreview.com\/belington-elementary-school-profile","virtual":"Yes"},{"title":"Belington Middle School","lat":"39.033431","lon":"-79.92538","type":"Traditional Public School","address":"469 Morgantown Pike","grades":["Elementary","Middle"],"city":"Belington","state":"WV","zip":"26250","phone":"(304) 823-1281","low":"5","high":"8","students":"271","cost":"No","url":"https:\/\/sites.google.com\/site\/belingtonmiddle\/","review":"https:\/\/www.publicschoolreview.com\/belington-middle-school-profile","virtual":"Yes"},{"title":"Belle Elementary School","lat":"38.232141","lon":"-81.539974","type":"Traditional Public School","address":"401 E 6th Street","grades":["Pre-K","Elementary"],"city":"Belle","state":"WV","zip":"25015","phone":"(304) 949-2612","low":"PK","high":"5","students":"283","cost":"No","url":"https:\/\/belle.kana.k12.wv.us\/","review":"https:\/\/www.publicschoolreview.com\/belle-elementary-school-profile\/25015","virtual":"Yes"},{"title":"Belmont Elementary School","lat":"39.378346","lon":"-81.268067","type":"Traditional Public School","address":"512 Riverview Drive","grades":["Pre-K","Elementary"],"city":"Belmont","state":"WV","zip":"26134","phone":"(304) 299-5274","low":"PK","high":"4","students":"204","cost":"No","url":"https:\/\/www.pleasantscountyschools.com\/o\/bes","review":"https:\/\/www.publicschoolreview.com\/belmont-elementary-school-profile\/26134","virtual":"Yes"},{"title":"Ben Franklin Career Center","lat":"38.367622","lon":"-81.754175","type":"Specialized Public School","address":"500 28th Street","grades":["High"],"city":"Dunbar","state":"WV","zip":"25064","phone":"(304) 766-0369","low":"9","high":"12","students":"See website","cost":"No","url":"https:\/\/benzieschools.net\/benzie-central-high\/welcome\/","review":"https:\/\/www.publicschoolreview.com\/ben-franklin-career-center-profile","virtual":"Yes"},{"title":"Berkeley Heights Elementary School","lat":"39.440103","lon":"-77.963394","type":"Traditional Public School","address":"726 Hack Wilson Way","grades":["Pre-K","Elementary"],"city":"Martinsburg","state":"WV","zip":"25401","phone":"(304) 267-3520","low":"PK","high":"3","students":"665","cost":"No","url":"https:\/\/www.berkeleycountyschools.org\/berkeleyheights","review":"https:\/\/www.publicschoolreview.com\/berkeley-heights-elementary-school-profile","virtual":"Yes"},{"title":"Berkeley Springs High School","lat":"39.620321","lon":"-78.231972","type":"Traditional Public School","address":"149 Concord Avenue","grades":["High"],"city":"Berkeley Springs","state":"WV","zip":"25411","phone":"(304) 258-2871","low":"9","high":"12","students":"653","cost":"No","url":"https:\/\/stdennisschool.org\/","review":"https:\/\/www.publicschoolreview.com\/berkeley-springs-high-school-profile","virtual":"Yes"},{"title":"Berlin Mckinney Elementary School","lat":"37.691931","lon":"-81.63151","type":"Traditional Public School","address":"Hc 65 Box 402, 405 Cook Parkw","grades":["Pre-K","Elementary"],"city":"Oceana","state":"WV","zip":"24870","phone":"(304) 682-6481","low":"PK","high":"4","students":"334","cost":"No","url":"https:\/\/berlinmckinney.wyom.k12.wv.us\/","review":"https:\/\/www.publicschoolreview.com\/berlin-mckinney-elementary-school-profile","virtual":"Yes"},{"title":"Beth Haven Christian School","lat":"37.7412","lon":"-82.0021","type":"Private School","address":"140 Beth Haven Road","grades":["Elementary","Middle","High"],"city":"Chauncey","state":"WV","zip":"25612","phone":"(304) 946-4447","low":"K","high":"12","students":"94","cost":"Yes","url":"https:\/\/www.facebook.com\/pages\/Beth-Haven-Christian-School\/106344052736693","review":"https:\/\/www.privateschoolreview.com\/beth-haven-christian-school-profile\/25612","virtual":"No"},{"title":"Bethlehem Elementary School","lat":"40.045556","lon":"-80.691648","type":"Traditional Public School","address":"22 Chapel Rd","grades":["Pre-K","Elementary"],"city":"Wheeling","state":"WV","zip":"26003","phone":"(304) 243-0350","low":"PK","high":"5","students":"113","cost":"No","url":"https:\/\/bethlehem.ohio.k12.wv.us\/","review":"https:\/\/www.publicschoolreview.com\/bethlehem-elementary-school-profile\/26003","virtual":"Yes"},{"title":"Beverly Elementary School","lat":"38.843364","lon":"-79.872376","type":"Traditional Public School","address":"505 Main Street","grades":["Pre-K","Elementary"],"city":"Beverly","state":"WV","zip":"26253","phone":"(304) 636-9162","low":"PK","high":"5","students":"258","cost":"No","url":"http:\/\/beverly.rand.k12.wv.us\/","review":"https:\/\/www.publicschoolreview.com\/beverly-elementary-school-profile\/26253","virtual":"Yes"},{"title":"Bible Baptist Christian School","lat":"38.4879042","lon":"-81.660999","type":"Private School","address":"7020 Sissonville Dr","grades":["High"],"city":"Charleston","state":"WV","zip":"25320","phone":"(304) 881-1575","low":"12","high":"12","students":"See website","cost":"Yes","url":"http:\/\/www.biblebaptistchristianschool.com\/","review":"","virtual":"No"},{"title":"Bible Center School","lat":"38.3436102","lon":"-81.6751838","type":"Private School","address":"1111 Oakhurst Dr","grades":["Pre-K","Elementary","Middle"],"city":"Charleston","state":"WV","zip":"25314","phone":"(304) 941-1704","low":"PK","high":"8","students":"287","cost":"Yes","url":"https:\/\/www.biblecenterschool.com","review":"https:\/\/www.privateschoolreview.com\/bible-center-school-profile","virtual":"No"},{"title":"Big Elm Elementary School","lat":"39.402506","lon":"-80.285772","type":"Traditional Public School","address":"200 Tetrick Rd","grades":["Pre-K","Elementary"],"city":"Shinnston","state":"WV","zip":"26431","phone":"(304) 326-7280","low":"PK","high":"5","students":"623","cost":"No","url":"","review":"https:\/\/www.publicschoolreview.com\/big-elm-elementary-school-profile","virtual":"Yes"},{"title":"Big Otter Elementary School","lat":"38.5875","lon":"-81.0343","type":"Traditional Public School","address":"59 Ossia Road","grades":["Pre-K","Elementary"],"city":"Duck","state":"WV","zip":"25063","phone":"(304) 286-3111","low":"PK","high":"5","students":"208","cost":"No","url":"http:\/\/www.bigotterelementaryschool.org\/","review":"https:\/\/www.publicschoolreview.com\/big-otter-elementary-school-profile","virtual":"Yes"},{"title":"Birch River Elementary School","lat":"38.499509","lon":"-80.756791","type":"Traditional Public School","address":"379 Birch River Road","grades":["Pre-K","Elementary"],"city":"Birch River","state":"WV","zip":"26610","phone":"(304) 649-2651","low":"PK","high":"5","students":"86","cost":"No","url":"https:\/\/ncbre.ss8.sharpschool.com\/","review":"https:\/\/www.publicschoolreview.com\/birch-river-elementary-school-profile","virtual":"Yes"},{"title":"Bishop Donahue High School","lat":"39.992756","lon":"-80.7304706","type":"Private School","address":"325 Logan Street","grades":["High"],"city":"Mcmechen","state":"WV","zip":"26040","phone":"(304) 845-2055","low":"9","high":"12","students":"103","cost":"Yes","url":"https:\/\/bishopdonahue.org\/","review":"https:\/\/www.privateschoolreview.com\/bishop-donahue-high-school-profile","virtual":"No"},{"title":"Blackshere Elementary School","lat":"39.521902","lon":"-80.31854","type":"Traditional Public School","address":"77 Blackshere Drive","grades":["Pre-K","Elementary"],"city":"Mannington","state":"WV","zip":"26582","phone":"(304) 986-2707","low":"PK","high":"4","students":"323","cost":"No","url":"","review":"https:\/\/www.publicschoolreview.com\/blackshere-elementary-school-profile","virtual":"Yes"},{"title":"Blennerhassett Elementary School","lat":"39.258267","lon":"-81.618312","type":"Traditional Public School","address":"448 Jewel Rd","grades":["Pre-K","Elementary"],"city":"Parkersburg","state":"WV","zip":"26101","phone":"(304) 863-5128","low":"PK","high":"5","students":"497","cost":"No","url":"https:\/\/www.woodcountyschoolswv.com\/o\/be","review":"https:\/\/www.publicschoolreview.com\/blennerhassett-elementary-school-profile","virtual":"Yes"},{"title":"Blennerhassett Middle School","lat":"39.258297","lon":"-81.618311","type":"Traditional Public School","address":"444 Jewel Rd","grades":["Middle"],"city":"Parkersburg","state":"WV","zip":"26101","phone":"(304) 863-3356","low":"6","high":"8","students":"476","cost":"No","url":"https:\/\/www.woodcountyschoolswv.com\/o\/bm","review":"https:\/\/www.publicschoolreview.com\/blennerhassett-middle-school-profile","virtual":"Yes"},{"title":"Blue Ridge Elementary School","lat":"39.243874","lon":"-77.789215","type":"Traditional Public School","address":"18866 Charles Town Road","grades":["Pre-K","Elementary"],"city":"Harpers Ferry","state":"WV","zip":"25425","phone":"(304) 725-2995","low":"PK","high":"5","students":"391","cost":"No","url":"https:\/\/bres.jeff.k12.wv.us\/","review":"https:\/\/www.publicschoolreview.com\/blue-ridge-elementary-school-profile\/25425","virtual":"Yes"},{"title":"Bluefield High School","lat":"37.249553","lon":"-81.217486","type":"Traditional Public School","address":"535 W. Cumberland Road","grades":["High"],"city":"Bluefield","state":"WV","zip":"24701","phone":"(304) 325-9116","low":"9","high":"12","students":"599","cost":"No","url":"","review":"https:\/\/www.publicschoolreview.com\/bluefield-high-school-profile","virtual":"Yes"},{"title":"Bluefield Intermediate School","lat":"37.243976","lon":"-81.22644","type":"Traditional Public School","address":"1301 Southview Drive","grades":["Elementary"],"city":"Bluefield","state":"WV","zip":"24701","phone":"(304) 327-8339","low":"3","high":"5","students":"284","cost":"No","url":"https:\/\/www.boe.merc.k12.wv.us\/o\/bis","review":"https:\/\/www.publicschoolreview.com\/bluefield-intermediate-school-profile","virtual":"Yes"},{"title":"Bluefield Middle School","lat":"37.249405","lon":"-81.243657","type":"Traditional Public School","address":"2002 Stadium Drive","grades":["Middle"],"city":"Bluefield","state":"WV","zip":"24701","phone":"(304) 325-2481","low":"6","high":"8","students":"547","cost":"No","url":"https:\/\/www.boe.merc.k12.wv.us\/o\/bms","review":"https:\/\/www.publicschoolreview.com\/bluefield-middle-school-profile","virtual":"Yes"},{"title":"Bluefield Primary School","lat":"37.248168","lon":"-81.221378","type":"Traditional Public School","address":"673 West Cumberland Road","grades":["Elementary"],"city":"Bluefield","state":"WV","zip":"24701","phone":"(304) 327-6217","low":"K","high":"2","students":"268","cost":"No","url":"","review":"https:\/\/www.publicschoolreview.com\/bluefield-primary-school-profile","virtual":"Yes"},{"title":"Bluewell Elementary School","lat":"37.3135","lon":"-81.2589","type":"Traditional Public School","address":"205 Bluewell School Road","grades":["Pre-K","Elementary"],"city":"Bluefield","state":"WV","zip":"24701","phone":"(304) 589-5057","low":"PK","high":"5","students":"194","cost":"No","url":"https:\/\/boe.merc.k12.wv.us\/","review":"https:\/\/www.publicschoolreview.com\/bluewell-elementary-school-profile","virtual":"Yes"},{"title":"Bmf Christian","lat":"38.992878","lon":"-79.163722","type":"Private School","address":"3671 Johnson Run Rd","grades":["Elementary","Middle","High"],"city":"Petersburg","state":"WV","zip":"26847","phone":"(304) 257-9716","low":"1","high":"10","students":"See website","cost":"Yes","url":"","review":"","virtual":"No"},{"title":"Board Of Child Care","lat":"39.532249","lon":"-77.899733","type":"Specialized Public School","address":"715 Brown Road","grades":["Middle","High"],"city":"Martinsburg","state":"WV","zip":"25404","phone":"(304) 274-3688","low":"7","high":"12","students":"14","cost":"No","url":"https:\/\/www.boardofchildcare.org\/","review":"https:\/\/www.publicschoolreview.com\/board-of-child-care-profile","virtual":"Yes"},{"title":"Bolivar Christian Academy","lat":"39.281322","lon":"-77.784381","type":"Private School","address":"87 Old Taylor Lane","grades":["Pre-K","Elementary","Middle"],"city":"Harpers Ferry","state":"WV","zip":"25425","phone":"(304) 535-6355","low":"NS","high":"8","students":"59","cost":"Yes","url":"","review":"https:\/\/www.privateschoolreview.com\/bolivar-christian-academy-profile","virtual":"No"},{"title":"Boomer Christian Academy","lat":"38.1498","lon":"-81.2888","type":"Private School","address":"1 N Church St","grades":["Elementary","Middle","High"],"city":"Boomer","state":"WV","zip":"25031","phone":"(304) 442-8967","low":"K","high":"12","students":"See website","cost":"Yes","url":"http:\/\/www.boomerbaptist.com","review":"https:\/\/www.privateschoolreview.com\/boomer-christian-academy-profile","virtual":"No"},{"title":"Boone Career - Technical Center","lat":"38.04351","lon":"-81.871081","type":"Specialized Public School","address":"3505 Daniel Boone Parkway, Sui","grades":["High"],"city":"Foster","state":"WV","zip":"25081","phone":"(304) 369-4585","low":"9","high":"12","students":"See website","cost":"No","url":"https:\/\/www.gobctc.com\/","review":"https:\/\/www.publicschoolreview.com\/boone-career-technical-center-profile","virtual":"Yes"},{"title":"Bradley Elementary School","lat":"37.847493","lon":"-81.194985","type":"Traditional Public School","address":"210 Bradley School Road","grades":["Pre-K","Elementary"],"city":"Mount Hope","state":"WV","zip":"25880","phone":"(304) 256-4605","low":"PK","high":"5","students":"362","cost":"No","url":"https:\/\/bres.rale.k12.wv.us\/","review":"https:\/\/www.publicschoolreview.com\/bradley-elementary-school-profile\/25880","virtual":"Yes"},{"title":"Bradshaw Elementary School","lat":"37.418747","lon":"-81.789831","type":"Traditional Public School","address":"740 Mountaineer Highway","grades":["Pre-K","Elementary"],"city":"Bradshaw","state":"WV","zip":"24817","phone":"(304) 967-7700","low":"PK","high":"5","students":"256","cost":"No","url":"https:\/\/boe.mcdo.k12.wv.us\/Domain\/74","review":"https:\/\/www.publicschoolreview.com\/bradshaw-elementary-school-profile","virtual":"Yes"},{"title":"Brandywine Elementary School","lat":"38.580494","lon":"-79.168315","type":"Traditional Public School","address":"11480 Blue Gray Trail","grades":["Pre-K","Elementary","Middle"],"city":"Brandywine","state":"WV","zip":"26802","phone":"(304) 249-5381","low":"PK","high":"6","students":"95","cost":"No","url":"https:\/\/brandywinewv.weebly.com\/","review":"https:\/\/www.publicschoolreview.com\/brandywine-elementary-school-profile\/26802","virtual":"Yes"},{"title":"Braxton County High School","lat":"38.695904","lon":"-80.667325","type":"Traditional Public School","address":"200 Jerry Burton Drive","grades":["High"],"city":"Sutton","state":"WV","zip":"26601","phone":"(304) 765-7331","low":"9","high":"12","students":"522","cost":"No","url":"https:\/\/bchs.brax.k12.wv.us\/","review":"https:\/\/www.publicschoolreview.com\/braxton-county-high-school-profile","virtual":"Yes"},{"title":"Braxton County Middle School","lat":"38.694809","lon":"-80.663937","type":"Traditional Public School","address":"100 Carter Braxton Drive","grades":["Middle"],"city":"Sutton","state":"WV","zip":"26601","phone":"(304) 765-2644","low":"6","high":"8","students":"402","cost":"No","url":"https:\/\/bcms.brax.k12.wv.us\/","review":"https:\/\/www.publicschoolreview.com\/braxton-county-middle-school-profile","virtual":"Yes"},{"title":"Bridge Elementary School","lat":"38.452355","lon":"-81.455511","type":"Traditional Public School","address":"5120 Elk River Road N","grades":["Pre-K","Elementary"],"city":"Elkview","state":"WV","zip":"25071","phone":"(304) 965-5501","low":"PK","high":"5","students":"86","cost":"No","url":"","review":"https:\/\/www.publicschoolreview.com\/bridge-elementary-school-profile\/25071","virtual":"Yes"},{"title":"Bridge Street Middle School","lat":"40.04443","lon":"-80.660628","type":"Traditional Public School","address":"19 Junior Ave","grades":["Middle"],"city":"Wheeling","state":"WV","zip":"26003","phone":"(304) 243-0381","low":"6","high":"8","students":"315","cost":"No","url":"https:\/\/bsms.ohio.k12.wv.us\/","review":"https:\/\/www.publicschoolreview.com\/bridge-street-middle-school-profile","virtual":"Yes"},{"title":"Bridgeport High School","lat":"39.290065","lon":"-80.262183","type":"Traditional Public School","address":"515 Johnson Ave","grades":["High"],"city":"Bridgeport","state":"WV","zip":"26330","phone":"(304) 326-7137","low":"9","high":"12","students":"825","cost":"No","url":"https:\/\/www.harcoboe.net\/o\/bhs\/","review":"https:\/\/www.publicschoolreview.com\/bridgeport-high-school-profile\/26330","virtual":"Yes"},{"title":"Bridgeport Middle School","lat":"39.28806","lon":"-80.260849","type":"Traditional Public School","address":"413 Johnson Ave","grades":["Middle"],"city":"Bridgeport","state":"WV","zip":"26330","phone":"(304) 326-7142","low":"6","high":"8","students":"650","cost":"No","url":"https:\/\/www.harcoboe.net\/o\/bms","review":"https:\/\/www.publicschoolreview.com\/bridgeport-middle-school-profile\/26330","virtual":"Yes"},{"title":"Bridgeview Elementary School","lat":"38.352412","lon":"-81.735058","type":"Traditional Public School","address":"5100 Ohio Street","grades":["Pre-K","Elementary"],"city":"South Charleston","state":"WV","zip":"25309","phone":"(304) 766-0383","low":"PK","high":"5","students":"412","cost":"No","url":"http:\/\/bridgeviewelementary.weebly.com\/","review":"https:\/\/www.publicschoolreview.com\/bridgeview-elementary-school-profile\/25309","virtual":"Yes"},{"title":"Brooke Hancock Alternatiive Learning Center","lat":"40.277464","lon":"-80.611814","type":"Specialized Public School","address":"1447 Main St","grades":["Elementary","Middle","High"],"city":"Wellsburg","state":"WV","zip":"26070","phone":"(304) 748-7760","low":"K","high":"12","students":"See website","cost":"No","url":"","review":"https:\/\/www.publicschoolreview.com\/brooke-hancock-alternatiive-learning-center-profile","virtual":"Yes"},{"title":"Brooke High School","lat":"40.306588","lon":"-80.565819","type":"Traditional Public School","address":"29 Bruin Drive, Box 610","grades":["High"],"city":"Wellsburg","state":"WV","zip":"26070","phone":"(304) 527-1410","low":"9","high":"12","students":"1018","cost":"No","url":"https:\/\/bhs.brooke.k12.wv.us\/","review":"https:\/\/www.publicschoolreview.com\/brooke-high-school-profile","virtual":"Yes"},{"title":"Brooke Intermediate School North","lat":"40.331398","lon":"-80.59442","type":"Traditional Public School","address":"1098 Jefferson St","grades":["Elementary"],"city":"Follansbee","state":"WV","zip":"26037","phone":"(304) 527-2250","low":"3","high":"4","students":"188","cost":"No","url":"","review":"https:\/\/www.publicschoolreview.com\/brooke-intermediate-school-north-profile","virtual":"Yes"},{"title":"Brooke Intermediate School South","lat":"40.272564","lon":"-80.538171","type":"Traditional Public School","address":"1305 Washington Pike","grades":["Elementary"],"city":"Wellsburg","state":"WV","zip":"26070","phone":"(304) 737-1760","low":"3","high":"4","students":"136","cost":"No","url":"","review":"https:\/\/www.publicschoolreview.com\/brooke-intermediate-school-south-profile","virtual":"Yes"},{"title":"Brooke Middle School","lat":"40.304518","lon":"-80.589411","type":"Traditional Public School","address":"5 Bruin Drive","grades":["Elementary","Middle"],"city":"Wellsburg","state":"WV","zip":"26070","phone":"(304) 737-3481","low":"5","high":"8","students":"812","cost":"No","url":"","review":"https:\/\/www.publicschoolreview.com\/brooke-middle-school-profile","virtual":"Yes"},{"title":"Brooke Primary School North","lat":"40.324541","lon":"-80.578788","type":"Traditional Public School","address":"200 Rockdale Rd","grades":["Elementary"],"city":"Follansbee","state":"WV","zip":"26037","phone":"(304) 527-0870","low":"K","high":"2","students":"249","cost":"No","url":"","review":"https:\/\/www.publicschoolreview.com\/brooke-primary-school-north-profile","virtual":"Yes"},{"title":"Brooke Primary School South","lat":"40.277489","lon":"-80.610743","type":"Traditional Public School","address":"1448 Main St","grades":["Elementary"],"city":"Wellsburg","state":"WV","zip":"26070","phone":"(304) 737-0133","low":"K","high":"2","students":"188","cost":"No","url":"","review":"https:\/\/www.publicschoolreview.com\/brooke-primary-school-south-profile","virtual":"Yes"},{"title":"Brookhaven Elementary School","lat":"39.610384","lon":"-79.905581","type":"Traditional Public School","address":"1215 Baker Street","grades":["Pre-K","Elementary"],"city":"Morgantown","state":"WV","zip":"26508","phone":"(304) 291-9236","low":"PK","high":"5","students":"552","cost":"No","url":"https:\/\/bes.mono.k12.wv.us:443\/8\/home","review":"https:\/\/www.publicschoolreview.com\/brookhaven-elementary-school-profile\/26508","virtual":"Yes"},{"title":"Brookview Elementary School","lat":"38.10388","lon":"-81.8256","type":"Traditional Public School","address":"1 Learning Way","grades":["Pre-K","Elementary"],"city":"Foster","state":"WV","zip":"25081","phone":"(304) 369-1012","low":"PK","high":"5","students":"328","cost":"No","url":"https:\/\/www.freewebs.com\/brookviewhuskies\/","review":"https:\/\/www.publicschoolreview.com\/brookview-elementary-school-profile\/25081","virtual":"Yes"},{"title":"Bruceton School","lat":"39.665941","lon":"-79.618255","type":"Traditional Public School","address":"70 Morgantown Street","grades":["Pre-K","Elementary","Middle"],"city":"Bruceton Mills","state":"WV","zip":"26525","phone":"(304) 379-2593","low":"PK","high":"8","students":"603","cost":"No","url":"https:\/\/preston-k12.wvnet.edu\/bruceton\/","review":"https:\/\/www.publicschoolreview.com\/bruceton-school-profile","virtual":"Yes"},{"title":"Brushfork Elementary School","lat":"37.26675","lon":"-81.22589","type":"Traditional Public School","address":"140 Brushfork School Road","grades":["Elementary"],"city":"Bluefield","state":"WV","zip":"24701","phone":"(304) 325-7066","low":"K","high":"5","students":"161","cost":"No","url":"https:\/\/boe.merc.k12.wv.us\/domain\/48","review":"https:\/\/www.publicschoolreview.com\/brushfork-elementary-school-profile","virtual":"Yes"},{"title":"Buckhannon Academy Elementary School","lat":"38.986586","lon":"-80.224211","type":"Traditional Public School","address":"16 College Avenue","grades":["Pre-K","Elementary"],"city":"Buckhannon","state":"WV","zip":"26201","phone":"(304) 472-3310","low":"PK","high":"5","students":"533","cost":"No","url":"https:\/\/baes.upshurschools.com\/","review":"https:\/\/www.publicschoolreview.com\/buckhannon-academy-elementary-school-profile","virtual":"Yes"},{"title":"Buckhannon Upshur High School","lat":"38.95199","lon":"-80.24341","type":"Traditional Public School","address":"270 B-u Drive","grades":["High"],"city":"Buckhannon","state":"WV","zip":"26201","phone":"(304) 472-3720","low":"9","high":"12","students":"1096","cost":"No","url":"https:\/\/buhs.upshurschools.com\/","review":"https:\/\/www.publicschoolreview.com\/buckhannon-upshur-high-school-profile","virtual":"Yes"},{"title":"Buffalo Elementary School","lat":"38.344884","lon":"-82.520248","type":"Traditional Public School","address":"331 Buffalo Creek Road","grades":["Pre-K","Elementary"],"city":"Kenova","state":"WV","zip":"25530","phone":"(304) 429-2911","low":"PK","high":"5","students":"383","cost":"No","url":"https:\/\/buffalo.wayn.k12.wv.us\/","review":"https:\/\/www.publicschoolreview.com\/buffalo-elementary-school-profile\/25530","virtual":"Yes"},{"title":"Buffalo Elementary School","lat":"37.76982","lon":"-81.836145","type":"Traditional Public School","address":"Rt. 16 Buffalo Creek Road","grades":["Pre-K","Elementary"],"city":"Accoville","state":"WV","zip":"25606","phone":"(304) 583-9132","low":"PK","high":"4","students":"202","cost":"No","url":"http:\/\/www.bes.logancountyschoolswv.com\/","review":"https:\/\/www.publicschoolreview.com\/buffalo-elementary-school-profile\/25606","virtual":"Yes"},{"title":"Buffalo Elementary School","lat":"38.609541","lon":"-81.98714","type":"Traditional Public School","address":"19366 Buffalo Road","grades":["Pre-K","Elementary"],"city":"Buffalo","state":"WV","zip":"25033","phone":"(304) 937-2651","low":"PK","high":"5","students":"191","cost":"No","url":"https:\/\/bes.putnamschools.com\/","review":"https:\/\/www.publicschoolreview.com\/buffalo-elementary-school-profile\/25033","virtual":"Yes"},{"title":"Buffalo High School","lat":"38.612098","lon":"-81.986413","type":"Traditional Public School","address":"19005 Charleston Road","grades":["High"],"city":"Buffalo","state":"WV","zip":"25033","phone":"(304) 937-2661","low":"9","high":"12","students":"355","cost":"No","url":"https:\/\/bhs.putnamschools.com\/","review":"https:\/\/www.publicschoolreview.com\/buffalo-high-school-profile\/25033","virtual":"Yes"},{"title":"Buffalo Middle School","lat":"38.346988","lon":"-82.518579","type":"Traditional Public School","address":"298 Buffalo Creek Road","grades":["Middle"],"city":"Kenova","state":"WV","zip":"25530","phone":"(304) 429-6062","low":"6","high":"8","students":"273","cost":"No","url":"https:\/\/bms.wayn.k12.wv.us\/","review":"https:\/\/www.publicschoolreview.com\/buffalo-middle-school-profile\/25530","virtual":"Yes"},{"title":"Bunker Hill Elementary School","lat":"39.323074","lon":"-78.058277","type":"Traditional Public School","address":"58 Happy School Avenue","grades":["Elementary"],"city":"Bunker Hill","state":"WV","zip":"25413","phone":"(304) 229-1980","low":"K","high":"3","students":"419","cost":"No","url":"https:\/\/www.berkeleycountyschools.org\/Domain\/137","review":"https:\/\/www.publicschoolreview.com\/bunker-hill-elementary-school-profile\/25413","virtual":"Yes"},{"title":"Burch Pk8","lat":"37.7106581","lon":"-82.1840239","type":"Traditional Public School","address":"275 Bulldog Blvd","grades":["Pre-K","Elementary","Middle"],"city":"Delbarton","state":"WV","zip":"25670","phone":"(304) 475-2700","low":"PK","high":"8","students":"494","cost":"No","url":"https:\/\/www.mingoschools.com\/Domain\/8","review":"https:\/\/www.publicschoolreview.com\/burch-pk8-profile","virtual":"Yes"},{"title":"Burke Street Elementary School","lat":"39.458278","lon":"-77.967499","type":"Traditional Public School","address":"422 West Burke Street","grades":["Pre-K","Elementary"],"city":"Martinsburg","state":"WV","zip":"25401","phone":"(304) 267-3525","low":"PK","high":"3","students":"284","cost":"No","url":"https:\/\/www.berkeleycountyschools.org\/burkestreet","review":"https:\/\/www.publicschoolreview.com\/burke-street-elementary-school-profile","virtual":"Yes"},{"title":"Burlington Center","lat":"39.336399","lon":"-78.918976","type":"Specialized Public School","address":"161 Hope Lane","grades":["Elementary","Middle","High"],"city":"Burlington","state":"WV","zip":"26710","phone":"(304) 289-6018","low":"1","high":"11","students":"30","cost":"No","url":"","review":"https:\/\/www.publicschoolreview.com\/burlington-center-profile","virtual":"Yes"},{"title":"Burlington Primary","lat":"39.336144","lon":"-78.918829","type":"Traditional Public School","address":"10474 Upper Patterson Creek Rd","grades":["Pre-K","Elementary"],"city":"Burlington","state":"WV","zip":"26710","phone":"(304) 289-3073","low":"PK","high":"4","students":"101","cost":"No","url":"https:\/\/www.stmelschool.org\/","review":"https:\/\/www.publicschoolreview.com\/burlington-primary-profile","virtual":"Yes"},{"title":"Burnsville Elementary School","lat":"38.858286","lon":"-80.657611","type":"Traditional Public School","address":"228 Kanawha Ave","grades":["Pre-K","Elementary"],"city":"Burnsville","state":"WV","zip":"26335","phone":"(304) 853-2523","low":"PK","high":"5","students":"121","cost":"No","url":"https:\/\/burnsville.brax.k12.wv.us\/","review":"https:\/\/www.publicschoolreview.com\/burnsville-elementary-school-profile\/26335","virtual":"Yes"},{"title":"C. W. Shipley Elementary School","lat":"39.318092","lon":"-77.779612","type":"Traditional Public School","address":"652 Shipley School Road","grades":["Pre-K","Elementary"],"city":"Harpers Ferry","state":"WV","zip":"25425","phone":"(304) 725-4395","low":"PK","high":"5","students":"375","cost":"No","url":"https:\/\/cwses.jeff.k12.wv.us\/","review":"https:\/\/www.publicschoolreview.com\/c-w-shipley-elementary-school-profile","virtual":"Yes"},{"title":"Cabell Alternative School","lat":"38.426637","lon":"-82.402139","type":"Specialized Public School","address":"2800 5th Ave","grades":["Pre-K","Elementary","Middle","High"],"city":"Huntington","state":"WV","zip":"25702","phone":"(304) 528-5060","low":"PK","high":"12","students":"31","cost":"No","url":"https:\/\/www.cabellschools.com\/Domain\/11","review":"https:\/\/www.publicschoolreview.com\/cabell-alternative-school-profile","virtual":"Yes"},{"title":"Cabell County Career Technology Center","lat":"38.405927","lon":"-82.374417","type":"Specialized Public School","address":"1035 Norway Ave","grades":["High"],"city":"Huntington","state":"WV","zip":"25705","phone":"(304) 528-5106","low":"9","high":"12","students":"See website","cost":"No","url":"https:\/\/www.cabellschools.com\/cabellcountycareertechnologycenter_home","review":"https:\/\/www.publicschoolreview.com\/cabell-county-career-technology-center-profile","virtual":"Yes"},{"title":"Cabell Midland High School","lat":"38.428483","lon":"-82.191745","type":"Traditional Public School","address":"2300 Us Route 60 East","grades":["High"],"city":"Ona","state":"WV","zip":"25545","phone":"(304) 743-7400","low":"9","high":"12","students":"1821","cost":"No","url":"https:\/\/www.midlandrunning.com\/","review":"https:\/\/www.publicschoolreview.com\/cabell-midland-high-school-profile","virtual":"Yes"},{"title":"Calhoun - Gilmer Career Center","lat":"38.899437","lon":"-81.014723","type":"Specialized Public School","address":"5260 East Little Kanawha Hwy","grades":["High"],"city":"Grantsville","state":"WV","zip":"26147","phone":"(304) 354-6151","low":"9","high":"12","students":"See website","cost":"No","url":"https:\/\/calhoun-k12.wvnet.edu\/cgcc\/school-information\/","review":"https:\/\/www.publicschoolreview.com\/calhoun-gilmer-career-center-profile","virtual":"Yes"},{"title":"Calhoun Middle\/High School","lat":"38.837444","lon":"-81.113261","type":"Traditional Public School","address":"50 Underwood Circle","grades":["Elementary","Middle","High"],"city":"Mount Zion","state":"WV","zip":"26151","phone":"(304) 354-6148","low":"5","high":"12","students":"527","cost":"No","url":"https:\/\/calhoun-k12.wvnet.edu\/ccmhs\/","review":"https:\/\/www.publicschoolreview.com\/calhoun-middle-high-school-profile","virtual":"Yes"},{"title":"Calvary Baptist Academy","lat":"38.44492238","lon":"-81.97543287","type":"Private School","address":"3655 Teays Valley Rd","grades":["Elementary","Middle","High"],"city":"Hurricane","state":"WV","zip":"25526","phone":"(304) 757-6768","low":"K","high":"12","students":"215","cost":"Yes","url":"https:\/\/www.cbawv.org\/","review":"https:\/\/www.privateschoolreview.com\/calvary-baptist-academy-profile\/25526","virtual":"No"},{"title":"Calvary Christian School","lat":"39.4850848","lon":"-80.1425781","type":"Private School","address":"28 Fellowship Dr","grades":["Pre-K","Elementary","Middle","High"],"city":"Fairmont","state":"WV","zip":"26554","phone":"(304) 363-8008","low":"NS","high":"12","students":"58","cost":"Yes","url":"","review":"https:\/\/www.privateschoolreview.com\/calvary-christian-school-profile\/26554","virtual":"No"},{"title":"Cameron Elementary School","lat":"39.826224","lon":"-80.564391","type":"Traditional Public School","address":"12 Church St","grades":["Pre-K","Elementary"],"city":"Cameron","state":"WV","zip":"26033","phone":"(304) 686-3305","low":"PK","high":"5","students":"267","cost":"No","url":"https:\/\/cameron.mars.k12.wv.us\/","review":"https:\/\/www.publicschoolreview.com\/cameron-elementary-school-profile\/26033","virtual":"Yes"},{"title":"Cameron High School","lat":"39.823184","lon":"-80.561702","type":"Traditional Public School","address":"2012 Blue And Gold Rd","grades":["Middle","High"],"city":"Cameron","state":"WV","zip":"26033","phone":"(304) 686-3336","low":"6","high":"12","students":"323","cost":"No","url":"","review":"https:\/\/www.publicschoolreview.com\/cameron-high-school-profile\/26033","virtual":"Yes"},{"title":"Cammack Children?S Center","lat":"38.416101","lon":"-82.458638","type":"Specialized Public School","address":"64 West 6th Avenue","grades":["Middle","High"],"city":"Huntington","state":"WV","zip":"25701","phone":"(304) 523-3497","low":"7","high":"12","students":"20","cost":"No","url":"","review":"https:\/\/www.publicschoolreview.com\/cammack-children-s-center-profile","virtual":"Yes"},{"title":"Caperton Center For Applied Technology","lat":"39.2667418","lon":"-81.5615135","type":"Specialized Public School","address":"212 Technology Dr","grades":["High"],"city":"Parkersburg","state":"WV","zip":"26104","phone":"(304) 424-8365","low":"9","high":"12","students":"See website","cost":"No","url":"","review":"https:\/\/www.publicschoolreview.com\/caperton-center-for-applied-technology-profile","virtual":"Yes"},{"title":"Capital High School","lat":"38.370983","lon":"-81.576675","type":"Traditional Public School","address":"1500 Greenbrier St","grades":["High"],"city":"Charleston","state":"WV","zip":"25311","phone":"(304) 348-6500","low":"9","high":"12","students":"1215","cost":"No","url":"https:\/\/chs.kana.k12.wv.us\/","review":"https:\/\/www.publicschoolreview.com\/capital-high-school-profile\/25311","virtual":"Yes"},{"title":"Capon Bridge Elementary School","lat":"39.299032","lon":"-78.43691","type":"Traditional Public School","address":"99 Capon School Street","grades":["Pre-K","Elementary"],"city":"Capon Bridge","state":"WV","zip":"26711","phone":"(304) 856-3329","low":"PK","high":"5","students":"289","cost":"No","url":"http:\/\/boe.hamp.k12.wv.us\/CaponBridgeElementary","review":"https:\/\/www.publicschoolreview.com\/capon-bridge-elementary-school-profile","virtual":"Yes"},{"title":"Capon Bridge Middle School","lat":"39.299032","lon":"-78.43691","type":"Traditional Public School","address":"75 Capon School Street","grades":["Middle"],"city":"Capon Bridge","state":"WV","zip":"26711","phone":"(304) 856-2534","low":"6","high":"8","students":"313","cost":"No","url":"http:\/\/cbms.hamp.k12.wv.us\/home%20page.htm","review":"https:\/\/www.publicschoolreview.com\/capon-bridge-middle-school-profile","virtual":"Yes"},{"title":"Career And Technology Center","lat":"37.42899","lon":"-81.58507","type":"Specialized Public School","address":"1 Stadium Drive","grades":["High"],"city":"Welch","state":"WV","zip":"24801","phone":"(304) 436-3488","low":"9","high":"12","students":"See website","cost":"No","url":"https:\/\/boe.mcdo.k12.wv.us\/Domain\/109","review":"https:\/\/www.publicschoolreview.com\/career-and-technology-center-profile","virtual":"Yes"},{"title":"Carver Career Center","lat":"38.294391","lon":"-81.559243","type":"Specialized Public School","address":"4799 Midland Dr","grades":["High"],"city":"Charleston","state":"WV","zip":"25306","phone":"(304) 348-1965","low":"9","high":"12","students":"See website","cost":"No","url":"https:\/\/ccc.kana.k12.wv.us\/","review":"https:\/\/www.publicschoolreview.com\/carver-career-center-profile","virtual":"Yes"},{"title":"Cedar Grove Elementary School","lat":"38.217643","lon":"-81.427564","type":"Traditional Public School","address":"200 John Street","grades":["Pre-K","Elementary"],"city":"Cedar Grove","state":"WV","zip":"25039","phone":"(304) 949-1642","low":"PK","high":"5","students":"164","cost":"No","url":"https:\/\/cg.kana.k12.wv.us\/","review":"https:\/\/www.publicschoolreview.com\/cedar-grove-elementary-school-profile\/25039","virtual":"Yes"},{"title":"Cedar Grove Middle School","lat":"38.217643","lon":"-81.427564","type":"Traditional Public School","address":"200 John Street","grades":["Middle"],"city":"Cedar Grove","state":"WV","zip":"25039","phone":"(304) 595-2541","low":"6","high":"8","students":"159","cost":"No","url":"https:\/\/cedar-grove-wv.formula-usa.com\/cedar-grove-middle-school\/","review":"https:\/\/www.publicschoolreview.com\/cedar-grove-middle-school-profile\/25039","virtual":"Yes"},{"title":"Center Mcmechen Elementary School","lat":"39.988982","lon":"-80.728868","type":"Traditional Public School","address":"800 Marshall St","grades":["Pre-K","Elementary"],"city":"Moundsville","state":"WV","zip":"26041","phone":"(304) 232-6530","low":"PK","high":"5","students":"204","cost":"No","url":"https:\/\/mcmechen.mars.k12.wv.us\/","review":"https:\/\/www.publicschoolreview.com\/center-mcmechen-elementary-school-profile","virtual":"Yes"},{"title":"Central Catholic High School","lat":"40.06606585","lon":"-80.71918477","type":"Private School","address":"75 14th St","grades":["High"],"city":"Wheeling","state":"WV","zip":"26003","phone":"(304) 233-1660","low":"9","high":"12","students":"290","cost":"Yes","url":"https:\/\/cchsknights.org\/","review":"https:\/\/www.privateschoolreview.com\/central-catholic-high-school-profile\/26003","virtual":"No"},{"title":"Central City Elementary School","lat":"38.40998","lon":"-82.491336","type":"Traditional Public School","address":"2100 Washington Ave","grades":["Pre-K","Elementary"],"city":"Huntington","state":"WV","zip":"25704","phone":"(304) 528-5231","low":"PK","high":"5","students":"439","cost":"No","url":"https:\/\/www.cabellschools.com\/Domain\/17","review":"https:\/\/www.publicschoolreview.com\/central-city-elementary-school-profile\/25704","virtual":"Yes"},{"title":"Central Elementary School","lat":"38.38225","lon":"-81.83206","type":"Traditional Public School","address":"900 Helene Street","grades":["Pre-K","Elementary"],"city":"Saint Albans","state":"WV","zip":"25177","phone":"(304) 722-0226","low":"PK","high":"5","students":"351","cost":"No","url":"https:\/\/centralelem.kana.k12.wv.us\/","review":"https:\/\/www.publicschoolreview.com\/central-elementary-school-profile\/25177","virtual":"Yes"},{"title":"Central Elementary School","lat":"39.918234","lon":"-80.745236","type":"Traditional Public School","address":"750 Tomlinson Avenue","grades":["Elementary"],"city":"Moundsville","state":"WV","zip":"26041","phone":"(304) 843-4425","low":"3","high":"5","students":"295","cost":"No","url":"https:\/\/central.mars.k12.wv.us\/","review":"https:\/\/www.publicschoolreview.com\/central-elementary-school-profile\/26041","virtual":"Yes"},{"title":"Central Preston Middle School","lat":"39.460189","lon":"-79.677927","type":"Traditional Public School","address":"64 Wildcat Way","grades":["Elementary","Middle"],"city":"Kingwood","state":"WV","zip":"26537","phone":"(304) 329-0033","low":"5","high":"8","students":"327","cost":"No","url":"https:\/\/preston-k12.wvnet.edu\/cpms\/","review":"https:\/\/www.publicschoolreview.com\/central-preston-middle-school-profile","virtual":"Yes"},{"title":"Ceredo - Kenova Elementary School","lat":"38.39971","lon":"-82.568148","type":"Traditional Public School","address":"1 Wonder Lane","grades":["Pre-K","Elementary"],"city":"Kenova","state":"WV","zip":"25530","phone":"(304) 453-1521","low":"PK","high":"5","students":"617","cost":"No","url":"","review":"https:\/\/www.publicschoolreview.com\/ceredo-kenova-elementary-school-profile","virtual":"Yes"},{"title":"Ceredo - Kenova Middle School","lat":"38.39186","lon":"-82.564346","type":"Traditional Public School","address":"500 High Street, P.o. Box 705","grades":["Middle"],"city":"Ceredo","state":"WV","zip":"25507","phone":"(304) 453-3588","low":"6","high":"8","students":"282","cost":"No","url":"https:\/\/ckms.wayn.k12.wv.us\/","review":"https:\/\/www.publicschoolreview.com\/ceredo-kenova-middle-school-profile","virtual":"Yes"},{"title":"Ceres Elementary School","lat":"37.334367","lon":"-81.173027","type":"Traditional Public School","address":"977 Blue Prince Road","grades":["Pre-K","Elementary"],"city":"Bluefield","state":"WV","zip":"24701","phone":"(304) 325-6786","low":"PK","high":"5","students":"303","cost":"No","url":"https:\/\/boe.merc.k12.wv.us\/","review":"https:\/\/www.publicschoolreview.com\/ceres-elementary-school-profile\/24701","virtual":"Yes"},{"title":"Chamberlain Elementary School","lat":"38.319159","lon":"-81.579811","type":"Traditional Public School","address":"4901 Venable Av S E","grades":["Elementary"],"city":"Charleston","state":"WV","zip":"25304","phone":"(304) 348-1969","low":"K","high":"5","students":"203","cost":"No","url":"https:\/\/chamberlain.kana.k12.wv.us\/","review":"https:\/\/www.publicschoolreview.com\/chamberlain-elementary-school-profile","virtual":"Yes"},{"title":"Chandler Academy","lat":"38.339334","lon":"-81.617437","type":"Specialized Public School","address":"1900 School Street","grades":["Pre-K","Elementary","Middle","High"],"city":"Charleston","state":"WV","zip":"25312","phone":"(304) 348-6133","low":"PK","high":"12","students":"158","cost":"No","url":"https:\/\/kcs.kana.k12.wv.us\/","review":"https:\/\/www.publicschoolreview.com\/chandler-academy-profile","virtual":"Yes"},{"title":"Chapmanville Intermediate School","lat":"37.976558","lon":"-82.024616","type":"Traditional Public School","address":"329 West Tiger Ln","grades":["Elementary"],"city":"Chapmanville","state":"WV","zip":"25508","phone":"(304) 855-0021","low":"2","high":"4","students":"330","cost":"No","url":"","review":"https:\/\/www.publicschoolreview.com\/chapmanville-intermediate-school-profile","virtual":"Yes"},{"title":"Chapmanville Middle School","lat":"37.975377","lon":"-82.019385","type":"Traditional Public School","address":"300 Vance Street","grades":["Elementary","Middle"],"city":"Chapmanville","state":"WV","zip":"25508","phone":"(304) 855-8378","low":"5","high":"8","students":"583","cost":"No","url":"http:\/\/www.cms.logancountyschoolswv.com\/","review":"https:\/\/www.publicschoolreview.com\/chapmanville-middle-school-profile","virtual":"Yes"},{"title":"Chapmanville Primary School","lat":"37.977544","lon":"-82.023713","type":"Traditional Public School","address":"100 West Tiger Ln","grades":["Pre-K","Elementary"],"city":"Chapmanville","state":"WV","zip":"25508","phone":"(304) 855-3209","low":"PK","high":"1","students":"261","cost":"No","url":"","review":"https:\/\/www.publicschoolreview.com\/chapmanville-primary-school-profile","virtual":"Yes"},{"title":"Chapmanville Regional High School","lat":"37.975775","lon":"-82.022008","type":"Traditional Public School","address":"200 Vance Street","grades":["High"],"city":"Chapmanville","state":"WV","zip":"25508","phone":"(304) 855-4522","low":"9","high":"12","students":"682","cost":"No","url":"http:\/\/www.crhs.logancountyschoolswv.com\/","review":"https:\/\/www.publicschoolreview.com\/chapmanville-regional-high-school-profile","virtual":"Yes"},{"title":"Charles Town Middle School","lat":"39.277704","lon":"-77.8493","type":"Traditional Public School","address":"193 High Street","grades":["Middle"],"city":"Charles Town","state":"WV","zip":"25414","phone":"(304) 725-7821","low":"6","high":"8","students":"666","cost":"No","url":"https:\/\/ctms.jeff.k12.wv.us\/","review":"https:\/\/www.publicschoolreview.com\/charles-town-middle-school-profile","virtual":"Yes"},{"title":"Charleston Catholic High School","lat":"38.34711778","lon":"-81.63369375","type":"Private School","address":"1033 Virginia St E","grades":["Middle","High"],"city":"Charleston","state":"WV","zip":"25301","phone":"(304) 342-8415","low":"6","high":"12","students":"450","cost":"Yes","url":"https:\/\/www.charlestoncatholic-crw.org\/","review":"https:\/\/www.privateschoolreview.com\/charleston-catholic-high-school-profile","virtual":"No"},{"title":"Charleston Montessori Inc.","lat":"38.368172","lon":"-81.63983","type":"Private School","address":"805 Price St","grades":["Pre-K","Elementary"],"city":"Charleston","state":"WV","zip":"25302","phone":"(304) 340-9000","low":"PK","high":"5","students":"53","cost":"Yes","url":"https:\/\/www.charlestonmontessori.com\/","review":"","virtual":"No"},{"title":"Cheat Lake Elementary School","lat":"39.653677","lon":"-79.865933","type":"Traditional Public School","address":"154 Crosby Road","grades":["Pre-K","Elementary"],"city":"Morgantown","state":"WV","zip":"26508","phone":"(304) 594-2772","low":"PK","high":"5","students":"744","cost":"No","url":"https:\/\/cles.mono.k12.wv.us:443\/9\/home","review":"https:\/\/www.publicschoolreview.com\/cheat-lake-elementary-school-profile","virtual":"Yes"},{"title":"Cherry River Elementary School","lat":"38.217094","lon":"-80.554855","type":"Traditional Public School","address":"190 Riverside Drive","grades":["Pre-K","Elementary"],"city":"Richwood","state":"WV","zip":"26261","phone":"(304) 846-6646","low":"PK","high":"5","students":"188","cost":"No","url":"https:\/\/nccre.ss8.sharpschool.com\/","review":"https:\/\/www.publicschoolreview.com\/cherry-river-elementary-school-profile","virtual":"Yes"},{"title":"Chesapeake Elementary School","lat":"38.21541","lon":"-81.526671","type":"Traditional Public School","address":"13620 Mccorkle Ave","grades":["Pre-K","Elementary"],"city":"Charleston","state":"WV","zip":"25315","phone":"(304) 949-1121","low":"PK","high":"5","students":"114","cost":"No","url":"https:\/\/chesapeake.kana.k12.wv.us\/","review":"https:\/\/www.publicschoolreview.com\/chesapeake-elementary-school-profile\/25315","virtual":"Yes"},{"title":"Chestnut Mountain Ranch","lat":"39.57788","lon":"-79.917477","type":"Private School","address":"244 Ponderosa Ponds Rd","grades":["Middle","High"],"city":"Morgantown","state":"WV","zip":"26508","phone":"(304) 241-1709","low":"7","high":"11","students":"See website","cost":"Yes","url":"https:\/\/cmrwv.org\/","review":"","virtual":"No"},{"title":"Child Development Center","lat":"38.9883091","lon":"-80.2170014","type":"Private School","address":"20 Camden Ave.","grades":["Pre-K","Elementary"],"city":"Buckhannon","state":"WV","zip":"26201","phone":"(304) 473-8348","low":"PK","high":"K","students":"99","cost":"Yes","url":"http:\/\/www.cdcofcentralwv.org","review":"https:\/\/www.privateschoolreview.com\/child-development-center-profile","virtual":"No"},{"title":"Christian Faith Academy","lat":"37.992826","lon":"-81.736985","type":"Private School","address":"93 Randy Hager Lane","grades":["Pre-K","Elementary","Middle","High"],"city":"Madison","state":"WV","zip":"25130","phone":"(304) 307-8075","low":"PK","high":"12","students":"71","cost":"Yes","url":"https:\/\/christianfaithacademysblog.wordpress.com\/","review":"","virtual":"No"},{"title":"Clay - Battelle High School","lat":"39.720066","lon":"-80.210327","type":"Traditional Public School","address":"6226 Mason Dixon Highway","grades":["Middle","High"],"city":"Blacksville","state":"WV","zip":"26521","phone":"(304) 432-8208","low":"6","high":"12","students":"364","cost":"No","url":"https:\/\/cb.mono.k12.wv.us:443\/1\/home","review":"https:\/\/www.publicschoolreview.com\/clay-battelle-high-school-profile","virtual":"Yes"},{"title":"Clay County High School","lat":"38.44562","lon":"-81.09387","type":"Traditional Public School","address":"1 Panther Drive, Po Box 729","grades":["High"],"city":"Clay","state":"WV","zip":"25043","phone":"(304) 587-4226","low":"9","high":"12","students":"523","cost":"No","url":"https:\/\/www.claycountyhighschool.org\/","review":"https:\/\/www.publicschoolreview.com\/clay-county-high-school-profile\/25043","virtual":"Yes"},{"title":"Clay Elementary School","lat":"38.460305","lon":"-81.078551","type":"Traditional Public School","address":"219 Church Street, Po Box 600","grades":["Pre-K","Elementary"],"city":"Clay","state":"WV","zip":"25043","phone":"(304) 587-4276","low":"PK","high":"5","students":"343","cost":"No","url":"http:\/\/www.clayelementaryschool.org\/","review":"https:\/\/www.publicschoolreview.com\/clay-elementary-school-profile\/25043","virtual":"Yes"},{"title":"Clay Middle School","lat":"38.465526","lon":"-81.076191","type":"Traditional Public School","address":"419 Church Street, Po Box 489","grades":["Middle"],"city":"Clay","state":"WV","zip":"25043","phone":"(304) 587-2343","low":"6","high":"8","students":"438","cost":"No","url":"http:\/\/www.claycountymiddleschool.org\/","review":"https:\/\/www.publicschoolreview.com\/clay-middle-school-profile\/25043","virtual":"Yes"},{"title":"Clear Fork District Elementary School","lat":"37.628364","lon":"-81.679407","type":"Traditional Public School","address":"4851 Clear Fork Road","grades":["Pre-K","Elementary"],"city":"Clear Creek","state":"WV","zip":"25044","phone":"(304) 854-1000","low":"PK","high":"5","students":"97","cost":"No","url":"","review":"https:\/\/www.publicschoolreview.com\/clear-fork-district-elementary-school-profile","virtual":"Yes"},{"title":"Clendenin Elementary School","lat":"38.46756","lon":"-81.399142","type":"Traditional Public School","address":"5120 Elk River Road N","grades":["Pre-K","Elementary"],"city":"Elkview","state":"WV","zip":"25071","phone":"(304) 965-5311","low":"PK","high":"5","students":"225","cost":"No","url":"","review":"https:\/\/www.publicschoolreview.com\/clendenin-elementary-school-profile\/25071","virtual":"Yes"},{"title":"Coal City Elementary School","lat":"37.69248","lon":"-81.212173","type":"Traditional Public School","address":"900 Independence Road","grades":["Pre-K","Elementary"],"city":"Coal City","state":"WV","zip":"25823","phone":"(304) 683-5001","low":"PK","high":"5","students":"333","cost":"No","url":"https:\/\/boeralecces.ss18.sharpschool.com\/","review":"https:\/\/www.publicschoolreview.com\/coal-city-elementary-school-profile\/25823","virtual":"Yes"},{"title":"Coalton Elementary School","lat":"38.896383","lon":"-79.968662","type":"Traditional Public School","address":"278 Broadway Avenue","grades":["Pre-K","Elementary"],"city":"Coalton","state":"WV","zip":"26257","phone":"(304) 636-9164","low":"PK","high":"5","students":"146","cost":"No","url":"http:\/\/coalton.rand.k12.wv.us\/","review":"https:\/\/www.publicschoolreview.com\/coalton-elementary-school-profile","virtual":"Yes"},{"title":"Confidence Elementary School","lat":"38.573386","lon":"-81.821301","type":"Traditional Public School","address":"8786 Mclane Pike","grades":["Pre-K","Elementary"],"city":"Liberty","state":"WV","zip":"25124","phone":"(304) 586-2041","low":"PK","high":"5","students":"99","cost":"No","url":"https:\/\/ces.putnamschools.com\/","review":"https:\/\/www.publicschoolreview.com\/confidence-elementary-school-profile","virtual":"Yes"},{"title":"Conner Street Elementary School","lat":"38.434923","lon":"-82.021818","type":"Traditional Public School","address":"445 Conner St","grades":["Pre-K","Elementary"],"city":"Hurricane","state":"WV","zip":"25526","phone":"(304) 562-9351","low":"PK","high":"5","students":"342","cost":"No","url":"https:\/\/cses.putnamschools.com\/","review":"https:\/\/www.publicschoolreview.com\/conner-street-elementary-school-profile","virtual":"Yes"},{"title":"Corpus Christi Elementary School","lat":"40.11702174","lon":"-80.6986","type":"Private School","address":"1512 Warwood Ave","grades":["Pre-K","Elementary","Middle"],"city":"Wheeling","state":"WV","zip":"26003","phone":"(304) 277-1220","low":"PK","high":"8","students":"134","cost":"Yes","url":"https:\/\/corpuschristiwheeling.org\/","review":"https:\/\/www.privateschoolreview.com\/corpus-christi-elementary-school-profile\/26003","virtual":"No"},{"title":"Cottageville Elementary School","lat":"38.866601","lon":"-81.82553","type":"Traditional Public School","address":"270 Second Street","grades":["Pre-K","Elementary"],"city":"Cottageville","state":"WV","zip":"25239","phone":"(304) 372-7330","low":"PK","high":"5","students":"148","cost":"No","url":"https:\/\/cottageville.jack.k12.wv.us\/","review":"https:\/\/www.publicschoolreview.com\/cottageville-elementary-school-profile\/25239","virtual":"Yes"},{"title":"Covenant Christian School","lat":"39.6974","lon":"-79.8491","type":"Private School","address":"802 Greenbag Road","grades":["Pre-K","Elementary","Middle"],"city":"Morgantown","state":"WV","zip":"26508","phone":"(304) 292-6050","low":"PK","high":"8","students":"108","cost":"Yes","url":"https:\/\/www.covenantchristianwv.org\/","review":"https:\/\/www.privateschoolreview.com\/covenant-christian-school-profile\/26508","virtual":"No"},{"title":"Covenant Promise Christian Academy","lat":"38.095325","lon":"-81.250394","type":"Private School","address":"12490 Deepwater","grades":["Elementary","Middle","High"],"city":"Robson","state":"WV","zip":"25173","phone":"(304) 779-5195","low":"K","high":"12","students":"37","cost":"Yes","url":"https:\/\/www.facebook.com\/CovenantPromiseChristianAcademy\/","review":"","virtual":"No"},{"title":"Covenant School","lat":"38.4139","lon":"-82.4094","type":"Private School","address":"2400 Johnstown Rd","grades":["Elementary","Middle","High"],"city":"Huntington","state":"WV","zip":"25701","phone":"(304) 781-6741","low":"K","high":"12","students":"173","cost":"Yes","url":"https:\/\/covenantschoolwv.org","review":"https:\/\/www.privateschoolreview.com\/covenant-school-profile","virtual":"No"},{"title":"Cox Landing Elementary School","lat":"38.473427","lon":"-82.30394","type":"Traditional Public School","address":"6358 Cox Lane","grades":["Pre-K","Elementary"],"city":"Lesage","state":"WV","zip":"25537","phone":"(304) 733-3019","low":"PK","high":"5","students":"191","cost":"No","url":"https:\/\/www.cabellschools.com\/Domain\/18","review":"https:\/\/www.publicschoolreview.com\/cox-landing-elementary-school-profile","virtual":"Yes"},{"title":"Cranberry - Prosperity Elementary School","lat":"37.825024","lon":"-81.194381","type":"Traditional Public School","address":"4575 Robert C Byrd Dr","grades":["Pre-K","Elementary"],"city":"Beckley","state":"WV","zip":"25801","phone":"(304) 256-4574","low":"PK","high":"5","students":"246","cost":"No","url":"https:\/\/boeralecpes.ss18.sharpschool.com\/","review":"https:\/\/www.publicschoolreview.com\/cranberry-prosperity-elementary-school-profile","virtual":"Yes"},{"title":"Creed Collins Elementary School","lat":"39.285675","lon":"-80.972533","type":"Traditional Public School","address":"512 Collins Avenue","grades":["Pre-K","Elementary"],"city":"Pennsboro","state":"WV","zip":"26415","phone":"(304) 659-2140","low":"PK","high":"4","students":"194","cost":"No","url":"https:\/\/www.ritchieschools.com\/creedcollinselementaryschool_home.aspx","review":"https:\/\/www.publicschoolreview.com\/creed-collins-elementary-school-profile","virtual":"Yes"},{"title":"Crescent Elementary School","lat":"37.787656","lon":"-81.210925","type":"Traditional Public School","address":"205 Crescent Road","grades":["Pre-K","Elementary"],"city":"Beckley","state":"WV","zip":"25801","phone":"(304) 256-4576","low":"PK","high":"5","students":"342","cost":"No","url":"https:\/\/ces.rale.k12.wv.us\/","review":"https:\/\/www.publicschoolreview.com\/crescent-elementary-school-profile\/25801","virtual":"Yes"},{"title":"Crichton Elementary School","lat":"38.055687","lon":"-80.712483","type":"Traditional Public School","address":"133 School Street","grades":["Pre-K","Elementary"],"city":"Quinwood","state":"WV","zip":"25981","phone":"(304) 438-6958","low":"PK","high":"5","students":"87","cost":"No","url":"https:\/\/ces.greenbriercountyschools.org\/","review":"https:\/\/www.publicschoolreview.com\/crichton-elementary-school-profile","virtual":"Yes"},{"title":"Criss Elementary School","lat":"39.270013","lon":"-81.520113","type":"Traditional Public School","address":"2800 22nd St","grades":["Pre-K","Elementary"],"city":"Parkersburg","state":"WV","zip":"26101","phone":"(304) 420-9522","low":"PK","high":"5","students":"253","cost":"No","url":"https:\/\/www.woodcountyschoolswv.com\/o\/ce","review":"https:\/\/www.publicschoolreview.com\/criss-elementary-school-profile","virtual":"Yes"},{"title":"Cross Lanes Christian School","lat":"38.4354","lon":"-81.78189244","type":"Private School","address":"5330 Floradale Drive","grades":["Elementary","Middle","High"],"city":"Charleston","state":"WV","zip":"25313","phone":"(304) 776-5020","low":"K","high":"12","students":"293","cost":"Yes","url":"http:\/\/www.crosslanes.org","review":"https:\/\/www.privateschoolreview.com\/cross-lanes-christian-school-profile","virtual":"No"},{"title":"Cross Lanes Elementary School","lat":"38.422469","lon":"-81.788772","type":"Traditional Public School","address":"5525 Big Tyler Road","grades":["Pre-K","Elementary"],"city":"Charleston","state":"WV","zip":"25313","phone":"(304) 776-2022","low":"PK","high":"5","students":"337","cost":"No","url":"https:\/\/cl.kana.k12.wv.us\/","review":"https:\/\/www.publicschoolreview.com\/cross-lanes-elementary-school-profile","virtual":"Yes"},{"title":"Crum Pre K - 8 School","lat":"37.907417","lon":"-82.449183","type":"Traditional Public School","address":"150 Crum Road","grades":["Pre-K","Elementary","Middle"],"city":"Crum","state":"WV","zip":"25669","phone":"(304) 393-3200","low":"PK","high":"8","students":"274","cost":"No","url":"","review":"https:\/\/www.publicschoolreview.com\/crum-pre-k-8-school-profile","virtual":"Yes"},{"title":"Culloden Elementary School","lat":"38.418986","lon":"-82.061054","type":"Traditional Public School","address":"2100 U.s. Route 60","grades":["Pre-K","Elementary"],"city":"Culloden","state":"WV","zip":"25510","phone":"(304) 743-7301","low":"PK","high":"5","students":"223","cost":"No","url":"https:\/\/www.cabellschools.com\/Domain\/19","review":"https:\/\/www.publicschoolreview.com\/culloden-elementary-school-profile","virtual":"Yes"},{"title":"Danese Christian School","lat":"37.9306711","lon":"-80.9031487","type":"Private School","address":"5498 Meadow Bridge Rd.","grades":["Pre-K","Elementary","Middle","High"],"city":"Danese","state":"WV","zip":"25831","phone":"(304) 438-8116","low":"PK","high":"12","students":"31","cost":"Yes","url":"https:\/\/www.aacs.org\/?school=danese-christian-school-2","review":"https:\/\/www.privateschoolreview.com\/danese-christian-school-profile","virtual":"No"},{"title":"Daniels Elementary School","lat":"37.742288","lon":"-81.10792","type":"Traditional Public School","address":"351 4-h Lake Road, 4-h Lake Ro","grades":["Pre-K","Elementary"],"city":"Daniels","state":"WV","zip":"25832","phone":"(304) 256-4622","low":"PK","high":"5","students":"532","cost":"No","url":"https:\/\/boeraledes.ss18.sharpschool.com\/","review":"https:\/\/www.publicschoolreview.com\/daniels-elementary-school-profile\/25832","virtual":"Yes"},{"title":"Davis - Stuart School","lat":"37.783121","lon":"-80.457175","type":"Specialized Public School","address":"163 Cottage Drive","grades":["Middle","High"],"city":"Lewisburg","state":"WV","zip":"24901","phone":"(304) 647-5407","low":"7","high":"11","students":"See website","cost":"No","url":"https:\/\/www.davisstuart.org\/","review":"https:\/\/www.publicschoolreview.com\/davis-stuart-school-profile","virtual":"Yes"},{"title":"Davis Creek Elementary School","lat":"38.383111","lon":"-82.333877","type":"Traditional Public School","address":"6330 Davis Creek Rd","grades":["Pre-K","Elementary"],"city":"Barboursville","state":"WV","zip":"25504","phone":"(304) 733-3024","low":"PK","high":"5","students":"217","cost":"No","url":"https:\/\/www.cabellschools.com\/Domain\/20","review":"https:\/\/www.publicschoolreview.com\/davis-creek-elementary-school-profile","virtual":"Yes"},{"title":"Davis Elementary School","lat":"38.671671","lon":"-80.774394","type":"Traditional Public School","address":"113 Fifth Street","grades":["Pre-K","Elementary"],"city":"Gassaway","state":"WV","zip":"26624","phone":"(304) 364-5291","low":"PK","high":"5","students":"172","cost":"No","url":"https:\/\/davis.brax.k12.wv.us\/","review":"https:\/\/www.publicschoolreview.com\/davis-elementary-school-profile\/26624","virtual":"Yes"},{"title":"Davis Thomas Elementary Middle School","lat":"39.145092","lon":"-79.493337","type":"Traditional Public School","address":"426 Second Street, Po Box 250","grades":["Pre-K","Elementary","Middle"],"city":"Thomas","state":"WV","zip":"26292","phone":"(304) 463-4422","low":"PK","high":"8","students":"180","cost":"No","url":"https:\/\/sites.google.com\/site\/davisthomasbears\/home","review":"https:\/\/www.publicschoolreview.com\/davis-thomas-elementary-middle-school-profile","virtual":"Yes"},{"title":"Dingess Elementary School","lat":"37.873021","lon":"-82.176237","type":"Traditional Public School","address":"495 Messenger Branch","grades":["Pre-K","Elementary"],"city":"Dingess","state":"WV","zip":"25671","phone":"(304) 752-7036","low":"PK","high":"5","students":"166","cost":"No","url":"","review":"https:\/\/www.publicschoolreview.com\/dingess-elementary-school-profile","virtual":"Yes"},{"title":"Divide Elementary School","lat":"38.066003","lon":"-80.962839","type":"Traditional Public School","address":"Propps Ridge Road","grades":["Pre-K","Elementary"],"city":"Lookout","state":"WV","zip":"25868","phone":"(304) 574-1443","low":"PK","high":"5","students":"210","cost":"No","url":"","review":"https:\/\/www.publicschoolreview.com\/divide-elementary-school-profile\/25868","virtual":"Yes"},{"title":"Doddridge County Elementary School","lat":"39.299333","lon":"-80.776577","type":"Traditional Public School","address":"182 Doddridge County School Rd","grades":["Elementary"],"city":"West Union","state":"WV","zip":"26456","phone":"(304) 873-3294","low":"K","high":"4","students":"374","cost":"No","url":"https:\/\/www.dcschools.us\/doddridgecountyelementaryschool_home.aspx","review":"https:\/\/www.publicschoolreview.com\/doddridge-county-elementary-school-profile","virtual":"Yes"},{"title":"Doddridge County High School","lat":"39.291894","lon":"-80.773854","type":"Traditional Public School","address":"79 Bulldog Drive","grades":["High"],"city":"West Union","state":"WV","zip":"26456","phone":"(304) 873-2521","low":"9","high":"12","students":"322","cost":"No","url":"https:\/\/www.dcschools.us\/doddridgecountyhighschool_home.aspx","review":"https:\/\/www.publicschoolreview.com\/doddridge-county-high-school-profile","virtual":"Yes"},{"title":"Doddridge County Middle School","lat":"39.29647","lon":"-80.77705","type":"Traditional Public School","address":"65 Doddridge County School Rd","grades":["Elementary","Middle"],"city":"West Union","state":"WV","zip":"26456","phone":"(304) 873-2390","low":"5","high":"8","students":"340","cost":"No","url":"https:\/\/www.dcschools.us\/doddridgecountymiddleschool_home.aspx","review":"https:\/\/www.publicschoolreview.com\/doddridge-county-middle-school-profile","virtual":"Yes"},{"title":"Doddridge County Preschool Center","lat":"39.2964723","lon":"-80.777049","type":"Traditional Public School","address":"2945 Smithton Road","grades":["Pre-K"],"city":"West Union","state":"WV","zip":"26456","phone":"(304) 873-3955","low":"PK","high":"PK","students":"66","cost":"No","url":"https:\/\/www.dcschools.us\/doddridgecountypreschool_home.aspx","review":"https:\/\/www.publicschoolreview.com\/doddridge-county-preschool-center-profile","virtual":"Yes"},{"title":"Donald R. Kuhn Juvenile Center","lat":"38.130363","lon":"-81.831583","type":"Specialized Public School","address":"1 Lory Place","grades":["High"],"city":"Julian","state":"WV","zip":"25529","phone":"(304) 369-2987","low":"9","high":"12","students":"14","cost":"No","url":"https:\/\/dcr.wv.gov\/facilities\/Pages\/juvenile-centers-and-facilities\/donald-r-kuhn-juvenile-center.aspx","review":"https:\/\/www.publicschoolreview.com\/donald-r-kuhn-juvenile-center-profile","virtual":"Yes"},{"title":"Driswood Elementary School","lat":"39.343515","lon":"-77.815875","type":"Traditional Public School","address":"75 Caspian Way","grades":["Pre-K","Elementary"],"city":"Shenandoah Junction","state":"WV","zip":"25442","phone":"(304) 885-5020","low":"PK","high":"5","students":"401","cost":"No","url":"https:\/\/des.jeff.k12.wv.us\/","review":"https:\/\/www.publicschoolreview.com\/driswood-elementary-school-profile","virtual":"Yes"},{"title":"Du Pont Middle School","lat":"38.269074","lon":"-81.567592","type":"Traditional Public School","address":"1 Panther Way","grades":["Middle"],"city":"Belle","state":"WV","zip":"25015","phone":"(304) 348-1978","low":"6","high":"8","students":"332","cost":"No","url":"https:\/\/dupont.kana.k12.wv.us\/","review":"https:\/\/www.publicschoolreview.com\/du-pont-middle-school-profile","virtual":"Yes"},{"title":"Dunbar Intermediate Center","lat":"38.358908","lon":"-81.742344","type":"Traditional Public School","address":"1330 Myers Avenue","grades":["Elementary"],"city":"Dunbar","state":"WV","zip":"25064","phone":"(304) 766-1570","low":"3","high":"5","students":"262","cost":"No","url":"https:\/\/di.kana.k12.wv.us\/","review":"https:\/\/www.publicschoolreview.com\/dunbar-intermediate-center-profile","virtual":"Yes"},{"title":"Dunbar Middle School","lat":"38.364643","lon":"-81.755822","type":"Traditional Public School","address":"325 27th Street","grades":["Middle"],"city":"Dunbar","state":"WV","zip":"25064","phone":"(304) 766-0363","low":"6","high":"8","students":"357","cost":"No","url":"https:\/\/www.dms.com\/en\/home\/","review":"https:\/\/www.publicschoolreview.com\/dunbar-middle-school-profile\/25064","virtual":"Yes"},{"title":"Dunbar Primary Center","lat":"38.362304","lon":"-81.753977","type":"Traditional Public School","address":"2401 Myers Avenue","grades":["Pre-K","Elementary"],"city":"Dunbar","state":"WV","zip":"25064","phone":"(304) 766-0367","low":"PK","high":"2","students":"263","cost":"No","url":"https:\/\/dp.kana.k12.wv.us\/","review":"https:\/\/www.publicschoolreview.com\/dunbar-primary-center-profile","virtual":"Yes"},{"title":"Dunlow Elementary School","lat":"38.027515","lon":"-82.433216","type":"Traditional Public School","address":"32800 Route 152","grades":["Pre-K","Elementary"],"city":"Dunlow","state":"WV","zip":"25511","phone":"(304) 385-4376","low":"PK","high":"5","students":"82","cost":"No","url":"https:\/\/dunlow.wayn.k12.wv.us\/","review":"https:\/\/www.publicschoolreview.com\/dunlow-elementary-school-profile","virtual":"Yes"},{"title":"Duval Pk - 8","lat":"38.2389","lon":"-81.9899","type":"Traditional Public School","address":"5304 Straight Fork Road","grades":["Pre-K","Elementary","Middle"],"city":"Griffithsville","state":"WV","zip":"25521","phone":"(304) 524-2101","low":"PK","high":"8","students":"439","cost":"No","url":"https:\/\/www.duvalyellowjackets.net\/","review":"https:\/\/www.publicschoolreview.com\/duval-pk-8-profile","virtual":"Yes"},{"title":"Eagle School Intermediate","lat":"39.481088","lon":"-77.943072","type":"Traditional Public School","address":"730 Eagle School Road","grades":["Elementary"],"city":"Martinsburg","state":"WV","zip":"25404","phone":"(304) 263-0422","low":"3","high":"5","students":"711","cost":"No","url":"https:\/\/www.berkeleycountyschools.org\/eagleschool","review":"https:\/\/www.publicschoolreview.com\/eagle-school-intermediate-profile","virtual":"Yes"},{"title":"East Bank Middle School","lat":"38.214172","lon":"-81.45028","type":"Traditional Public School","address":"1st Ave And Brannon Street","grades":["Middle"],"city":"East Bank","state":"WV","zip":"25067","phone":"(304) 595-2311","low":"6","high":"8","students":"341","cost":"No","url":"https:\/\/sites.google.com\/a\/mail.kana.k12.wv.us\/ebms\/","review":"https:\/\/www.publicschoolreview.com\/east-bank-middle-school-profile","virtual":"Yes"},{"title":"East Dale Elementary School","lat":"39.493436","lon":"-80.095488","type":"Traditional Public School","address":"57 E. Dale Rd","grades":["Pre-K","Elementary"],"city":"Fairmont","state":"WV","zip":"26554","phone":"(304) 367-2132","low":"PK","high":"4","students":"405","cost":"No","url":"http:\/\/eastdale.marionboe.com\/","review":"https:\/\/www.publicschoolreview.com\/east-dale-elementary-school-profile","virtual":"Yes"},{"title":"East Fairmont High School","lat":"39.443792","lon":"-80.169403","type":"Traditional Public School","address":"1993 Airport Road","grades":["High"],"city":"Fairmont","state":"WV","zip":"26554","phone":"(304) 367-2140","low":"9","high":"12","students":"724","cost":"No","url":"http:\/\/efhs.marionboe.com\/","review":"https:\/\/www.publicschoolreview.com\/east-fairmont-high-school-profile","virtual":"Yes"},{"title":"East Fairmont Middle School","lat":"39.480766","lon":"-80.132843","type":"Traditional Public School","address":"221 Mason Street","grades":["Elementary","Middle"],"city":"Fairmont","state":"WV","zip":"26554","phone":"(304) 367-2123","low":"5","high":"8","students":"738","cost":"No","url":"","review":"https:\/\/www.publicschoolreview.com\/east-fairmont-middle-school-profile","virtual":"Yes"},{"title":"East Hardy Early\/Middle School","lat":"39.048016","lon":"-78.759233","type":"Traditional Public School","address":"238 Cougar Drive","grades":["Pre-K","Elementary","Middle"],"city":"Baker","state":"WV","zip":"26801","phone":"(304) 897-5970","low":"PK","high":"8","students":"454","cost":"No","url":"https:\/\/www.hardycountyschools.com\/o\/east-hardy-ems\/page\/contact","review":"https:\/\/www.publicschoolreview.com\/east-hardy-early-middle-school-profile","virtual":"Yes"},{"title":"East Hardy High School","lat":"39.047367","lon":"-78.76065","type":"Traditional Public School","address":"259 Cougar Drive","grades":["High"],"city":"Baker","state":"WV","zip":"26801","phone":"(304) 897-5948","low":"9","high":"12","students":"224","cost":"No","url":"https:\/\/www.hardycountyschools.com\/o\/east-hardy-hs","review":"https:\/\/www.publicschoolreview.com\/east-hardy-high-school-profile","virtual":"Yes"},{"title":"East Lynn Elementary School","lat":"38.154296","lon":"-82.280157","type":"Traditional Public School","address":"19594 East Lynn Road","grades":["Pre-K","Elementary"],"city":"East Lynn","state":"WV","zip":"25512","phone":"(304) 849-3171","low":"PK","high":"5","students":"127","cost":"No","url":"https:\/\/eastlynn.wayn.k12.wv.us\/","review":"https:\/\/www.publicschoolreview.com\/east-lynn-elementary-school-profile","virtual":"Yes"},{"title":"East Park Elementary School","lat":"39.481727","lon":"-80.122488","type":"Traditional Public School","address":"1025 Fairfax Street","grades":["Pre-K","Elementary"],"city":"Fairmont","state":"WV","zip":"26554","phone":"(304) 367-2134","low":"PK","high":"4","students":"335","cost":"No","url":"https:\/\/wvde.state.wv.us\/ed_directory\/?county_id=47&school_id=206","review":"https:\/\/www.publicschoolreview.com\/east-park-elementary-school-profile","virtual":"Yes"},{"title":"Eastbrook Elementary School","lat":"38.46927","lon":"-81.86192","type":"Traditional Public School","address":"2092 Bills Creek Rd","grades":["Pre-K","Elementary"],"city":"Winfield","state":"WV","zip":"25213","phone":"(304) 755-9835","low":"PK","high":"5","students":"239","cost":"No","url":"https:\/\/ees.putnamschools.com\/","review":"https:\/\/www.publicschoolreview.com\/eastbrook-elementary-school-profile\/25213","virtual":"Yes"},{"title":"Eastern Greenbrier Middle School","lat":"37.777054","lon":"-80.465123","type":"Traditional Public School","address":"403 Knight Drive","grades":["Middle"],"city":"Ronceverte","state":"WV","zip":"24970","phone":"(304) 647-6498","low":"6","high":"8","students":"818","cost":"No","url":"https:\/\/egms.greenbriercountyschools.org\/","review":"https:\/\/www.publicschoolreview.com\/eastern-greenbrier-middle-school-profile","virtual":"Yes"},{"title":"Eastwood Elementary School","lat":"39.6256014","lon":"-79.959273","type":"Traditional Public School","address":"677 201st Memorial Hwy","grades":["Pre-K","Elementary"],"city":"Morgantown","state":"WV","zip":"26505","phone":"(304) 284-8226","low":"PK","high":"5","students":"568","cost":"No","url":"https:\/\/boe.mono.k12.wv.us:443\/","review":"https:\/\/www.publicschoolreview.com\/eastwood-elementary-school-profile\/26505","virtual":"Yes"},{"title":"Edgewood Elementary School","lat":"38.3773","lon":"-81.6356","type":"Traditional Public School","address":"550 Hawks Ridge","grades":["Pre-K","Elementary"],"city":"Charleston","state":"WV","zip":"25302","phone":"(304) 348-6635","low":"PK","high":"5","students":"386","cost":"No","url":"https:\/\/edgewood.kana.k12.wv.us\/","review":"https:\/\/www.publicschoolreview.com\/edgewood-elementary-school-profile\/25302","virtual":"Yes"},{"title":"Edison Middle School","lat":"39.233266","lon":"-81.531327","type":"Traditional Public School","address":"1201 Hillcrest St","grades":["Middle"],"city":"Parkersburg","state":"WV","zip":"26101","phone":"(304) 420-9525","low":"6","high":"8","students":"620","cost":"No","url":"https:\/\/www.woodcountyschoolswv.com\/o\/em","review":"https:\/\/www.publicschoolreview.com\/edison-middle-school-profile\/26101","virtual":"Yes"},{"title":"Elk Elementary Center","lat":"38.39629","lon":"-81.566533","type":"Traditional Public School","address":"3320 Pennsylvania Ave","grades":["Pre-K","Elementary"],"city":"Charleston","state":"WV","zip":"25302","phone":"(304) 348-7776","low":"PK","high":"5","students":"513","cost":"No","url":"https:\/\/elk.kana.k12.wv.us\/","review":"https:\/\/www.publicschoolreview.com\/elk-elementary-center-profile","virtual":"Yes"},{"title":"Elk Garden School","lat":"39.38068","lon":"-79.152192","type":"Traditional Public School","address":"86 Elk Garden Highway","grades":["Pre-K","Elementary"],"city":"Elk Garden","state":"WV","zip":"26717","phone":"(304) 446-5141","low":"PK","high":"4","students":"77","cost":"No","url":"https:\/\/child-care-preschool.brighthorizons.com\/il\/chicago\/detour-2-discovery","review":"https:\/\/www.publicschoolreview.com\/elk-garden-school-profile","virtual":"Yes"},{"title":"Elk Valley Christian School","lat":"38.444029","lon":"-81.473932","type":"Private School","address":"58 Mt Pleasant Dr","grades":["Pre-K","Elementary","Middle","High"],"city":"Elkview","state":"WV","zip":"25071","phone":"(304) 965-7063","low":"PK","high":"12","students":"141","cost":"Yes","url":"","review":"https:\/\/www.privateschoolreview.com\/elk-valley-christian-school-profile","virtual":"No"},{"title":"Elkins Christian Academy","lat":"38.9255","lon":"-79.8491","type":"Private School","address":"14 Brookside Drive","grades":["Pre-K","Elementary","Middle","High"],"city":"Elkins","state":"WV","zip":"26241","phone":"(304) 591-4554","low":"PK","high":"12","students":"69","cost":"Yes","url":"http:\/\/www.privateschoolreview.com\/elkins-christian-academy-profile, THIS IS THE WEBSITE THAT THEY USE FOR THOSE WHO ASK THEIR WEBSITE","review":"https:\/\/www.privateschoolreview.com\/elkins-christian-academy-profile","virtual":"No"},{"title":"Elkins High School","lat":"38.943202","lon":"-79.853647","type":"Traditional Public School","address":"100 Kennedy Drive","grades":["High"],"city":"Elkins","state":"WV","zip":"26241","phone":"(304) 636-9170","low":"9","high":"12","students":"795","cost":"No","url":"http:\/\/ehs.rand.k12.wv.us\/","review":"https:\/\/www.publicschoolreview.com\/elkins-high-school-profile\/26241","virtual":"Yes"},{"title":"Elkins Middle School","lat":"38.927909","lon":"-79.862219","type":"Traditional Public School","address":"308 Robert E. Lee Avenue","grades":["Middle"],"city":"Elkins","state":"WV","zip":"26241","phone":"(304) 636-9176","low":"6","high":"8","students":"623","cost":"No","url":"http:\/\/ems.rand.k12.wv.us\/","review":"https:\/\/www.publicschoolreview.com\/elkins-middle-school-profile\/26241","virtual":"Yes"},{"title":"Elkins Mountain School","lat":"38.923592","lon":"-79.835956","type":"Specialized Public School","address":"100 Bell Street","grades":["Middle","High"],"city":"Elkins","state":"WV","zip":"26241","phone":"(304) 637-0313","low":"7","high":"12","students":"36","cost":"No","url":"https:\/\/emtns.org\/","review":"https:\/\/www.publicschoolreview.com\/elkins-mountain-school-profile","virtual":"Yes"},{"title":"Elkins Third Ward Elementary School","lat":"38.932305","lon":"-79.86718","type":"Traditional Public School","address":"111 Nathan Street","grades":["Pre-K","Elementary"],"city":"Elkins","state":"WV","zip":"26241","phone":"(304) 636-9183","low":"PK","high":"5","students":"296","cost":"No","url":"http:\/\/thirdward.rand.k12.wv.us\/","review":"https:\/\/www.publicschoolreview.com\/elkins-third-ward-elementary-school-profile","virtual":"Yes"},{"title":"Elkview Middle School","lat":"38.450276","lon":"-81.458459","type":"Traditional Public School","address":"5090 N Elk River Rd","grades":["Middle"],"city":"Elkview","state":"WV","zip":"25071","phone":"(304) 348-1947","low":"6","high":"8","students":"601","cost":"No","url":"https:\/\/sites.google.com\/a\/mail.kana.k12.wv.us\/elkview-middle-school\/","review":"https:\/\/www.publicschoolreview.com\/elkview-middle-school-profile","virtual":"Yes"},{"title":"Elm Grove Elementary School","lat":"40.030226","lon":"-80.651815","type":"Traditional Public School","address":"85 Mil Acres Dr","grades":["Pre-K","Elementary"],"city":"Wheeling","state":"WV","zip":"26003","phone":"(304) 243-0363","low":"PK","high":"5","students":"351","cost":"No","url":"https:\/\/elmgrove.ohio.k12.wv.us\/","review":"https:\/\/www.publicschoolreview.com\/elm-grove-elementary-school-profile\/26003","virtual":"Yes"},{"title":"Elmira Baptist Christian Academy","lat":"38.5834322","lon":"-80.9367712","type":"Private School","address":"6486 Servia Elmira Rd","grades":["Pre-K","Elementary","Middle","High"],"city":"Duck","state":"WV","zip":"25063","phone":"(304) 364-9011","low":"NS","high":"12","students":"12","cost":"Yes","url":"https:\/\/www.elmirabaptistchurch.com\/","review":"https:\/\/www.privateschoolreview.com\/elmira-baptist-christian-academy-profile","virtual":"No"},{"title":"Emerson Elementary School","lat":"39.287309","lon":"-81.529075","type":"Traditional Public School","address":"1605 36th St","grades":["Pre-K","Elementary"],"city":"Parkersburg","state":"WV","zip":"26101","phone":"(304) 420-9528","low":"PK","high":"5","students":"417","cost":"No","url":"https:\/\/www.woodcountyschoolswv.com\/o\/ee","review":"https:\/\/www.publicschoolreview.com\/emerson-elementary-school-profile\/26101","virtual":"Yes"},{"title":"Emmanuel Christian School","lat":"39.29225923","lon":"-80.34644077","type":"Private School","address":"1318 N 16th St","grades":["Pre-K","Elementary","Middle","High"],"city":"Clarksburg","state":"WV","zip":"26301","phone":"(304) 624-6125","low":"PK","high":"12","students":"105","cost":"Yes","url":"https:\/\/school.emmanuelclarksburg.com\/","review":"https:\/\/www.privateschoolreview.com\/emmanuel-christian-school-profile\/26301","virtual":"No"},{"title":"Evans Elementary School","lat":"38.821361","lon":"-81.781323","type":"Traditional Public School","address":"205 School House Drive","grades":["Pre-K","Elementary"],"city":"Evans","state":"WV","zip":"25241","phone":"(304) 372-7333","low":"PK","high":"5","students":"143","cost":"No","url":"https:\/\/evans.jack.k12.wv.us\/","review":"https:\/\/www.publicschoolreview.com\/evans-elementary-school-profile\/25241","virtual":"Yes"},{"title":"Explorer Academy","lat":"38.4031628","lon":"-82.3871531","type":"Traditional Public School","address":"2901 Saltwell Road","grades":["Pre-K","Elementary"],"city":"Huntington","state":"WV","zip":"25705","phone":"(304) 528-5126","low":"PK","high":"5","students":"475","cost":"No","url":"","review":"https:\/\/www.publicschoolreview.com\/explorer-academy-profile\/25705","virtual":"Yes"},{"title":"Fairdale Elementary School","lat":"37.779734","lon":"-81.370233","type":"Traditional Public School","address":"772 Bolt Road","grades":["Pre-K","Elementary"],"city":"Fairdale","state":"WV","zip":"25839","phone":"(304) 934-7217","low":"PK","high":"5","students":"377","cost":"No","url":"https:\/\/fes.rale.k12.wv.us\/","review":"https:\/\/www.publicschoolreview.com\/fairdale-elementary-school-profile\/25839","virtual":"Yes"},{"title":"Fairmont Catholic Grade School","lat":"39.484989","lon":"-80.141397","type":"Private School","address":"416 Madison St","grades":["Elementary","Middle"],"city":"Fairmont","state":"WV","zip":"26554","phone":"(304) 363-5313","low":"K","high":"8","students":"147","cost":"Yes","url":"https:\/\/fairmontcatholic.com\/","review":"https:\/\/www.privateschoolreview.com\/fairmont-catholic-grade-school-profile","virtual":"No"},{"title":"Fairmont Senior High School","lat":"39.478413","lon":"-80.157452","type":"Traditional Public School","address":"1 Loop Park Drive","grades":["High"],"city":"Fairmont","state":"WV","zip":"26554","phone":"(304) 367-2150","low":"9","high":"12","students":"797","cost":"No","url":"http:\/\/fshs.marionboe.com\/","review":"https:\/\/www.publicschoolreview.com\/fairmont-senior-high-school-profile","virtual":"Yes"},{"title":"Fairplain Elementary School","lat":"38.815222","lon":"-81.700007","type":"Traditional Public School","address":"51 Panther Drive","grades":["Pre-K","Elementary"],"city":"Ripley","state":"WV","zip":"25271","phone":"(304) 372-7340","low":"PK","high":"5","students":"179","cost":"No","url":"https:\/\/fairplain.jack.k12.wv.us\/","review":"https:\/\/www.publicschoolreview.com\/fairplain-elementary-school-profile","virtual":"Yes"},{"title":"Fairplains Elementary School","lat":"39.24471","lon":"-81.531597","type":"Traditional Public School","address":"615 Broadway Ave","grades":["Pre-K","Elementary"],"city":"Parkersburg","state":"WV","zip":"26101","phone":"(304) 420-9531","low":"PK","high":"5","students":"207","cost":"No","url":"https:\/\/www.woodcountyschoolswv.com\/o\/fe","review":"https:\/\/www.publicschoolreview.com\/fairplains-elementary-school-profile","virtual":"Yes"},{"title":"Fairview Elementary School","lat":"39.593383","lon":"-80.247446","type":"Traditional Public School","address":"100 School Street","grades":["Pre-K","Elementary"],"city":"Fairview","state":"WV","zip":"26570","phone":"(304) 449-1752","low":"PK","high":"3","students":"139","cost":"No","url":"","review":"https:\/\/www.publicschoolreview.com\/fairview-elementary-school-profile\/26570","virtual":"Yes"},