[{"title":"4 - J Elementary School","lat":"43.960266","lon":"-105.734846","type":"Traditional Public School","address":"2830 Highway 50a","grades":["Elementary","Middle"],"city":"Gillette","state":"WY","zip":"82717","phone":"(307) 682-3076","low":"K","high":"6","students":"37","cost":"No","url":"https:\/\/sites.google.com\/a\/ccsd1schools.net\/4-j-elementary\/","review":"https:\/\/www.publicschoolreview.com\/4-j-elementary-school-profile","virtual":"No"},{"title":"Afflerbach Elementary School","lat":"41.087916","lon":"-104.803721","type":"Traditional Public School","address":"400 West Wallick Road","grades":["Pre-K","Elementary","Middle"],"city":"Cheyenne","state":"WY","zip":"82007","phone":"(307) 771-2300","low":"PK","high":"6","students":"396","cost":"No","url":"https:\/\/afflerbach.laramie1.org\/","review":"https:\/\/www.publicschoolreview.com\/afflerbach-elementary-school-profile","virtual":"No"},{"title":"Afton Elementary School","lat":"42.725319","lon":"-110.928578","type":"Traditional Public School","address":"333 East 1st Avenue","grades":["Pre-K","Elementary"],"city":"Afton","state":"WY","zip":"83110","phone":"(307) 885-8002","low":"PK","high":"3","students":"403","cost":"No","url":"https:\/\/afton.lcsd2.org\/","review":"https:\/\/www.publicschoolreview.com\/afton-elementary-school-profile\/83110","virtual":"No"},{"title":"Albin Elementary School","lat":"41.41662","lon":"-104.102624","type":"Traditional Public School","address":"426 5th Avenue","grades":["Elementary","Middle"],"city":"Albin","state":"WY","zip":"82050","phone":"(307) 245-4090","low":"K","high":"6","students":"70","cost":"No","url":"https:\/\/www.laramie2.org:443\/2\/Profile","review":"https:\/\/www.publicschoolreview.com\/albin-elementary-school-profile","virtual":"No"},{"title":"Alcova Elementary School","lat":"42.549479","lon":"-106.715483","type":"Traditional Public School","address":"22000 Reclamation Drive","grades":["Elementary"],"city":"Alcova","state":"WY","zip":"82620","phone":"(307) 472-2079","low":"K","high":"5","students":"See website","cost":"No","url":"","review":"https:\/\/www.publicschoolreview.com\/alcova-elementary-school-profile","virtual":"No"},{"title":"Alta Elementary School","lat":"43.755564","lon":"-111.034912","type":"Traditional Public School","address":"15 Alta School Road","grades":["Elementary"],"city":"Alta","state":"WY","zip":"83414","phone":"(307) 353-2472","low":"K","high":"5","students":"36","cost":"No","url":"https:\/\/www.tcsd.org:443\/4\/Home","review":"https:\/\/www.publicschoolreview.com\/alta-elementary-school-profile\/83414","virtual":"No"},{"title":"Alta Vista Elementary School","lat":"41.139118","lon":"-104.79833","type":"Traditional Public School","address":"1514 East 16th Street","grades":["Pre-K","Elementary","Middle"],"city":"Cheyenne","state":"WY","zip":"82001","phone":"(307) 771-2310","low":"PK","high":"6","students":"263","cost":"No","url":"https:\/\/altavista.laramie1.org\/","review":"https:\/\/www.publicschoolreview.com\/alta-vista-elementary-school-profile\/82001","virtual":"No"},{"title":"Anderson Elementary School","lat":"41.168787","lon":"-104.788481","type":"Traditional Public School","address":"2204 Plain View Road","grades":["Elementary"],"city":"Cheyenne","state":"WY","zip":"82009","phone":"(307) 771-2606","low":"K","high":"4","students":"272","cost":"No","url":"https:\/\/anderson.laramie1.org\/","review":"https:\/\/www.publicschoolreview.com\/anderson-elementary-school-profile\/82009","virtual":"No"},{"title":"Arapahoe Charter High School","lat":"43.026482","lon":"-108.521836","type":"Public Charter School","address":"445 Little Wind River Bottom R","grades":["High"],"city":"Arapahoe","state":"WY","zip":"82510","phone":"(307) 856-3862","low":"9","high":"12","students":"32","cost":"No","url":"http:\/\/www.whsaa.org\/directory\/directorypage.asp?SCHID=1","review":"https:\/\/www.publicschoolreview.com\/arapahoe-charter-high-school-profile","virtual":"No"},{"title":"Arapahoe Elementary School","lat":"42.980973","lon":"-108.558009","type":"Traditional Public School","address":"445 Little Wind River Bottom R","grades":["Pre-K","Elementary","Middle"],"city":"Arapahoe","state":"WY","zip":"82510","phone":"(307) 856-9333","low":"PK","high":"8","students":"410","cost":"No","url":"https:\/\/www.fcsd38.org\/","review":"https:\/\/www.publicschoolreview.com\/arapahoe-elementary-school-profile\/82510","virtual":"No"},{"title":"Arp Elementary School","lat":"41.110602","lon":"-104.787197","type":"Traditional Public School","address":"1216 Reiner Court","grades":["Pre-K","Elementary","Middle"],"city":"Cheyenne","state":"WY","zip":"82007","phone":"(307) 771-2365","low":"PK","high":"6","students":"327","cost":"No","url":"https:\/\/arp.laramie1.org\/","review":"https:\/\/www.publicschoolreview.com\/arp-elementary-school-profile\/82007","virtual":"No"},{"title":"Ashgrove Elementary School","lat":"43.029046","lon":"-108.390729","type":"Traditional Public School","address":"510 North First Street","grades":["Elementary"],"city":"Riverton","state":"WY","zip":"82501","phone":"(307) 856-2626","low":"1","high":"3","students":"155","cost":"No","url":"http:\/\/www.fremont25.k12.wy.us\/","review":"https:\/\/www.publicschoolreview.com\/ashgrove-elementary-school-profile","virtual":"No"},{"title":"Aspen Early Learning Center","lat":"43.034438","lon":"-108.372591","type":"Traditional Public School","address":"1620 East Sunset Avenue","grades":["Pre-K","Elementary"],"city":"Riverton","state":"WY","zip":"82501","phone":"(307) 856-2625","low":"PK","high":"K","students":"204","cost":"No","url":"http:\/\/www.fremont25.k12.wy.us\/schools\/aspenpark\/index.html","review":"https:\/\/www.publicschoolreview.com\/aspen-early-learning-center-profile","virtual":"No"},{"title":"Aspen Elementary School","lat":"41.252918","lon":"-110.947576","type":"Traditional Public School","address":"225 Broken Circle Drive","grades":["Elementary"],"city":"Evanston","state":"WY","zip":"82931","phone":"(307) 789-3106","low":"K","high":"5","students":"254","cost":"No","url":"https:\/\/aes.uinta1.com\/","review":"https:\/\/www.publicschoolreview.com\/aspen-elementary-school-profile\/82931","virtual":"No"},{"title":"Baggs Elementary School","lat":"41.147448","lon":"-104.764746","type":"Traditional Public School","address":"3705 Cheyenne Street","grades":["Pre-K","Elementary","Middle"],"city":"Cheyenne","state":"WY","zip":"82001","phone":"(307) 771-2385","low":"PK","high":"6","students":"336","cost":"No","url":"https:\/\/baggs.laramie1.org\/","review":"https:\/\/www.publicschoolreview.com\/baggs-elementary-school-profile","virtual":"No"},{"title":"Bain Elementary School","lat":"41.133878","lon":"-104.759984","type":"Traditional Public School","address":"903 Adams Avenue","grades":["Elementary","Middle"],"city":"Cheyenne","state":"WY","zip":"82001","phone":"(307) 771-2525","low":"K","high":"6","students":"237","cost":"No","url":"https:\/\/bain.laramie1.org\/","review":"https:\/\/www.publicschoolreview.com\/bain-elementary-school-profile\/82001","virtual":"No"},{"title":"Baldwin Creek Elementary School","lat":"42.837795","lon":"-108.748174","type":"Traditional Public School","address":"350 Smith Street","grades":["Elementary"],"city":"Lander","state":"WY","zip":"82520","phone":"(307) 332-6967","low":"4","high":"5","students":"253","cost":"No","url":"https:\/\/www.landerschools.org\/Baldwin-Creek","review":"https:\/\/www.publicschoolreview.com\/baldwin-creek-elementary-school-profile","virtual":"No"},{"title":"Bar Nunn Elementary School","lat":"42.914531","lon":"-106.351288","type":"Traditional Public School","address":"2050 Siebke Drive","grades":["Pre-K","Elementary"],"city":"Casper","state":"WY","zip":"82601","phone":"(307) 253-4000","low":"PK","high":"5","students":"362","cost":"No","url":"https:\/\/sites.google.com\/myncsd.org\/bar-nunn-elementary","review":"https:\/\/www.publicschoolreview.com\/bar-nunn-elementary-school-profile","virtual":"No"},{"title":"Beitel Elementary School","lat":"41.306046","lon":"-105.575273","type":"Traditional Public School","address":"811 South 17th Street","grades":["Elementary"],"city":"Laramie","state":"WY","zip":"82070","phone":"(307) 721-4436","low":"K","high":"5","students":"207","cost":"No","url":"https:\/\/www.acsd1.org\/bes\/","review":"https:\/\/www.publicschoolreview.com\/beitel-elementary-school-profile","virtual":"No"},{"title":"Big Horn Basin Children's Center","lat":"43.6474657","lon":"-108.1976615","type":"Traditional Public School","address":"250 E. Arapahoe","grades":["Elementary","Middle"],"city":"Thermopolis","state":"WY","zip":"82443","phone":"(307) 864-2171","low":"K","high":"8","students":"See website","cost":"No","url":"http:\/\/www.nwboces.com\/","review":"https:\/\/www.publicschoolreview.com\/big-horn-basin-children-s-center-profile","virtual":"No"},{"title":"Big Horn Basin Children's Center","lat":"43.8385","lon":"-108.4671","type":"Private School","address":"250 E. Arapahoe","grades":["Elementary","Middle"],"city":"Thermopolis","state":"WY","zip":"82443","phone":"(307) 864-2171","low":"1","high":"8","students":"See website","cost":"Yes","url":"http:\/\/www.nwboces.com\/","review":"https:\/\/www.privateschoolreview.com\/big-horn-basin-children-s-center-profile","virtual":"No"},{"title":"Big Horn Christian Elementary School","lat":"44.3483072","lon":"-106.6989375","type":"Private School","address":"201 Aspen Dr","grades":["Middle"],"city":"Buffalo","state":"WY","zip":"82834","phone":"(307) 684-9062","low":"7","high":"7","students":"See website","cost":"Yes","url":"","review":"https:\/\/www.privateschoolreview.com\/big-horn-christian-elementary-school-profile","virtual":"No"},{"title":"Big Horn Elementary School","lat":"44.681457","lon":"-106.996105","type":"Traditional Public School","address":"333 Us Highway 335","grades":["Elementary"],"city":"Big Horn","state":"WY","zip":"82833","phone":"(307) 672-3497","low":"K","high":"5","students":"225","cost":"No","url":"https:\/\/www.sheridan.k12.wy.us\/o\/bhe","review":"https:\/\/www.publicschoolreview.com\/big-horn-elementary-school-profile","virtual":"No"},{"title":"Big Horn High School","lat":"44.681443","lon":"-106.996114","type":"Traditional Public School","address":"333 Us Highway 335","grades":["High"],"city":"Big Horn","state":"WY","zip":"82833","phone":"(307) 674-8190","low":"9","high":"12","students":"148","cost":"No","url":"https:\/\/www.sheridan.k12.wy.us:443\/1\/Home","review":"https:\/\/www.publicschoolreview.com\/big-horn-high-school-profile","virtual":"No"},{"title":"Big Horn Middle School","lat":"44.681454","lon":"-106.996114","type":"Traditional Public School","address":"333 Us Highway 335","grades":["Middle"],"city":"Big Horn","state":"WY","zip":"82833","phone":"(307) 674-8190","low":"6","high":"8","students":"150","cost":"No","url":"https:\/\/www.sheridan.k12.wy.us\/o\/bhms","review":"https:\/\/www.publicschoolreview.com\/big-horn-middle-school-profile","virtual":"No"},{"title":"Big Piney Elementary School","lat":"42.537268","lon":"-110.114917","type":"Traditional Public School","address":"630 Budd Avenue","grades":["Elementary"],"city":"Big Piney","state":"WY","zip":"83113","phone":"(307) 276-3313","low":"K","high":"5","students":"152","cost":"No","url":"https:\/\/www.sublette9.org\/schools\/big-piney-elementary-school","review":"https:\/\/www.publicschoolreview.com\/big-piney-elementary-school-profile","virtual":"No"},{"title":"Big Piney High School","lat":"42.540423","lon":"-110.11683","type":"Traditional Public School","address":"916 Piney Drive","grades":["High"],"city":"Big Piney","state":"WY","zip":"83113","phone":"(307) 276-3324","low":"9","high":"12","students":"156","cost":"No","url":"https:\/\/www.sublette9.org\/schools\/bphs","review":"https:\/\/www.publicschoolreview.com\/big-piney-high-school-profile","virtual":"No"},{"title":"Big Piney Middle School","lat":"42.537467","lon":"-110.114904","type":"Traditional Public School","address":"201 South Nichols Street","grades":["Middle"],"city":"Big Piney","state":"WY","zip":"83113","phone":"(307) 276-3315","low":"6","high":"8","students":"115","cost":"No","url":"https:\/\/www.sublette9.org\/schools\/bpms","review":"https:\/\/www.publicschoolreview.com\/big-piney-middle-school-profile","virtual":"No"},{"title":"Black Butte High School","lat":"41.595488","lon":"-109.211348","type":"Traditional Public School","address":"2410 College Drive","grades":["High"],"city":"Rock Springs","state":"WY","zip":"82902","phone":"(307) 352-3290","low":"9","high":"12","students":"98","cost":"No","url":"http:\/\/bbhs.sweetwater1.org\/","review":"https:\/\/www.publicschoolreview.com\/black-butte-high-school-profile","virtual":"No"},{"title":"Bondurant Elementary School","lat":"43.247731","lon":"-110.49409","type":"Traditional Public School","address":"1-4224 Us Highway 191 South","grades":["Elementary"],"city":"Pinedale","state":"WY","zip":"82941","phone":"(307) 367-2828","low":"K","high":"3","students":"See website","cost":"No","url":"http:\/\/www.sublette.com\/community\/bondurantpage.htm","review":"https:\/\/www.publicschoolreview.com\/bondurant-elementary-school-profile","virtual":"No"},{"title":"Boxelder Elementary School","lat":"42.6338843","lon":"-105.866868","type":"Traditional Public School","address":"1866 Boxelder Road","grades":["Elementary","Middle"],"city":"Glenrock","state":"WY","zip":"82637","phone":"(307) 436-8953","low":"K","high":"6","students":"See website","cost":"No","url":"https:\/\/www.converse2.org\/Boxelder-Rural-School","review":"https:\/\/www.publicschoolreview.com\/boxelder-elementary-school-profile","virtual":"No"},{"title":"Buffalo High School","lat":"44.320928","lon":"-106.689897","type":"Traditional Public School","address":"29891 Old Highway 87","grades":["High"],"city":"Buffalo","state":"WY","zip":"82834","phone":"(307) 684-2269","low":"9","high":"12","students":"317","cost":"No","url":"https:\/\/www.jcsd1.us\/o\/buffalo","review":"https:\/\/www.publicschoolreview.com\/buffalo-high-school-profile\/82834","virtual":"No"},{"title":"Buffalo Ridge Elementary School","lat":"44.253879","lon":"-105.4997135","type":"Traditional Public School","address":"4501 Tanner Drive","grades":["Elementary","Middle"],"city":"Gillette","state":"WY","zip":"82717","phone":"(307) 686-3058","low":"K","high":"6","students":"393","cost":"No","url":"https:\/\/sites.google.com\/a\/ccsd1schools.net\/buffalo-ridge-elementary\/","review":"https:\/\/www.publicschoolreview.com\/buffalo-ridge-elementary-school-profile\/82717","virtual":"No"},{"title":"Buffalo Ridge Elementary School","lat":"41.166256","lon":"-104.777153","type":"Traditional Public School","address":"5331 Pineridge Avenue","grades":["Elementary"],"city":"Cheyenne","state":"WY","zip":"82009","phone":"(307) 771-2595","low":"K","high":"4","students":"166","cost":"No","url":"https:\/\/buffaloridge.laramie1.org\/","review":"https:\/\/www.publicschoolreview.com\/buffalo-ridge-elementary-school-profile","virtual":"No"},{"title":"Burlington Elementary School","lat":"44.450352","lon":"-108.433547","type":"Traditional Public School","address":"109 School Avenue","grades":["Pre-K","Elementary"],"city":"Burlington","state":"WY","zip":"82411","phone":"(307) 762-3334","low":"PK","high":"5","students":"109","cost":"No","url":"https:\/\/bighorn1.com\/burlington","review":"https:\/\/www.publicschoolreview.com\/burlington-elementary-school-profile\/82411","virtual":"No"},{"title":"Burlington High School","lat":"44.450352","lon":"-108.433547","type":"Traditional Public School","address":"109 School Avenue","grades":["High"],"city":"Burlington","state":"WY","zip":"82411","phone":"(307) 762-3334","low":"9","high":"12","students":"77","cost":"No","url":"https:\/\/www.bighorn1.com\/burlington","review":"https:\/\/www.publicschoolreview.com\/burlington-high-school-profile\/82411","virtual":"No"},{"title":"Burlington Middle School","lat":"44.450352","lon":"-108.433547","type":"Traditional Public School","address":"109 School Avenue","grades":["Middle"],"city":"Burlington","state":"WY","zip":"82411","phone":"(307) 762-3334","low":"6","high":"8","students":"54","cost":"No","url":"https:\/\/www.bighorn1.com\/burlington","review":"https:\/\/www.publicschoolreview.com\/burlington-middle-school-profile\/82411","virtual":"No"},{"title":"Burns Elementary School","lat":"41.188187","lon":"-104.358167","type":"Traditional Public School","address":"630 East 4th","grades":["Pre-K","Elementary","Middle"],"city":"Burns","state":"WY","zip":"82053","phone":"(307) 245-4150","low":"PK","high":"6","students":"265","cost":"No","url":"https:\/\/www.laramie2.org:443\/3\/home","review":"https:\/\/www.publicschoolreview.com\/burns-elementary-school-profile\/82053","virtual":"No"},{"title":"Burns Jr & Sr High School","lat":"41.189045","lon":"-104.358806","type":"Traditional Public School","address":"524 East 4th Street","grades":["Middle","High"],"city":"Burns","state":"WY","zip":"82053","phone":"(307) 245-4100","low":"7","high":"12","students":"281","cost":"No","url":"https:\/\/www.laramie2.org:443\/1\/Home","review":"https:\/\/www.publicschoolreview.com\/burns-jr-sr-high-school-profile","virtual":"No"},{"title":"C - Bar - V Ranch","lat":"43.535905","lon":"-110.82919","type":"Traditional Public School","address":"3850 North Wilderness Drive","grades":["Elementary","Middle","High"],"city":"Wilson","state":"WY","zip":"83014","phone":"(307) 733-8210","low":"1","high":"12","students":"See website","cost":"No","url":"https:\/\/www.boces5.org\/","review":"https:\/\/www.publicschoolreview.com\/c-bar-v-ranch-profile","virtual":"No"},{"title":"C Y Junior Middle School","lat":"42.82595","lon":"-106.35026","type":"Traditional Public School","address":"2900 Cyclone Drive","grades":["Middle"],"city":"Casper","state":"WY","zip":"82604","phone":"(307) 253-2700","low":"6","high":"8","students":"827","cost":"No","url":"https:\/\/sites.google.com\/a\/cymsnatrona.org\/cy\/Home","review":"https:\/\/www.publicschoolreview.com\/c-y-junior-middle-school-profile","virtual":"No"},{"title":"Campbell County High School","lat":"44.281845","lon":"-105.489541","type":"Traditional Public School","address":"1000 Camel Drive","grades":["High"],"city":"Gillette","state":"WY","zip":"82717","phone":"(307) 682-7247","low":"9","high":"12","students":"1076","cost":"No","url":"https:\/\/www-cchs.ccsd.k12.wy.us\/","review":"https:\/\/www.publicschoolreview.com\/campbell-county-high-school-profile\/82717","virtual":"No"},{"title":"Canyon Elementary School","lat":"41.7793918","lon":"-110.5385026","type":"Traditional Public School","address":"1310 Antelope Street","grades":["Elementary","Middle"],"city":"Diamondville","state":"WY","zip":"83116","phone":"(307) 877-2286","low":"K","high":"6","students":"316","cost":"No","url":"https:\/\/www.rangers1.net\/276995_2","review":"https:\/\/www.publicschoolreview.com\/canyon-elementary-school-profile\/83116","virtual":"No"},{"title":"Carey Junior High School","lat":"41.145906","lon":"-104.797884","type":"Traditional Public School","address":"3330 T-bird Dr.","grades":["Middle"],"city":"Cheyenne","state":"WY","zip":"82001","phone":"(307) 771-2580","low":"7","high":"8","students":"874","cost":"No","url":"https:\/\/carey.laramie1.org\/","review":"https:\/\/www.publicschoolreview.com\/carey-junior-high-school-profile","virtual":"No"},{"title":"Carpenter Elementary School","lat":"41.047963","lon":"-104.365964","type":"Traditional Public School","address":"4816 Monroe Avenue","grades":["Elementary","Middle"],"city":"Carpenter","state":"WY","zip":"82054","phone":"(307) 245-4180","low":"K","high":"6","students":"83","cost":"No","url":"https:\/\/www.laramie2.org:443\/4\/Home","review":"https:\/\/www.publicschoolreview.com\/carpenter-elementary-school-profile\/82054","virtual":"No"},{"title":"Casper Classical Academy","lat":"42.840672","lon":"-106.297885","type":"Traditional Public School","address":"900 South Beverly","grades":["Middle","High"],"city":"Casper","state":"WY","zip":"82601","phone":"(307) 253-3160","low":"6","high":"9","students":"434","cost":"No","url":"https:\/\/www.houghtonacademy.org\/_files\/ugd\/ee51a3_0a29d89093ae427d87d78103dba18a29.pdf","review":"https:\/\/www.publicschoolreview.com\/casper-classical-academy-profile","virtual":"No"},{"title":"Cathedral Home For Children","lat":"41.373582","lon":"-105.586937","type":"Traditional Public School","address":"4989 North 3rd Street","grades":["Elementary","Middle","High"],"city":"Laramie","state":"WY","zip":"82072","phone":"(307) 745-8997","low":"4","high":"12","students":"24","cost":"No","url":"https:\/\/www.cathedralhome.org\/","review":"https:\/\/www.publicschoolreview.com\/cathedral-home-for-children-profile","virtual":"No"},{"title":"Centennial Elementary School","lat":"41.34887","lon":"-106.206932","type":"Traditional Public School","address":"2771 Highway 130","grades":["Elementary","Middle"],"city":"Centennial","state":"WY","zip":"82055","phone":"(307) 745-9585","low":"K","high":"6","students":"See website","cost":"No","url":"https:\/\/www.acsd1.org\/ces\/","review":"https:\/\/www.publicschoolreview.com\/centennial-elementary-school-profile\/82055","virtual":"No"},{"title":"Centennial Middle School","lat":"42.837222","lon":"-106.263739","type":"Traditional Public School","address":"1421 Waterford","grades":["Middle"],"city":"Casper","state":"WY","zip":"82609","phone":"(307) 253-2900","low":"6","high":"8","students":"807","cost":"No","url":"https:\/\/sites.google.com\/a\/myncsd.org\/cms\/home","review":"https:\/\/www.publicschoolreview.com\/centennial-middle-school-profile\/82609","virtual":"No"},{"title":"Central High School","lat":"41.169446","lon":"-104.832395","type":"Traditional Public School","address":"5500 Education Drive","grades":["High"],"city":"Cheyenne","state":"WY","zip":"82009","phone":"(307) 771-2680","low":"9","high":"12","students":"1264","cost":"No","url":"https:\/\/central.laramie1.org\/","review":"https:\/\/www.publicschoolreview.com\/central-high-school-profile\/82009","virtual":"No"},{"title":"Chugwater Elementary School","lat":"41.76051","lon":"-104.823129","type":"Traditional Public School","address":"406 5th Street","grades":["Pre-K","Elementary","Middle"],"city":"Wheatland","state":"WY","zip":"82201","phone":"(307) 422-3501","low":"PK","high":"6","students":"31","cost":"No","url":"https:\/\/chug.platte1.org\/","review":"https:\/\/www.publicschoolreview.com\/chugwater-elementary-school-profile","virtual":"No"},{"title":"Chugwater High School","lat":"41.76051","lon":"-104.823129","type":"Traditional Public School","address":"406 5th Street","grades":["High"],"city":"Wheatland","state":"WY","zip":"82201","phone":"(307) 422-3501","low":"9","high":"12","students":"See website","cost":"No","url":"https:\/\/whs.platte1.org\/","review":"https:\/\/www.publicschoolreview.com\/chugwater-high-school-profile","virtual":"No"},{"title":"Chugwater Junior High School","lat":"41.76051","lon":"-104.823129","type":"Traditional Public School","address":"406 5th Street","grades":["Middle"],"city":"Wheatland","state":"WY","zip":"82201","phone":"(307) 422-3501","low":"7","high":"8","students":"See website","cost":"No","url":"https:\/\/chug.platte1.org\/","review":"https:\/\/www.publicschoolreview.com\/chugwater-junior-high-school-profile","virtual":"No"},{"title":"Clark Elementary School","lat":"44.903716","lon":"-109.17142","type":"Traditional Public School","address":"363 Road 1ab","grades":["Elementary"],"city":"Powell","state":"WY","zip":"82435","phone":"(307) 645-3241","low":"K","high":"5","students":"See website","cost":"No","url":"http:\/\/www.park1.k12.wy.us\/Pages\/Schools\/Clark.html","review":"https:\/\/www.publicschoolreview.com\/clark-elementary-school-profile\/82435","virtual":"No"},{"title":"Clark Elementary School","lat":"41.266475","lon":"-110.972157","type":"Traditional Public School","address":"1248 Morse Lee Street","grades":["Elementary"],"city":"Evanston","state":"WY","zip":"82931","phone":"(307) 789-2833","low":"K","high":"5","students":"220","cost":"No","url":"https:\/\/ces.uinta1.com\/","review":"https:\/\/www.publicschoolreview.com\/clark-elementary-school-profile\/82931","virtual":"No"},{"title":"Clawson Elementary School","lat":"41.413269","lon":"-105.182782","type":"Traditional Public School","address":"376 Road 228a","grades":["Elementary","Middle"],"city":"Horse Creek","state":"WY","zip":"82061","phone":"(307) 771-2291","low":"K","high":"6","students":"See website","cost":"No","url":"https:\/\/clawson.laramie1.org\/","review":"https:\/\/www.publicschoolreview.com\/clawson-elementary-school-profile","virtual":"No"},{"title":"Clear Creek Middle School","lat":"44.341719","lon":"-106.7026","type":"Traditional Public School","address":"361 West Gatchell","grades":["Middle"],"city":"Buffalo","state":"WY","zip":"82834","phone":"(307) 684-5594","low":"6","high":"8","students":"271","cost":"No","url":"https:\/\/www.jcsd1.us\/o\/clear-creek","review":"https:\/\/www.publicschoolreview.com\/clear-creek-middle-school-profile\/82834","virtual":"No"},{"title":"Clearmont K - 12 School","lat":"44.637635","lon":"-106.38048","type":"Traditional Public School","address":"1600 Meade Avenue","grades":["Elementary","Middle","High"],"city":"Clearmont","state":"WY","zip":"82835","phone":"(307) 758-4412","low":"K","high":"12","students":"86","cost":"No","url":"https:\/\/www.sheridan3.com\/","review":"https:\/\/www.publicschoolreview.com\/clearmont-k-12-school-profile","virtual":"No"},{"title":"Cloud Peak Elementary School","lat":"44.347429","lon":"-106.702212","type":"Traditional Public School","address":"100 Conrad","grades":["Elementary"],"city":"Buffalo","state":"WY","zip":"82834","phone":"(307) 684-0153","low":"3","high":"5","students":"235","cost":"No","url":"https:\/\/www.jcsd1.us\/o\/cloud-peak","review":"https:\/\/www.publicschoolreview.com\/cloud-peak-elementary-school-profile","virtual":"No"},{"title":"Cody High School","lat":"44.524708","lon":"-109.067896","type":"Traditional Public School","address":"1225 10th Street","grades":["High"],"city":"Cody","state":"WY","zip":"82414","phone":"(307) 587-4251","low":"9","high":"12","students":"588","cost":"No","url":"https:\/\/chs.park6.org\/","review":"https:\/\/www.publicschoolreview.com\/cody-high-school-profile","virtual":"No"},{"title":"Cody Middle School","lat":"44.529704","lon":"-109.043266","type":"Traditional Public School","address":"2901 Cougar Avenue","grades":["Middle"],"city":"Cody","state":"WY","zip":"82414","phone":"(307) 587-4273","low":"6","high":"8","students":"474","cost":"No","url":"https:\/\/cms.park6.org\/","review":"https:\/\/www.publicschoolreview.com\/cody-middle-school-profile","virtual":"No"},{"title":"Cokeville Elementary School","lat":"42.087044","lon":"-110.953548","type":"Traditional Public School","address":"250 North Sage","grades":["Elementary","Middle"],"city":"Cokeville","state":"WY","zip":"83114","phone":"(307) 279-3233","low":"K","high":"6","students":"104","cost":"No","url":"https:\/\/ces.lcsd2.org\/","review":"https:\/\/www.publicschoolreview.com\/cokeville-elementary-school-profile","virtual":"No"},{"title":"Cokeville High School","lat":"42.083539","lon":"-110.956494","type":"Traditional Public School","address":"300 Pine","grades":["Middle","High"],"city":"Cokeville","state":"WY","zip":"83114","phone":"(307) 279-3273","low":"7","high":"12","students":"115","cost":"No","url":"https:\/\/chs.lcsd2.org\/","review":"https:\/\/www.publicschoolreview.com\/cokeville-high-school-profile","virtual":"No"},{"title":"Cole Elementary School","lat":"41.12475","lon":"-104.815889","type":"Traditional Public School","address":"615 West 9th Street","grades":["Pre-K","Elementary","Middle"],"city":"Cheyenne","state":"WY","zip":"82007","phone":"(307) 771-2480","low":"PK","high":"6","students":"164","cost":"No","url":"https:\/\/cole.laramie1.org\/","review":"https:\/\/www.publicschoolreview.com\/cole-elementary-school-profile\/82007","virtual":"No"},{"title":"Colter Elementary School","lat":"43.458417","lon":"-110.801009","type":"Traditional Public School","address":"1855 High School Road","grades":["Elementary"],"city":"Jackson","state":"WY","zip":"83001","phone":"(307) 733-9651","low":"K","high":"5","students":"295","cost":"No","url":"https:\/\/www.tcsd.org:443\/5\/Home","review":"https:\/\/www.publicschoolreview.com\/colter-elementary-school-profile","virtual":"No"},{"title":"Colter High School","lat":"43.842772","lon":"-108.2011682","type":"Private School","address":"1550 Us Highway 20 S","grades":["Middle","High"],"city":"Worland","state":"WY","zip":"82401","phone":"(307) 347-6144","low":"8","high":"12","students":"59","cost":"Yes","url":"","review":"","virtual":"No"},{"title":"Conestoga Elementary School","lat":"44.232123","lon":"-105.435938","type":"Traditional Public School","address":"4901 Sleepy Hollow Boulevard","grades":["Elementary","Middle"],"city":"Gillette","state":"WY","zip":"82717","phone":"(307) 686-2373","low":"K","high":"6","students":"372","cost":"No","url":"https:\/\/sites.google.com\/a\/ccsd1schools.net\/conestoga-elementary\/","review":"https:\/\/www.publicschoolreview.com\/conestoga-elementary-school-profile\/82717","virtual":"No"},{"title":"Cooperative High School","lat":"41.796155","lon":"-107.230065","type":"Traditional Public School","address":"615 Rodeo","grades":["High"],"city":"Rawlins","state":"WY","zip":"82301","phone":"(307) 328-9250","low":"9","high":"12","students":"51","cost":"No","url":"https:\/\/rchs.crb1.net\/","review":"https:\/\/www.publicschoolreview.com\/cooperative-high-school-profile","virtual":"No"},{"title":"Cornerstone Christian School","lat":"42.81055","lon":"-108.704881","type":"Private School","address":"80 Mortimore Ln","grades":["Elementary","Middle"],"city":"Lander","state":"WY","zip":"82520","phone":"(307) 332-6000","low":"K","high":"8","students":"23","cost":"Yes","url":"http:\/\/www.ccslander.org\/","review":"https:\/\/www.privateschoolreview.com\/cornerstone-christian-school-profile\/82520","virtual":"No"},{"title":"Cottonwood Elementary School","lat":"42.835571","lon":"-106.340023","type":"Traditional Public School","address":"1230 West 15th Street","grades":["Pre-K","Elementary"],"city":"Casper","state":"WY","zip":"82601","phone":"(307) 253-4700","low":"PK","high":"5","students":"362","cost":"No","url":"http:\/\/www.natronaschools.org\/school.php?id=55","review":"https:\/\/www.publicschoolreview.com\/cottonwood-elementary-school-profile\/82601","virtual":"No"},{"title":"Cottonwood Elementary School","lat":"43.753943","lon":"-105.491977","type":"Traditional Public School","address":"300 Wright Boulevard","grades":["Pre-K","Elementary","Middle"],"city":"Wright","state":"WY","zip":"82732","phone":"(307) 464-0584","low":"PK","high":"6","students":"190","cost":"No","url":"https:\/\/sites.google.com\/a\/ccsd1schools.net\/cottonwood-elementary\/","review":"https:\/\/www.publicschoolreview.com\/cottonwood-elementary-school-profile\/82732","virtual":"No"},{"title":"Crest Hill Elementary School","lat":"42.805232","lon":"-106.344684","type":"Traditional Public School","address":"4445 South Poplar","grades":["Elementary"],"city":"Casper","state":"WY","zip":"82601","phone":"(307) 253-4200","low":"K","high":"5","students":"330","cost":"No","url":"https:\/\/sites.google.com\/myncsd.org\/cresthillelementaryschool\/","review":"https:\/\/www.publicschoolreview.com\/crest-hill-elementary-school-profile","virtual":"No"},{"title":"Crowheart Elementary School","lat":"43.22971","lon":"-109.00824","type":"Traditional Public School","address":"8434 Us Highway 26","grades":["Pre-K","Elementary"],"city":"Crowheart","state":"WY","zip":"82512","phone":"(307) 486-2202","low":"PK","high":"3","students":"See website","cost":"No","url":"https:\/\/www.fremont6.org\/220574_2","review":"https:\/\/www.publicschoolreview.com\/crowheart-elementary-school-profile","virtual":"No"},{"title":"Davis Elementary School","lat":"41.177436","lon":"-104.828486","type":"Traditional Public School","address":"6309 Yellowstone Road","grades":["Elementary","Middle"],"city":"Cheyenne","state":"WY","zip":"82009","phone":"(307) 771-2600","low":"K","high":"6","students":"348","cost":"No","url":"https:\/\/davis.laramie1.org\/","review":"https:\/\/www.publicschoolreview.com\/davis-elementary-school-profile\/82009","virtual":"No"},{"title":"Davis Middle School","lat":"41.26135","lon":"-110.970725","type":"Traditional Public School","address":"837 No Name Street","grades":["Middle"],"city":"Evanston","state":"WY","zip":"82931","phone":"(307) 789-8096","low":"6","high":"8","students":"321","cost":"No","url":"https:\/\/dms.uinta1.com\/","review":"https:\/\/www.publicschoolreview.com\/davis-middle-school-profile\/82931","virtual":"No"},{"title":"Dean Morgan Middle School","lat":"42.836139","lon":"-106.329415","type":"Traditional Public School","address":"1440 South Elm","grades":["Middle"],"city":"Casper","state":"WY","zip":"82601","phone":"(307) 253-2500","low":"6","high":"8","students":"795","cost":"No","url":"https:\/\/deanmorgan.org\/","review":"https:\/\/www.publicschoolreview.com\/dean-morgan-middle-school-profile","virtual":"No"},{"title":"Deming Elementary School","lat":"41.150468","lon":"-104.828901","type":"Traditional Public School","address":"715 West 5th Ave","grades":["Elementary"],"city":"Cheyenne","state":"WY","zip":"82001","phone":"(307) 771-2400","low":"K","high":"3","students":"93","cost":"No","url":"https:\/\/deming.laramie1.org\/","review":"https:\/\/www.publicschoolreview.com\/deming-elementary-school-profile\/82001","virtual":"No"},{"title":"Desert Elementary School","lat":"41.67034","lon":"-107.981924","type":"Traditional Public School","address":"235 Bugas Street","grades":["Elementary","Middle"],"city":"Wamsutter","state":"WY","zip":"82336","phone":"(307) 324-7811","low":"K","high":"6","students":"29","cost":"No","url":"http:\/\/des.sweetwater1.org\/","review":"https:\/\/www.publicschoolreview.com\/desert-elementary-school-profile","virtual":"No"},{"title":"Desert Middle School","lat":"41.67034","lon":"-107.981924","type":"Traditional Public School","address":"235 Bugas Street","grades":["Middle"],"city":"Wamsutter","state":"WY","zip":"82336","phone":"(307) 324-7811","low":"7","high":"8","students":"See website","cost":"No","url":"http:\/\/des.sweetwater1.org\/","review":"https:\/\/www.publicschoolreview.com\/desert-middle-school-profile","virtual":"No"},{"title":"Desert View Elementary School","lat":"41.616619","lon":"-109.225365","type":"Traditional Public School","address":"1900 Desert Boulevard","grades":["Elementary"],"city":"Rock Springs","state":"WY","zip":"82902","phone":"(307) 352-3200","low":"K","high":"4","students":"252","cost":"No","url":"http:\/\/dv.sweetwater1.org\/","review":"https:\/\/www.publicschoolreview.com\/desert-view-elementary-school-profile\/82902","virtual":"No"},{"title":"Destiny Christian Academy","lat":"41.1265729","lon":"-104.807599","type":"Private School","address":"215 E 8th St","grades":["Elementary","Middle","High"],"city":"Cheyenne","state":"WY","zip":"82007","phone":"(307) 635-3759","low":"K","high":"12","students":"69","cost":"Yes","url":"https:\/\/www.dcawy.com\/","review":"https:\/\/www.privateschoolreview.com\/destiny-christian-academy-profile","virtual":"No"},{"title":"Dildine Elementary School","lat":"41.156467","lon":"-104.747046","type":"Traditional Public School","address":"4312 Van Buren Avenue","grades":["Elementary"],"city":"Cheyenne","state":"WY","zip":"82001","phone":"(307) 771-2320","low":"K","high":"4","students":"279","cost":"No","url":"https:\/\/dildine.laramie1.org\/","review":"https:\/\/www.publicschoolreview.com\/dildine-elementary-school-profile","virtual":"No"},{"title":"Douglas High School","lat":"42.75101","lon":"-105.366892","type":"Traditional Public School","address":"1701 Hamilton Street","grades":["High"],"city":"Douglas","state":"WY","zip":"82633","phone":"(307) 358-2940","low":"9","high":"12","students":"540","cost":"No","url":"https:\/\/www.ccsd1.org\/district\/ccsd1\/DHS","review":"https:\/\/www.publicschoolreview.com\/douglas-high-school-profile\/82633","virtual":"No"},{"title":"Douglas Intermediate School","lat":"42.763","lon":"-105.398","type":"Traditional Public School","address":"901 West Yellowstone","grades":["Elementary"],"city":"Douglas","state":"WY","zip":"82633","phone":"(307) 358-5250","low":"2","high":"3","students":"256","cost":"No","url":"https:\/\/www.ccsd1.org\/district\/ccsd1\/DIS","review":"https:\/\/www.publicschoolreview.com\/douglas-intermediate-school-profile\/82633","virtual":"No"},{"title":"Douglas Middle School","lat":"42.750058","lon":"-105.395827","type":"Traditional Public School","address":"801 Richards","grades":["Middle"],"city":"Douglas","state":"WY","zip":"82633","phone":"(307) 358-9771","low":"6","high":"8","students":"353","cost":"No","url":"https:\/\/www.ccsd1.org\/district\/ccsd1\/DMS","review":"https:\/\/www.publicschoolreview.com\/douglas-middle-school-profile\/82633","virtual":"No"},{"title":"Douglas Primary School","lat":"42.75101","lon":"-105.366892","type":"Traditional Public School","address":"1705 Hamilton Street","grades":["Elementary"],"city":"Douglas","state":"WY","zip":"82633","phone":"(307) 358-3502","low":"K","high":"1","students":"232","cost":"No","url":"https:\/\/www.ccsd1.org\/district\/ccsd1\/DPS","review":"https:\/\/www.publicschoolreview.com\/douglas-primary-school-profile","virtual":"No"},{"title":"Douglas Upper Elementary School","lat":"42.762945","lon":"-105.399056","type":"Traditional Public School","address":"200 Pearson","grades":["Elementary"],"city":"Douglas","state":"WY","zip":"82633","phone":"(307) 358-0025","low":"4","high":"5","students":"225","cost":"No","url":"https:\/\/www.ccsd1.org\/district\/ccsd1\/DUES","review":"https:\/\/www.publicschoolreview.com\/douglas-upper-elementary-school-profile","virtual":"No"},{"title":"Dry Creek Elementary School","lat":"43.249118","lon":"-105.273471","type":"Traditional Public School","address":"3545 Highway 59","grades":["Elementary","Middle"],"city":"Douglas","state":"WY","zip":"82633","phone":"(307) 358-2351","low":"K","high":"8","students":"See website","cost":"No","url":"https:\/\/www.ccsd1.org\/","review":"https:\/\/www.publicschoolreview.com\/dry-creek-elementary-school-profile\/82633","virtual":"No"},{"title":"Dubois Elementary School","lat":"43.536155","lon":"-109.630827","type":"Traditional Public School","address":"700 North 1st Street","grades":["Elementary"],"city":"Dubois","state":"WY","zip":"82513","phone":"(307) 455-5524","low":"K","high":"5","students":"77","cost":"No","url":"https:\/\/www.sps186.org\/schools\/dubois\/","review":"https:\/\/www.publicschoolreview.com\/dubois-elementary-school-profile\/82513","virtual":"No"},{"title":"Dubois High School","lat":"43.534824","lon":"-109.636463","type":"Traditional Public School","address":"700 North 1st Street","grades":["High"],"city":"Dubois","state":"WY","zip":"82513","phone":"(307) 455-5524","low":"9","high":"12","students":"44","cost":"No","url":"https:\/\/www.fremont2.org\/Our_School","review":"https:\/\/www.publicschoolreview.com\/dubois-high-school-profile","virtual":"No"},{"title":"Dubois Middle School","lat":"43.536155","lon":"-109.630827","type":"Traditional Public School","address":"700 North 1st Street","grades":["Middle"],"city":"Dubois","state":"WY","zip":"82513","phone":"(307) 455-5524","low":"6","high":"8","students":"32","cost":"No","url":"https:\/\/www.fremont2.org\/","review":"https:\/\/www.publicschoolreview.com\/dubois-middle-school-profile","virtual":"No"},{"title":"East High School","lat":"41.145726","lon":"-104.778117","type":"Traditional Public School","address":"2800 East Pershing Boulevard","grades":["High"],"city":"Cheyenne","state":"WY","zip":"82001","phone":"(307) 771-2663","low":"9","high":"12","students":"1446","cost":"No","url":"https:\/\/east.laramie1.org\/","review":"https:\/\/www.publicschoolreview.com\/east-high-school-profile\/82001","virtual":"No"},{"title":"East Side Elementary School","lat":"44.017902","lon":"-107.948574","type":"Traditional Public School","address":"203 North 15th Street","grades":["Elementary"],"city":"Worland","state":"WY","zip":"82401","phone":"(307) 347-4662","low":"K","high":"1","students":"159","cost":"No","url":"https:\/\/east.wsh1.k12.wy.us\/","review":"https:\/\/www.publicschoolreview.com\/east-side-elementary-school-profile\/82401","virtual":"No"},{"title":"Eastside Elementary School","lat":"41.588806","lon":"-109.213307","type":"Traditional Public School","address":"305 G Street","grades":["Elementary","Middle"],"city":"Rock Springs","state":"WY","zip":"82902","phone":"(307) 352-3425","low":"5","high":"6","students":"363","cost":"No","url":"http:\/\/ese.sweetwater1.org\/","review":"https:\/\/www.publicschoolreview.com\/eastside-elementary-school-profile\/82902","virtual":"No"},{"title":"Eastside Elementary School","lat":"44.52881","lon":"-109.054496","type":"Traditional Public School","address":"801 17th Street","grades":["Elementary"],"city":"Cody","state":"WY","zip":"82414","phone":"(307) 587-4275","low":"K","high":"5","students":"274","cost":"No","url":"https:\/\/eastside.park6.org\/","review":"https:\/\/www.publicschoolreview.com\/eastside-elementary-school-profile\/82414","virtual":"No"},{"title":"Elk Mountain Elementary School","lat":"41.687338","lon":"-106.415202","type":"Traditional Public School","address":"202 Veterans Street","grades":["Elementary","Middle"],"city":"Elk Mountain","state":"WY","zip":"82324","phone":"(307) 348-7731","low":"K","high":"6","students":"See website","cost":"No","url":"https:\/\/www.crb2.org\/index.php?pageID=327418_3","review":"https:\/\/www.publicschoolreview.com\/elk-mountain-elementary-school-profile","virtual":"No"},{"title":"Encampment K - 12 School","lat":"41.208532","lon":"-106.793271","type":"Traditional Public School","address":"514 Rankin Street","grades":["Elementary","Middle","High"],"city":"Encampment","state":"WY","zip":"82325","phone":"(307) 327-5442","low":"K","high":"12","students":"127","cost":"No","url":"https:\/\/www.crb2.org\/index.php?pageID=327480_3","review":"https:\/\/www.publicschoolreview.com\/encampment-k-12-school-profile","virtual":"No"},{"title":"Etna Elementary School","lat":"43.076895","lon":"-111.011982","type":"Traditional Public School","address":"107590 Us Highway 89","grades":["Elementary","Middle"],"city":"Etna","state":"WY","zip":"83118","phone":"(307) 885-2472","low":"4","high":"6","students":"259","cost":"No","url":"https:\/\/etna.lcsd2.org\/","review":"https:\/\/www.publicschoolreview.com\/etna-elementary-school-profile\/83118","virtual":"No"},{"title":"Evanston High School","lat":"41.259726","lon":"-110.980784","type":"Traditional Public School","address":"701 West Cheyenne Drive","grades":["High"],"city":"Evanston","state":"WY","zip":"82931","phone":"(307) 789-0757","low":"9","high":"12","students":"760","cost":"No","url":"https:\/\/ehs.uinta1.com\/","review":"https:\/\/www.publicschoolreview.com\/evanston-high-school-profile","virtual":"No"},{"title":"Evanston Middle School","lat":"41.260883","lon":"-110.961941","type":"Traditional Public School","address":"341 Summit Street","grades":["Middle"],"city":"Evanston","state":"WY","zip":"82931","phone":"(307) 789-5499","low":"6","high":"8","students":"316","cost":"No","url":"https:\/\/ems.uinta1.com\/","review":"https:\/\/www.publicschoolreview.com\/evanston-middle-school-profile","virtual":"No"},{"title":"Evansville Elementary School","lat":"42.86376","lon":"-106.268046","type":"Traditional Public School","address":"452 Texas Street","grades":["Pre-K","Elementary"],"city":"Evansville","state":"WY","zip":"82636","phone":"(307) 253-6400","low":"PK","high":"5","students":"321","cost":"No","url":"https:\/\/sites.google.com\/myncsd.org\/evansville\/","review":"https:\/\/www.publicschoolreview.com\/evansville-elementary-school-profile","virtual":"No"},{"title":"Expedition Academy","lat":"41.510885","lon":"-109.464554","type":"Traditional Public School","address":"410 Upland Way","grades":["High"],"city":"Green River","state":"WY","zip":"82935","phone":"(307) 872-4800","low":"9","high":"12","students":"31","cost":"No","url":"https:\/\/eahs.swcsd2.org\/","review":"https:\/\/www.publicschoolreview.com\/expedition-academy-profile","virtual":"No"},{"title":"Fairview Elementary School","lat":"41.134746","lon":"-104.782702","type":"Traditional Public School","address":"2801 East 10th Street","grades":["Elementary","Middle"],"city":"Cheyenne","state":"WY","zip":"82001","phone":"(307) 771-2610","low":"3","high":"6","students":"109","cost":"No","url":"https:\/\/fairview.laramie1.org\/","review":"https:\/\/www.publicschoolreview.com\/fairview-elementary-school-profile\/82001","virtual":"No"},{"title":"Farson - Eden Elementary School","lat":"42.1103","lon":"-109.442982","type":"Traditional Public School","address":"30-highway 28","grades":["Elementary"],"city":"Farson","state":"WY","zip":"82932","phone":"(307) 273-9301","low":"K","high":"5","students":"54","cost":"No","url":"http:\/\/www.sweetwater1.org\/","review":"https:\/\/www.publicschoolreview.com\/farson-eden-elementary-school-profile","virtual":"No"},{"title":"Farson - Eden High School","lat":"42.110279","lon":"-109.442925","type":"Traditional Public School","address":"30 Highway 28","grades":["High"],"city":"Farson","state":"WY","zip":"82932","phone":"(307) 273-9301","low":"9","high":"12","students":"52","cost":"No","url":"http:\/\/fes.sweetwater1.org\/","review":"https:\/\/www.publicschoolreview.com\/farson-eden-high-school-profile","virtual":"No"},{"title":"Farson - Eden Middle School","lat":"42.110321","lon":"-109.442982","type":"Traditional Public School","address":"30 Highway 28","grades":["Middle"],"city":"Farson","state":"WY","zip":"82932","phone":"(307) 273-9301","low":"6","high":"8","students":"33","cost":"No","url":"http:\/\/fes.sweetwater1.org\/","review":"https:\/\/www.publicschoolreview.com\/farson-eden-middle-school-profile","virtual":"No"},{"title":"Freedom Elementary School","lat":"41.131535","lon":"-104.863989","type":"Traditional Public School","address":"4500 Happy Jack Road","grades":["Elementary","Middle"],"city":"Cheyenne","state":"WY","zip":"82001","phone":"(307) 771-2305","low":"K","high":"6","students":"390","cost":"No","url":"https:\/\/freedom.laramie1.org\/","review":"https:\/\/www.publicschoolreview.com\/freedom-elementary-school-profile\/82001","virtual":"No"},{"title":"Frontier Academy","lat":"43.025759","lon":"-108.394928","type":"Traditional Public School","address":"124 North 5th Street","grades":["High"],"city":"Riverton","state":"WY","zip":"82501","phone":"(307) 856-9291","low":"9","high":"12","students":"18","cost":"No","url":"https:\/\/fa.fremont25.org\/","review":"https:\/\/www.publicschoolreview.com\/frontier-academy-profile","virtual":"No"},{"title":"Ft. Caspar Academy","lat":"42.812839","lon":"-106.348399","type":"Traditional Public School","address":"4100 West 38th Street","grades":["Elementary"],"city":"Casper","state":"WY","zip":"82604","phone":"(307) 253-3400","low":"K","high":"5","students":"409","cost":"No","url":"https:\/\/fortcasparacademy.com\/","review":"https:\/\/www.publicschoolreview.com\/ft-caspar-academy-profile","virtual":"No"},{"title":"Ft. Washakie Elementary School","lat":"42.997418","lon":"-108.85941","type":"Traditional Public School","address":"90 Ethete Road","grades":["Pre-K","Elementary","Middle"],"city":"Fort Washakie","state":"WY","zip":"82514","phone":"(307) 332-2380","low":"PK","high":"6","students":"267","cost":"No","url":"https:\/\/www.fortwashakieschool.com\/","review":"https:\/\/www.publicschoolreview.com\/ft-washakie-elementary-school-profile","virtual":"No"},{"title":"Ft. Washakie High School","lat":"43.0147","lon":"-108.8196","type":"Traditional Public School","address":"90 Ethete Road","grades":["High"],"city":"Fort Washakie","state":"WY","zip":"82514","phone":"(307) 332-0142","low":"9","high":"12","students":"120","cost":"No","url":"https:\/\/www.fortwashakieschool.com\/Contact-Us","review":"https:\/\/www.publicschoolreview.com\/ft-washakie-high-school-profile","virtual":"No"},{"title":"Ft. Washakie Middle School","lat":"42.997418","lon":"-108.85941","type":"Traditional Public School","address":"90 Ethete Road","grades":["Middle"],"city":"Fort Washakie","state":"WY","zip":"82514","phone":"(307) 332-2380","low":"7","high":"8","students":"78","cost":"No","url":"https:\/\/www.fortwashakieschool.com\/","review":"https:\/\/www.publicschoolreview.com\/ft-washakie-middle-school-profile","virtual":"No"},{"title":"Gannett Peak Elementary School","lat":"42.83347","lon":"-108.7433876","type":"Traditional Public School","address":"615 Popo Agie","grades":["Elementary"],"city":"Lander","state":"WY","zip":"82520","phone":"(307) 332-6690","low":"K","high":"3","students":"446","cost":"No","url":"https:\/\/www.landerschools.org\/Gannett-Peak","review":"https:\/\/www.publicschoolreview.com\/gannett-peak-elementary-school-profile","virtual":"No"},{"title":"Gilchrist Elementary School","lat":"41.164853","lon":"-105.086972","type":"Traditional Public School","address":"1108 Happy Jack Road","grades":["Elementary","Middle"],"city":"Cheyenne","state":"WY","zip":"82007","phone":"(307) 771-2285","low":"K","high":"6","students":"96","cost":"No","url":"https:\/\/gilchrist.laramie1.org\/","review":"https:\/\/www.publicschoolreview.com\/gilchrist-elementary-school-profile\/82007","virtual":"No"},{"title":"Glendo Elementary School","lat":"42.504694","lon":"-105.022244","type":"Traditional Public School","address":"305 Paige Street","grades":["Pre-K","Elementary","Middle"],"city":"Wheatland","state":"WY","zip":"82201","phone":"(307) 735-4471","low":"PK","high":"6","students":"24","cost":"No","url":"https:\/\/glendo.platte1.org\/","review":"https:\/\/www.publicschoolreview.com\/glendo-elementary-school-profile","virtual":"No"},{"title":"Glendo High School","lat":"42.504694","lon":"-105.022244","type":"Traditional Public School","address":"305 Paige Street","grades":["High"],"city":"Wheatland","state":"WY","zip":"82201","phone":"(307) 735-4471","low":"9","high":"12","students":"13","cost":"No","url":"https:\/\/glendo.platte1.org\/","review":"https:\/\/www.publicschoolreview.com\/glendo-high-school-profile","virtual":"No"},{"title":"Glendo Junior High School","lat":"42.504694","lon":"-105.022244","type":"Traditional Public School","address":"305 Paige Street","grades":["Middle"],"city":"Wheatland","state":"WY","zip":"82201","phone":"(307) 735-4471","low":"7","high":"8","students":"See website","cost":"No","url":"https:\/\/glendo.platte1.org\/23677_1","review":"https:\/\/www.publicschoolreview.com\/glendo-junior-high-school-profile","virtual":"No"},{"title":"Glenn Livingston Elementary School","lat":"44.516945","lon":"-109.064176","type":"Traditional Public School","address":"2001 12th Street","grades":["Elementary"],"city":"Cody","state":"WY","zip":"82414","phone":"(307) 587-4271","low":"K","high":"5","students":"296","cost":"No","url":"https:\/\/livingston.park6.org\/","review":"https:\/\/www.publicschoolreview.com\/glenn-livingston-elementary-school-profile","virtual":"No"},{"title":"Glenrock Intermediate\/Middle School","lat":"42.85622","lon":"-105.870957","type":"Traditional Public School","address":"645 South Third","grades":["Elementary","Middle"],"city":"Glenrock","state":"WY","zip":"82637","phone":"(307) 436-9258","low":"4","high":"6","students":"167","cost":"No","url":"https:\/\/www.converse2.org\/Glenrock-Intermediate-Middle-School","review":"https:\/\/www.publicschoolreview.com\/glenrock-intermediate-middle-school-profile","virtual":"No"},{"title":"Glenrock Jr\/Sr High School","lat":"42.861595","lon":"-105.853157","type":"Traditional Public School","address":"225 Oregon Trail","grades":["Middle","High"],"city":"Glenrock","state":"WY","zip":"82637","phone":"(307) 436-9201","low":"7","high":"12","students":"304","cost":"No","url":"https:\/\/www.converse2.org\/Glenrock-High-School","review":"https:\/\/www.publicschoolreview.com\/glenrock-jr-sr-high-school-profile","virtual":"No"},{"title":"Goins Elementary School","lat":"41.118579","lon":"-104.823687","type":"Traditional Public School","address":"224 Dey Avenue","grades":["Pre-K","Elementary","Middle"],"city":"Cheyenne","state":"WY","zip":"82007","phone":"(307) 771-2620","low":"PK","high":"6","students":"341","cost":"No","url":"https:\/\/goins.laramie1.org\/","review":"https:\/\/www.publicschoolreview.com\/goins-elementary-school-profile","virtual":"No"},{"title":"Granger Elementary School","lat":"41.593576","lon":"-109.967941","type":"Traditional Public School","address":"200 1st Street","grades":["Elementary"],"city":"Granger","state":"WY","zip":"82934","phone":"(307) 875-4840","low":"K","high":"5","students":"See website","cost":"No","url":"https:\/\/gres.swcsd2.org\/","review":"https:\/\/www.publicschoolreview.com\/granger-elementary-school-profile","virtual":"No"},{"title":"Grant Elementary School","lat":"42.859116","lon":"-105.871426","type":"Traditional Public School","address":"125 Mustang Trail","grades":["Elementary"],"city":"Glenrock","state":"WY","zip":"82637","phone":"(307) 436-2774","low":"K","high":"3","students":"190","cost":"No","url":"https:\/\/www.converse2.org\/Grant-Elementary","review":"https:\/\/www.publicschoolreview.com\/grant-elementary-school-profile\/82637","virtual":"No"},{"title":"Green River Christian Academy","lat":"41.5092","lon":"-109.4575","type":"Private School","address":"800 Homestead Dr","grades":["Elementary","Middle"],"city":"Green River","state":"WY","zip":"82935","phone":"(307) 875-4404","low":"K","high":"6","students":"24","cost":"Yes","url":"https:\/\/www.greenriverchristian.com\/","review":"https:\/\/www.privateschoolreview.com\/green-river-christian-academy-profile","virtual":"No"},{"title":"Green River High School","lat":"41.500635","lon":"-109.463738","type":"Traditional Public School","address":"1615 Hitching Post Drive","grades":["High"],"city":"Green River","state":"WY","zip":"82935","phone":"(307) 872-4747","low":"9","high":"12","students":"696","cost":"No","url":"https:\/\/grhs.swcsd2.org\/","review":"https:\/\/www.publicschoolreview.com\/green-river-high-school-profile\/82935","virtual":"No"},{"title":"Greybull Elementary School","lat":"44.482704","lon":"-108.049873","type":"Traditional Public School","address":"125 6th Avenue South","grades":["Pre-K","Elementary"],"city":"Greybull","state":"WY","zip":"82426","phone":"(307) 765-2311","low":"PK","high":"5","students":"211","cost":"No","url":"https:\/\/www.greybullschools.com\/apps\/pages\/index.jsp?uREC_ID=414190&type=d&pREC_ID=907595","review":"https:\/\/www.publicschoolreview.com\/greybull-elementary-school-profile","virtual":"No"},{"title":"Greybull High School","lat":"44.495279","lon":"-108.05524","type":"Traditional Public School","address":"732 North 6th Street","grades":["High"],"city":"Greybull","state":"WY","zip":"82426","phone":"(307) 765-2537","low":"9","high":"12","students":"136","cost":"No","url":"https:\/\/www.greybullschools.com\/apps\/pages\/index.jsp?uREC_ID=414192&type=d&pREC_ID=907775","review":"https:\/\/www.publicschoolreview.com\/greybull-high-school-profile","virtual":"No"},{"title":"Greybull Middle School","lat":"44.496973","lon":"-108.051981","type":"Traditional Public School","address":"724 North 6th Street","grades":["Middle"],"city":"Greybull","state":"WY","zip":"82426","phone":"(307) 765-4492","low":"6","high":"8","students":"94","cost":"No","url":"https:\/\/www.greybullschools.com\/apps\/pages\/index.jsp?uREC_ID=414191&type=d&pREC_ID=907724","review":"https:\/\/www.publicschoolreview.com\/greybull-middle-school-profile","virtual":"No"},{"title":"Guernsey - Sunrise Elementary School","lat":"42.264317","lon":"-104.741643","type":"Traditional Public School","address":"555 South Wyoming Avenue","grades":["Elementary","Middle"],"city":"Guernsey","state":"WY","zip":"82214","phone":"(307) 836-2733","low":"K","high":"6","students":"137","cost":"No","url":"http:\/\/www.guernseysunrise.org\/","review":"https:\/\/www.publicschoolreview.com\/guernsey-sunrise-elementary-school-profile","virtual":"No"},{"title":"Guernsey - Sunrise High School","lat":"42.265735","lon":"-104.743944","type":"Traditional Public School","address":"555 South Wyoming Avenue","grades":["High"],"city":"Guernsey","state":"WY","zip":"82214","phone":"(307) 836-2745","low":"9","high":"12","students":"64","cost":"No","url":"http:\/\/www.guernseysunrise.org\/","review":"https:\/\/www.publicschoolreview.com\/guernsey-sunrise-high-school-profile","virtual":"No"},{"title":"Guernsey - Sunrise Junior High School","lat":"42.265735","lon":"-104.743944","type":"Traditional Public School","address":"555 South Wyoming Avenue","grades":["Middle"],"city":"Guernsey","state":"WY","zip":"82214","phone":"(307) 836-2745","low":"7","high":"8","students":"43","cost":"No","url":"http:\/\/www.guernseysunrise.org\/","review":"https:\/\/www.publicschoolreview.com\/guernsey-sunrise-junior-high-school-profile","virtual":"No"},{"title":"Hanna Elementary School","lat":"41.870467","lon":"-106.565617","type":"Traditional Public School","address":"300 3rd Street","grades":["Elementary","Middle"],"city":"Hanna","state":"WY","zip":"82327","phone":"(307) 325-6523","low":"K","high":"6","students":"61","cost":"No","url":"https:\/\/www.crb2.org\/index.php?pageID=327483_3","review":"https:\/\/www.publicschoolreview.com\/hanna-elementary-school-profile","virtual":"No"},{"title":"Harmony Elementary School","lat":"41.164782","lon":"-105.885292","type":"Traditional Public School","address":"20 Lewis Road","grades":["Elementary","Middle"],"city":"Laramie","state":"WY","zip":"82070","phone":"(307) 745-5720","low":"K","high":"6","students":"24","cost":"No","url":"https:\/\/www.acsd1.org\/hes\/","review":"https:\/\/www.publicschoolreview.com\/harmony-elementary-school-profile\/82070","virtual":"No"},{"title":"Harrison Elementary School","lat":"41.500176","lon":"-109.455334","type":"Traditional Public School","address":"1825 Alabama Drive","grades":["Elementary"],"city":"Green River","state":"WY","zip":"82935","phone":"(307) 872-1700","low":"K","high":"5","students":"227","cost":"No","url":"https:\/\/haes.swcsd2.org\/","review":"https:\/\/www.publicschoolreview.com\/harrison-elementary-school-profile\/82935","virtual":"No"},{"title":"Hayden Peak Academy","lat":"43.535452","lon":"-110.831061","type":"Traditional Public School","address":"3850 North Wilderness Drive","grades":["Elementary","Middle","High"],"city":"Wilson","state":"WY","zip":"83014","phone":"(307) 733-8210","low":"1","high":"12","students":"See website","cost":"No","url":"","review":"https:\/\/www.publicschoolreview.com\/hayden-peak-academy-profile","virtual":"No"},{"title":"Heart Mountain Academy","lat":"44.5231676","lon":"-109.0694535","type":"Traditional Public School","address":"919 Cody Avenue","grades":["High"],"city":"Cody","state":"WY","zip":"82414","phone":"(307) 527-1028","low":"9","high":"12","students":"28","cost":"No","url":"https:\/\/www.park6.org\/","review":"https:\/\/www.publicschoolreview.com\/heart-mountain-academy-profile","virtual":"No"},{"title":"Hebard Elementary School","lat":"41.125189","lon":"-104.800553","type":"Traditional Public School","address":"413 Seymour Avenue","grades":["Pre-K","Elementary","Middle"],"city":"Cheyenne","state":"WY","zip":"82007","phone":"(307) 771-2450","low":"PK","high":"6","students":"102","cost":"No","url":"https:\/\/hebard.laramie1.org\/","review":"https:\/\/www.publicschoolreview.com\/hebard-elementary-school-profile","virtual":"No"},{"title":"Hem Junior\/Senior High School","lat":"41.871536","lon":"-106.551455","type":"Traditional Public School","address":"701 South Adams Street","grades":["Middle","High"],"city":"Hanna","state":"WY","zip":"82327","phone":"(307) 325-6545","low":"7","high":"12","students":"97","cost":"No","url":"https:\/\/www.crb2.org\/index.php?pageID=327484_3","review":"https:\/\/www.publicschoolreview.com\/hem-junior-senior-high-school-profile","virtual":"No"},{"title":"Henderson Elementary School","lat":"41.141339","lon":"-104.780285","type":"Traditional Public School","address":"2820 Henderson Drive","grades":["Elementary","Middle"],"city":"Cheyenne","state":"WY","zip":"82001","phone":"(307) 771-2550","low":"K","high":"6","students":"253","cost":"No","url":"https:\/\/henderson.laramie1.org\/","review":"https:\/\/www.publicschoolreview.com\/henderson-elementary-school-profile\/82001","virtual":"No"},{"title":"Henry A. Coffeen Elementary School","lat":"44.78706","lon":"-106.948281","type":"Traditional Public School","address":"1053 South Sheridan Avenue","grades":["Elementary"],"city":"Sheridan","state":"WY","zip":"82801","phone":"(307) 674-9333","low":"K","high":"5","students":"301","cost":"No","url":"https:\/\/scsd2.com\/schools\/coffeen-elementary","review":"https:\/\/www.publicschoolreview.com\/henry-a-coffeen-elementary-school-profile","virtual":"No"},{"title":"Heritage Christian School","lat":"44.28985714","lon":"-105.4448","type":"Private School","address":"510 Wall Street Ct","grades":["Pre-K","Elementary","Middle","High"],"city":"Gillette","state":"WY","zip":"82718","phone":"(307) 686-1392","low":"PK","high":"12","students":"42","cost":"Yes","url":"http:\/\/hcsgillette.org\/","review":"https:\/\/www.privateschoolreview.com\/heritage-christian-school-profile\/82718","virtual":"No"},{"title":"Highland Park Elementary School","lat":"44.797281","lon":"-106.986764","type":"Traditional Public School","address":"2 Mydland Road","grades":["Elementary"],"city":"Sheridan","state":"WY","zip":"82801","phone":"(307) 672-2113","low":"K","high":"5","students":"319","cost":"No","url":"https:\/\/scsd2.com\/highland-park-elementary-school","review":"https:\/\/www.publicschoolreview.com\/highland-park-elementary-school-profile\/82801","virtual":"No"},{"title":"Hillcrest Elementary School","lat":"44.281899","lon":"-105.478879","type":"Traditional Public School","address":"1500 South Butler Spaeth Road","grades":["Elementary","Middle"],"city":"Gillette","state":"WY","zip":"82717","phone":"(307) 682-7291","low":"K","high":"6","students":"376","cost":"No","url":"https:\/\/www.ccsd.k12.wy.us\/","review":"https:\/\/www.publicschoolreview.com\/hillcrest-elementary-school-profile\/82717","virtual":"No"},{"title":"Hobbs Elementary School","lat":"41.17135","lon":"-104.813905","type":"Traditional Public School","address":"5710 Syracuse Road","grades":["Elementary","Middle"],"city":"Cheyenne","state":"WY","zip":"82009","phone":"(307) 771-2560","low":"K","high":"6","students":"336","cost":"No","url":"https:\/\/hobbs.laramie1.org\/","review":"https:\/\/www.publicschoolreview.com\/hobbs-elementary-school-profile","virtual":"No"},{"title":"Holy Name Catholic School","lat":"44.79611633","lon":"-106.9516","type":"Private School","address":"121 S Connor St","grades":["Pre-K","Elementary","Middle"],"city":"Sheridan","state":"WY","zip":"82801","phone":"(307) 672-2021","low":"PK","high":"8","students":"135","cost":"Yes","url":"https:\/\/www.hncswy.org\/","review":"https:\/\/www.privateschoolreview.com\/holy-name-catholic-school-profile\/82801","virtual":"No"},{"title":"Holy Spirit Catholic School","lat":"41.585095","lon":"-109.22151216","type":"Private School","address":"210 A St","grades":["Pre-K","Elementary","Middle"],"city":"Rock Springs","state":"WY","zip":"82901","phone":"(307) 362-6077","low":"PK","high":"6","students":"90","cost":"Yes","url":"https:\/\/www.rshscs.com\/","review":"","virtual":"No"},{"title":"Horizon Alternative School","lat":"41.257877","lon":"-110.983576","type":"Traditional Public School","address":"164 Yellowcreek Road","grades":["Middle","High"],"city":"Evanston","state":"WY","zip":"82931","phone":"(307) 789-0122","low":"7","high":"12","students":"61","cost":"No","url":"http:\/\/www.uinta1.com\/horizonjrsr.cfm","review":"https:\/\/www.publicschoolreview.com\/horizon-alternative-school-profile","virtual":"No"},{"title":"Hot Springs County High School","lat":"43.650401","lon":"-108.20311","type":"Traditional Public School","address":"231 Park Street","grades":["High"],"city":"Thermopolis","state":"WY","zip":"82443","phone":"(307) 864-6511","low":"9","high":"12","students":"199","cost":"No","url":"https:\/\/hschs.hotsprings1.org\/","review":"https:\/\/www.publicschoolreview.com\/hot-springs-county-high-school-profile","virtual":"No"},{"title":"Hulett School","lat":"44.6845492","lon":"-104.6016104","type":"Traditional Public School","address":"429 Sager","grades":["Elementary","Middle","High"],"city":"Hulett","state":"WY","zip":"82720","phone":"(307) 467-5231","low":"K","high":"12","students":"160","cost":"No","url":"https:\/\/hulett.crook1.com\/","review":"https:\/\/www.publicschoolreview.com\/hulett-school-profile","virtual":"No"},{"title":"Indian Paintbrush Elementary School","lat":"41.325832","lon":"-105.560486","type":"Traditional Public School","address":"1653 North 28th Street","grades":["Elementary"],"city":"Laramie","state":"WY","zip":"82072","phone":"(307) 721-4490","low":"K","high":"5","students":"288","cost":"No","url":"https:\/\/www.acsd1.org\/ipes\/","review":"https:\/\/www.publicschoolreview.com\/indian-paintbrush-elementary-school-profile","virtual":"No"},{"title":"Jackson Elementary School","lat":"43.481867","lon":"-110.757128","type":"Traditional Public School","address":"200 N Willow Street","grades":["Elementary"],"city":"Jackson","state":"WY","zip":"83001","phone":"(307) 733-5302","low":"K","high":"5","students":"265","cost":"No","url":"https:\/\/www.tcsd.org:443\/6\/Home","review":"https:\/\/www.publicschoolreview.com\/jackson-elementary-school-profile\/83001","virtual":"No"},{"title":"Jackson Hole Christian Academy","lat":"43.4642","lon":"-110.804","type":"Private School","address":"1450 S Park Loop Rd","grades":["Elementary","Middle","High"],"city":"Jackson","state":"WY","zip":"83001","phone":"(307) 733-1941","low":"K","high":"12","students":"See website","cost":"Yes","url":"https:\/\/www.cbcjacksonhole.org\/","review":"https:\/\/www.privateschoolreview.com\/jackson-hole-christian-academy-profile","virtual":"No"},{"title":"Jackson Hole Classical Academy","lat":"43.443172","lon":"-110.811625","type":"Private School","address":"2500 South Park Loop Road","grades":["Elementary","Middle","High"],"city":"Jackson","state":"WY","zip":"83001","phone":"(307) 201-5040","low":"K","high":"12","students":"See website","cost":"Yes","url":"http:\/\/jhclassical.org","review":"https:\/\/www.privateschoolreview.com\/jackson-hole-classical-academy-profile","virtual":"No"},{"title":"Jackson Hole Community School","lat":"43.4714","lon":"-110.7632","type":"Private School","address":"1715 High School Road, #240","grades":["High"],"city":"Jackson","state":"WY","zip":"83001","phone":"(307) 733-5427","low":"9","high":"12","students":"83","cost":"Yes","url":"https:\/\/www.jhcommunityschool.org\/","review":"https:\/\/www.privateschoolreview.com\/jackson-hole-community-school-profile","virtual":"No"},{"title":"Jackson Hole High School","lat":"43.458381","lon":"-110.807374","type":"Traditional Public School","address":"1910 West High School Road","grades":["High"],"city":"Jackson","state":"WY","zip":"83001","phone":"(307) 732-3700","low":"9","high":"12","students":"729","cost":"No","url":"https:\/\/www.tcsd.org:443\/2\/Home","review":"https:\/\/www.publicschoolreview.com\/jackson-hole-high-school-profile","virtual":"No"},{"title":"Jackson Hole Middle School","lat":"43.465596","lon":"-110.795601","type":"Traditional Public School","address":"1230 South Park Loop Road","grades":["Middle"],"city":"Jackson","state":"WY","zip":"83001","phone":"(307) 733-4234","low":"6","high":"8","students":"676","cost":"No","url":"https:\/\/www.tcsd.org:443\/3\/Home","review":"https:\/\/www.publicschoolreview.com\/jackson-hole-middle-school-profile","virtual":"No"},{"title":"Jeffrey City Elementary School","lat":"42.493022","lon":"-107.832696","type":"Traditional Public School","address":"375 Bob Adams","grades":["Elementary","Middle"],"city":"Lander","state":"WY","zip":"82520","phone":"(307) 544-2254","low":"K","high":"6","students":"See website","cost":"No","url":"https:\/\/www.landerschools.org\/","review":"https:\/\/www.publicschoolreview.com\/jeffrey-city-elementary-school-profile","virtual":"No"},{"title":"Jessup Elementary School","lat":"41.176972","lon":"-104.83893","type":"Traditional Public School","address":"6113 Evers Boulevard","grades":["Elementary","Middle"],"city":"Cheyenne","state":"WY","zip":"82009","phone":"(307) 771-2570","low":"K","high":"6","students":"267","cost":"No","url":"https:\/\/jessup.laramie1.org\/","review":"https:\/\/www.publicschoolreview.com\/jessup-elementary-school-profile\/82009","virtual":"No"},{"title":"John C. Schiffer Collaborative School","lat":"44.803981","lon":"-106.964479","type":"Traditional Public School","address":"3059 Coffeen Ave, Science Cent","grades":["High"],"city":"Sheridan","state":"WY","zip":"82801","phone":"(307) 673-8730","low":"9","high":"12","students":"54","cost":"No","url":"http:\/\/www.scsd2.com\/ftmackenzie.cfm?subpage=19309","review":"https:\/\/www.publicschoolreview.com\/john-c-schiffer-collaborative-school-profile","virtual":"No"},{"title":"John Paul Ii Catholic School At St Matthew's","lat":"44.2853528","lon":"-105.4790146","type":"Private School","address":"1000 Butler Spaeth Rd","grades":["Pre-K","Elementary","Middle"],"city":"Gillette","state":"WY","zip":"82716","phone":"(307) 686-4114","low":"PK","high":"7","students":"235","cost":"Yes","url":"https:\/\/sites.google.com\/view\/johnpaulii","review":"https:\/\/www.privateschoolreview.com\/john-paul-ii-catholic-school-at-st-matthew-s-profile","virtual":"No"},{"title":"Johnson Junior High School","lat":"41.110091","lon":"-104.820226","type":"Traditional Public School","address":"1236 West Allison Road","grades":["Middle"],"city":"Cheyenne","state":"WY","zip":"82007","phone":"(307) 771-2640","low":"7","high":"8","students":"690","cost":"No","url":"https:\/\/johnson.laramie1.org\/","review":"https:\/\/www.publicschoolreview.com\/johnson-junior-high-school-profile","virtual":"No"},{"title":"Journey Elementary School","lat":"42.841321","lon":"-106.366621","type":"Traditional Public School","address":"2014 Hickory Street","grades":["Pre-K","Elementary"],"city":"Casper","state":"WY","zip":"82604","phone":"(307) 253-3700","low":"PK","high":"5","students":"420","cost":"No","url":"","review":"https:\/\/www.publicschoolreview.com\/journey-elementary-school-profile","virtual":"No"},{"title":"Kaycee School","lat":"44.122611","lon":"-106.561068","type":"Traditional Public School","address":"235 Holt Street","grades":["Elementary","Middle","High"],"city":"Buffalo","state":"WY","zip":"82834","phone":"(307) 738-2323","low":"K","high":"12","students":"109","cost":"No","url":"https:\/\/www.jcsd1.us\/","review":"https:\/\/www.publicschoolreview.com\/kaycee-school-profile","virtual":"No"},{"title":"Kelly Elementary School","lat":"43.621818","lon":"-110.624344","type":"Traditional Public School","address":"4th And Main Street","grades":["Elementary"],"city":"Jackson","state":"WY","zip":"83001","phone":"(307) 733-2955","low":"K","high":"5","students":"53","cost":"No","url":"https:\/\/www.tcsd.org:443\/","review":"https:\/\/www.publicschoolreview.com\/kelly-elementary-school-profile\/83001","virtual":"No"},{"title":"Kelly Walsh High School","lat":"42.839014","lon":"-106.280431","type":"Traditional Public School","address":"3500 East 12th Street","grades":["High"],"city":"Casper","state":"WY","zip":"82609","phone":"(307) 253-2000","low":"9","high":"12","students":"1918","cost":"No","url":"https:\/\/kellywalsh.org\/\/","review":"https:\/\/www.publicschoolreview.com\/kelly-walsh-high-school-profile","virtual":"No"},{"title":"Kemmerer Junior Senior High School","lat":"41.786257","lon":"-110.54321","type":"Traditional Public School","address":"1525 3rd West Ave","grades":["Middle","High"],"city":"Diamondville","state":"WY","zip":"83116","phone":"(307) 877-6991","low":"7","high":"12","students":"255","cost":"No","url":"https:\/\/www.rangers1.net\/276994_2","review":"https:\/\/www.publicschoolreview.com\/kemmerer-junior-senior-high-school-profile","virtual":"No"},{"title":"La Barge Elementary School","lat":"42.539917","lon":"-110.109945","type":"Traditional Public School","address":"106 O Avenue","grades":["Elementary"],"city":"Big Piney","state":"WY","zip":"83113","phone":"(307) 386-2227","low":"K","high":"5","students":"47","cost":"No","url":"https:\/\/www.sublette9.org\/schools\/labarge-elementary-school","review":"https:\/\/www.publicschoolreview.com\/la-barge-elementary-school-profile","virtual":"No"},{"title":"La Grange Elementary School","lat":"41.641509","lon":"-104.168393","type":"Traditional Public School","address":"Educational Drive","grades":["Elementary","Middle"],"city":"Lagrange","state":"WY","zip":"82221","phone":"(307) 834-2311","low":"K","high":"6","students":"16","cost":"No","url":"https:\/\/www.goshen1.org\/","review":"https:\/\/www.publicschoolreview.com\/la-grange-elementary-school-profile\/82221","virtual":"No"},{"title":"Lakeview Elementary School","lat":"44.298149","lon":"-105.498693","type":"Traditional Public School","address":"1017 Gabriel Drive","grades":["Elementary","Middle"],"city":"Gillette","state":"WY","zip":"82717","phone":"(307) 682-7293","low":"K","high":"6","students":"428","cost":"No","url":"https:\/\/sites.google.com\/a\/ccsd1schools.net\/lakeview\/welcome","review":"https:\/\/www.publicschoolreview.com\/lakeview-elementary-school-profile\/82717","virtual":"No"},{"title":"Lance Creek Elementary School","lat":"43.043929","lon":"-104.699813","type":"Traditional Public School","address":"325 20 Mile Road","grades":["Elementary","Middle"],"city":"Lance Creek","state":"WY","zip":"82222","phone":"(307) 334-3403","low":"K","high":"6","students":"See website","cost":"No","url":"https:\/\/www.growingluskleaders.org\/o\/ncsd\/page\/lance-creek-school","review":"https:\/\/www.publicschoolreview.com\/lance-creek-elementary-school-profile","virtual":"No"},{"title":"Lander Middle School","lat":"42.833236","lon":"-108.742636","type":"Traditional Public School","address":"755 Jefferson Street","grades":["Middle"],"city":"Lander","state":"WY","zip":"82520","phone":"(307) 332-4040","low":"6","high":"8","students":"418","cost":"No","url":"https:\/\/www.landerschools.org\/category\/schools\/lander-middle-school\/","review":"https:\/\/www.publicschoolreview.com\/lander-middle-school-profile","virtual":"No"},{"title":"Lander Valley High School","lat":"42.839018","lon":"-108.744938","type":"Traditional Public School","address":"350 Baldwin Creek Road","grades":["High"],"city":"Lander","state":"WY","zip":"82520","phone":"(307) 332-4433","low":"9","high":"12","students":"547","cost":"No","url":"https:\/\/www.landerschools.org\/Lander-Valley-HS","review":"https:\/\/www.publicschoolreview.com\/lander-valley-high-school-profile","virtual":"No"},{"title":"Laramie High School","lat":"41.323295","lon":"-105.581839","type":"Traditional Public School","address":"1710 Boulder Drive","grades":["High"],"city":"Laramie","state":"WY","zip":"82070","phone":"(307) 721-4420","low":"9","high":"12","students":"1103","cost":"No","url":"https:\/\/www.acsd1.org\/lhs\/","review":"https:\/\/www.publicschoolreview.com\/laramie-high-school-profile","virtual":"No"},{"title":"Laramie Middle School","lat":"41.323825","lon":"-105.567316","type":"Traditional Public School","address":"1355 North 22nd","grades":["Middle"],"city":"Laramie","state":"WY","zip":"82072","phone":"(307) 721-4430","low":"6","high":"8","students":"749","cost":"No","url":"https:\/\/lms.acsd1.org\/en-US","review":"https:\/\/www.publicschoolreview.com\/laramie-middle-school-profile","virtual":"No"},{"title":"Laramie Montessori Charter School","lat":"41.3114734","lon":"-105.600427","type":"Public Charter School","address":"608 South 4th Street","grades":["Elementary","Middle"],"city":"Laramie","state":"WY","zip":"82070","phone":"(307) 742-2554","low":"K","high":"6","students":"63","cost":"No","url":"http:\/\/www.laramiemontessori.org\/","review":"https:\/\/www.publicschoolreview.com\/laramie-montessori-charter-school-profile","virtual":"No"},{"title":"Laura E Mason Christian Academy","lat":"41.17467774","lon":"-104.81799236","type":"Private School","address":"723 Storey Blvd","grades":["Elementary","Middle"],"city":"Cheyenne","state":"WY","zip":"82009","phone":"(307) 638-2457","low":"K","high":"7","students":"See website","cost":"Yes","url":"https:\/\/www.cheyennesdachurch.org\/","review":"https:\/\/www.privateschoolreview.com\/laura-e-mason-christian-academy-profile","virtual":"No"},{"title":"Laura Irwin Elementary School","lat":"44.37958","lon":"-108.05049","type":"Traditional Public School","address":"1211 W. B Street","grades":["Elementary"],"city":"Basin","state":"WY","zip":"82410","phone":"(307) 568-2488","low":"K","high":"5","students":"114","cost":"No","url":"https:\/\/lie.bgh4.org\/","review":"https:\/\/www.publicschoolreview.com\/laura-irwin-elementary-school-profile","virtual":"No"},{"title":"Learning Tree Christian School","lat":"44.14465363","lon":"-106.71076004","type":"Private School","address":"820 W Fetterman St Buffalo","grades":["Pre-K","Elementary"],"city":"Buffalo","state":"WY","zip":"82834","phone":"(307) 684-7509","low":"PK","high":"K","students":"91","cost":"Yes","url":"https:\/\/wyolearningtree.org\/","review":"","virtual":"No"},{"title":"Lebhart Elementary School","lat":"41.131638","lon":"-104.772388","type":"Traditional Public School","address":"807 Coolidge Street","grades":["Pre-K","Elementary"],"city":"Cheyenne","state":"WY","zip":"82001","phone":"(307) 771-2614","low":"PK","high":"2","students":"104","cost":"No","url":"https:\/\/lebhart.laramie1.org\/","review":"https:\/\/www.publicschoolreview.com\/lebhart-elementary-school-profile","virtual":"No"},{"title":"Libbey Elementary School","lat":"42.059015","lon":"-104.958963","type":"Traditional Public School","address":"1350 Oak Street","grades":["Elementary"],"city":"Wheatland","state":"WY","zip":"82201","phone":"(307) 322-3836","low":"K","high":"2","students":"183","cost":"No","url":"https:\/\/libbey.platte1.org\/","review":"https:\/\/www.publicschoolreview.com\/libbey-elementary-school-profile","virtual":"No"},{"title":"Lincoln Elementary School","lat":"42.860185","lon":"-106.316278","type":"Traditional Public School","address":"945 North Jane Street","grades":["Pre-K","Elementary"],"city":"Casper","state":"WY","zip":"82601","phone":"(307) 253-4100","low":"PK","high":"5","students":"425","cost":"No","url":"https:\/\/www.natronaschools.org\/apps\/pages\/index.jsp?uREC_ID=2043112&type=d&pREC_ID=2116166","review":"https:\/\/www.publicschoolreview.com\/lincoln-elementary-school-profile\/82601","virtual":"No"},{"title":"Lincoln Elementary School","lat":"42.057235","lon":"-104.166704","type":"Traditional Public School","address":"1402 East P Street","grades":["Elementary"],"city":"Torrington","state":"WY","zip":"82240","phone":"(307) 532-4003","low":"K","high":"2","students":"254","cost":"No","url":"https:\/\/www.goshen1.org\/","review":"https:\/\/www.publicschoolreview.com\/lincoln-elementary-school-profile\/82240","virtual":"No"},{"title":"Lincoln Middle School","lat":"41.510695","lon":"-109.464669","type":"Traditional Public School","address":"350 Monroe Avenue","grades":["Middle"],"city":"Green River","state":"WY","zip":"82935","phone":"(307) 872-4400","low":"6","high":"8","students":"625","cost":"No","url":"https:\/\/lnms.swcsd2.org\/","review":"https:\/\/www.publicschoolreview.com\/lincoln-middle-school-profile\/82935","virtual":"No"},{"title":"Lingle - Ft. Laramie Elementary School","lat":"42.135888","lon":"-104.341151","type":"Traditional Public School","address":"404 3rd Street","grades":["Elementary"],"city":"Lingle","state":"WY","zip":"82223","phone":"(307) 837-2254","low":"K","high":"5","students":"100","cost":"No","url":"https:\/\/www.goshen1.org\/","review":"https:\/\/www.publicschoolreview.com\/lingle-ft-laramie-elementary-school-profile","virtual":"No"},{"title":"Lingle - Ft. Laramie High School","lat":"42.135888","lon":"-104.341151","type":"Traditional Public School","address":"404 3rd Street","grades":["High"],"city":"Lingle","state":"WY","zip":"82223","phone":"(307) 837-2296","low":"9","high":"12","students":"83","cost":"No","url":"https:\/\/www.goshen1.org\/","review":"https:\/\/www.publicschoolreview.com\/lingle-ft-laramie-high-school-profile","virtual":"No"},{"title":"Lingle - Ft. Laramie Middle School","lat":"42.135888","lon":"-104.341151","type":"Traditional Public School","address":"404 3rd Street","grades":["Middle"],"city":"Lingle","state":"WY","zip":"82223","phone":"(307) 837-2296","low":"6","high":"8","students":"77","cost":"No","url":"https:\/\/www.goshen1.org\/","review":"https:\/\/www.publicschoolreview.com\/lingle-ft-laramie-middle-school-profile","virtual":"No"},{"title":"Little Powder Elementary School","lat":"44.851266","lon":"-105.371316","type":"Traditional Public School","address":"15902 Us Highway 59 North","grades":["Elementary","Middle"],"city":"Weston","state":"WY","zip":"82731","phone":"(307) 682-2725","low":"K","high":"8","students":"23","cost":"No","url":"https:\/\/sites.google.com\/a\/ccsd1schools.net\/lpschool\/","review":"https:\/\/www.publicschoolreview.com\/little-powder-elementary-school-profile","virtual":"No"},{"title":"Little Snake River Valley School","lat":"41.03666","lon":"-107.65551","type":"Traditional Public School","address":"333 North Street","grades":["Elementary","Middle","High"],"city":"Baggs","state":"WY","zip":"82321","phone":"(307) 383-2185","low":"K","high":"12","students":"197","cost":"No","url":"https:\/\/lsrv.crb1.net\/","review":"https:\/\/www.publicschoolreview.com\/little-snake-river-valley-school-profile","virtual":"No"},{"title":"Lovell Elementary School","lat":"44.835708","lon":"-108.393529","type":"Traditional Public School","address":"520 Shoshone","grades":["Elementary"],"city":"Lovell","state":"WY","zip":"82431","phone":"(307) 548-2247","low":"K","high":"5","students":"335","cost":"No","url":"https:\/\/www.bgh2.org\/","review":"https:\/\/www.publicschoolreview.com\/lovell-elementary-school-profile\/82431","virtual":"No"},{"title":"Lovell High School","lat":"44.837417","lon":"-108.401743","type":"Traditional Public School","address":"502 Hampshire Avenue","grades":["High"],"city":"Lovell","state":"WY","zip":"82431","phone":"(307) 548-2256","low":"9","high":"12","students":"229","cost":"No","url":"https:\/\/hs.bgh2.org\/","review":"https:\/\/www.publicschoolreview.com\/lovell-high-school-profile\/82431","virtual":"No"},{"title":"Lovell Middle School","lat":"44.830164","lon":"-108.398335","type":"Traditional Public School","address":"325 West 9th","grades":["Middle"],"city":"Lovell","state":"WY","zip":"82431","phone":"(307) 548-6553","low":"6","high":"8","students":"163","cost":"No","url":"https:\/\/ms.bgh2.org\/","review":"https:\/\/www.publicschoolreview.com\/lovell-middle-school-profile","virtual":"No"},{"title":"Lusk Elementary School","lat":"42.760992","lon":"-104.447874","type":"Traditional Public School","address":"425 South Maple","grades":["Pre-K","Elementary"],"city":"Lusk","state":"WY","zip":"82225","phone":"(307) 334-2224","low":"PK","high":"5","students":"601","cost":"No","url":"https:\/\/www.growingluskleaders.org\/o\/ncsd\/page\/lusk-elementary-middle-school","review":"https:\/\/www.publicschoolreview.com\/lusk-elementary-school-profile","virtual":"No"},{"title":"Lusk Middle School","lat":"42.760992","lon":"-104.447874","type":"Traditional Public School","address":"425 South Maple","grades":["Middle"],"city":"Lusk","state":"WY","zip":"82225","phone":"(307) 334-2224","low":"6","high":"8","students":"412","cost":"No","url":"https:\/\/www.growingluskleaders.org\/o\/ncsd\/page\/lusk-elementary-middle-school","review":"https:\/\/www.publicschoolreview.com\/lusk-middle-school-profile","virtual":"No"},{"title":"Lyman High School","lat":"41.332121","lon":"-110.272107","type":"Traditional Public School","address":"1305 East Clark Street","grades":["High"],"city":"Lyman","state":"WY","zip":"82937","phone":"(307) 786-4100","low":"9","high":"12","students":"238","cost":"No","url":"http:\/\/lhs.uinta6.k12.wy.us\/pages\/Lyman_High_School","review":"https:\/\/www.publicschoolreview.com\/lyman-high-school-profile","virtual":"No"},{"title":"Lyman Intermediate School","lat":"41.327579","lon":"-110.292918","type":"Traditional Public School","address":"116 North Main","grades":["Elementary","Middle"],"city":"Lyman","state":"WY","zip":"82937","phone":"(307) 786-4100","low":"5","high":"8","students":"234","cost":"No","url":"http:\/\/lis.uinta6.k12.wy.us\/pages\/Lyman_Intermediate_School","review":"https:\/\/www.publicschoolreview.com\/lyman-intermediate-school-profile","virtual":"No"},{"title":"Mae Olson Education Center","lat":"41.1307","lon":"-105.5361","type":"Private School","address":"4989 North Third St.","grades":["Elementary","Middle","High"],"city":"Laramie","state":"WY","zip":"82072","phone":"(307) 721-1549","low":"5","high":"12","students":"42","cost":"Yes","url":"","review":"","virtual":"No"},{"title":"Manor Heights Elementary School","lat":"42.835484","lon":"-106.284603","type":"Traditional Public School","address":"3201 East 15th Street","grades":["Elementary"],"city":"Casper","state":"WY","zip":"82609","phone":"(307) 253-1800","low":"K","high":"5","students":"303","cost":"No","url":"https:\/\/www.natronaschools.org\/apps\/pages\/index.jsp?uREC_ID=2043112&type=d&pREC_ID=2116223","review":"https:\/\/www.publicschoolreview.com\/manor-heights-elementary-school-profile","virtual":"No"},{"title":"Martin Luther Grammar School","lat":"44.8065","lon":"-106.97507958","type":"Private School","address":"1300 W 5th St","grades":["Elementary","Middle"],"city":"Sheridan","state":"WY","zip":"82801","phone":"(307) 674-6434","low":"K","high":"8","students":"15","cost":"Yes","url":"https:\/\/wyoschool.faith\/","review":"https:\/\/www.privateschoolreview.com\/martin-luther-grammar-school-profile","virtual":"No"},{"title":"Mccormick Junior High School","lat":"41.17406","lon":"-104.833422","type":"Traditional Public School","address":"6000 Education Drive","grades":["Middle"],"city":"Cheyenne","state":"WY","zip":"82009","phone":"(307) 771-2650","low":"7","high":"8","students":"680","cost":"No","url":"https:\/\/mccormick.laramie1.org\/","review":"https:\/\/www.publicschoolreview.com\/mccormick-junior-high-school-profile\/82009","virtual":"No"},{"title":"Mckinnon Elementary School","lat":"41.023134","lon":"-109.908557","type":"Traditional Public School","address":"Us Highway 414","grades":["Elementary"],"city":"Mc Kinnon","state":"WY","zip":"82938","phone":"(307) 874-6199","low":"K","high":"5","students":"15","cost":"No","url":"https:\/\/mkes.swcsd2.org\/","review":"https:\/\/www.publicschoolreview.com\/mckinnon-elementary-school-profile","virtual":"No"},{"title":"Meadow Lark Elementary School","lat":"41.17591","lon":"-104.778823","type":"Traditional Public School","address":"6325 Chief Washakie Avenue","grades":["Elementary","Middle"],"city":"Cheyenne","state":"WY","zip":"82009","phone":"(307) 771-2260","low":"5","high":"6","students":"539","cost":"No","url":"http:\/\/meadowlark.www.laramie1.org","review":"https:\/\/www.publicschoolreview.com\/meadow-lark-elementary-school-profile","virtual":"No"},{"title":"Meadowlark Academy","lat":"41.160939","lon":"-104.65141","type":"Traditional Public School","address":"3304 E I-80 Service Rd","grades":["Middle","High"],"city":"Cheyenne","state":"WY","zip":"82009","phone":"(307) 829-7355","low":"6","high":"12","students":"See website","cost":"No","url":"http:\/\/meadowlark-academy.com\/","review":"https:\/\/www.publicschoolreview.com\/meadowlark-academy-profile","virtual":"No"},{"title":"Meadowlark Elementary School","lat":"44.805277","lon":"-106.974355","type":"Traditional Public School","address":"1410 Desmet Avenue","grades":["Elementary"],"city":"Sheridan","state":"WY","zip":"82801","phone":"(307) 672-3786","low":"K","high":"5","students":"331","cost":"No","url":"https:\/\/scsd2.com\/meadowlark-elementary-school","review":"https:\/\/www.publicschoolreview.com\/meadowlark-elementary-school-profile\/82801","virtual":"No"},{"title":"Meadowlark Elementary School","lat":"44.288319","lon":"-105.491942","type":"Traditional Public School","address":"816 East 7th Street","grades":["Elementary","Middle"],"city":"Gillette","state":"WY","zip":"82717","phone":"(307) 682-4740","low":"K","high":"6","students":"250","cost":"No","url":"http:\/\/meadowlarkelementary.blogspot.com\/","review":"https:\/\/www.publicschoolreview.com\/meadowlark-elementary-school-profile\/82717","virtual":"No"},{"title":"Meadowlark Elementary School","lat":"44.3395","lon":"-106.701799","type":"Traditional Public School","address":"550 South Burritt Avenue","grades":["Elementary"],"city":"Buffalo","state":"WY","zip":"82834","phone":"(307) 684-9518","low":"K","high":"2","students":"225","cost":"No","url":"https:\/\/www.jcsd1.us\/o\/meadowlark","review":"https:\/\/www.publicschoolreview.com\/meadowlark-elementary-school-profile\/82834","virtual":"No"},{"title":"Medicine Bow Elementary School","lat":"41.90109","lon":"-106.2083","type":"Traditional Public School","address":"204 Sage Street","grades":["Elementary","Middle"],"city":"Medicine Bow","state":"WY","zip":"82329","phone":"(307) 379-2345","low":"K","high":"6","students":"11","cost":"No","url":"https:\/\/www.crb2.org\/index.php?pageID=327485_3","review":"https:\/\/www.publicschoolreview.com\/medicine-bow-elementary-school-profile","virtual":"No"},{"title":"Meeteetse School","lat":"44.15452","lon":"-108.872313","type":"Traditional Public School","address":"2107 Idaho","grades":["Pre-K","Elementary","Middle","High"],"city":"Meeteetse","state":"WY","zip":"82433","phone":"(307) 868-2501","low":"PK","high":"12","students":"176","cost":"No","url":"https:\/\/www.park16.k12.wy.us\/","review":"https:\/\/www.publicschoolreview.com\/meeteetse-school-profile","virtual":"No"},{"title":"Midwest School","lat":"43.410152","lon":"-106.273022","type":"Traditional Public School","address":"256 Lewis","grades":["Pre-K","Elementary","Middle","High"],"city":"Midwest","state":"WY","zip":"82643","phone":"(307) 253-3500","low":"PK","high":"12","students":"135","cost":"No","url":"https:\/\/sites.google.com\/myncsd.org\/midwestschool\/home","review":"https:\/\/www.publicschoolreview.com\/midwest-school-profile","virtual":"No"},{"title":"Miller Elementary School","lat":"41.147828","lon":"-104.81826","type":"Traditional Public School","address":"3501 Evans Avenue","grades":["Elementary","Middle"],"city":"Cheyenne","state":"WY","zip":"82001","phone":"(307) 771-2376","low":"4","high":"6","students":"85","cost":"No","url":"https:\/\/miller.laramie1.org\/","review":"https:\/\/www.publicschoolreview.com\/miller-elementary-school-profile\/82001","virtual":"No"},{"title":"Monroe Elementary School","lat":"41.510909","lon":"-109.46917","type":"Traditional Public School","address":"250 Monroe Avenue","grades":["Elementary"],"city":"Green River","state":"WY","zip":"82935","phone":"(307) 872-4000","low":"K","high":"5","students":"301","cost":"No","url":"https:\/\/www.swcsd2.org\/","review":"https:\/\/www.publicschoolreview.com\/monroe-elementary-school-profile\/82935","virtual":"No"},{"title":"Montessori School Of Casper","lat":"42.846388","lon":"-106.328925","type":"Private School","address":"417 S Elm St.","grades":["Pre-K","Elementary"],"city":"Casper","state":"WY","zip":"82601","phone":"(307) 265-0249","low":"PK","high":"K","students":"53","cost":"Yes","url":"http:\/\/www.montessoriofcasper.com","review":"https:\/\/www.privateschoolreview.com\/montessori-school-of-casper-profile","virtual":"No"},{"title":"Montessori School Of Cheyenne","lat":"41.16892283","lon":"-104.8284","type":"Private School","address":"5401 Yellowstone Rd","grades":["Pre-K","Elementary"],"city":"Cheyenne","state":"WY","zip":"82009","phone":"(307) 635-2012","low":"PK","high":"K","students":"126","cost":"Yes","url":"http:\/\/www.montessorischoolofcheyenne.org\/","review":"https:\/\/www.privateschoolreview.com\/montessori-school-of-cheyenne-profile","virtual":"No"},{"title":"Moorcroft High School","lat":"44.2590561","lon":"-104.9416052","type":"Traditional Public School","address":"47 Country Lane","grades":["High"],"city":"Moorcroft","state":"WY","zip":"82721","phone":"(307) 756-3446","low":"9","high":"12","students":"156","cost":"No","url":"https:\/\/mhs.crook1.com\/","review":"https:\/\/www.publicschoolreview.com\/moorcroft-high-school-profile","virtual":"No"},{"title":"Moorcroft K - 8","lat":"44.2623971","lon":"-104.9473857","type":"Traditional Public School","address":"13 Country Lane","grades":["Elementary","Middle"],"city":"Moorcroft","state":"WY","zip":"82721","phone":"(307) 756-3781","low":"K","high":"8","students":"463","cost":"No","url":"https:\/\/www.crook1.com\/","review":"https:\/\/www.publicschoolreview.com\/moorcroft-k-8-profile","virtual":"No"},{"title":"Moran Elementary School","lat":"43.8416","lon":"-110.50744","type":"Traditional Public School","address":"501 Moran Court","grades":["Elementary"],"city":"Jackson","state":"WY","zip":"83001","phone":"(307) 543-2438","low":"K","high":"5","students":"14","cost":"No","url":"https:\/\/www.tcsd.org:443\/8\/Home","review":"https:\/\/www.publicschoolreview.com\/moran-elementary-school-profile\/83001","virtual":"No"},{"title":"Moss Agate Elementary School","lat":"42.669941","lon":"-105.645113","type":"Traditional Public School","address":"28 Windy Ridge Road","grades":["Elementary","Middle"],"city":"Douglas","state":"WY","zip":"82633","phone":"(307) 358-3221","low":"K","high":"8","students":"See website","cost":"No","url":"","review":"https:\/\/www.publicschoolreview.com\/moss-agate-elementary-school-profile","virtual":"No"},{"title":"Mount Hope Lutheran School","lat":"42.82685074","lon":"-106.35122847","type":"Private School","address":"2300 S Hickory St","grades":["Pre-K","Elementary","Middle"],"city":"Casper","state":"WY","zip":"82604","phone":"(307) 234-6865","low":"NS","high":"8","students":"54","cost":"Yes","url":"https:\/\/mounthopecasper.com\/school\/","review":"https:\/\/www.privateschoolreview.com\/mount-hope-lutheran-school-profile","virtual":"No"},{"title":"Mountain Academy Of Teton Science Schools","lat":"43.4910026","lon":"-110.8107512","type":"Private School","address":"700 Coyote Canyon Rd.","grades":["Pre-K","Elementary","Middle","High"],"city":"Jackson","state":"WY","zip":"83001","phone":"(307) 733-3729","low":"NS","high":"12","students":"190","cost":"Yes","url":"https:\/\/www.tetonscience.org\/programs\/mountain-academy","review":"https:\/\/www.privateschoolreview.com\/mountain-academy-of-teton-science-schools-profile","virtual":"No"},{"title":"Mountain Road Christian Academy","lat":"42.82094105","lon":"-106.32906598","type":"Private School","address":"2657 Casper Mountain Rd","grades":["Elementary","Middle"],"city":"Casper","state":"WY","zip":"82601","phone":"(307) 235-2859","low":"K","high":"8","students":"11","cost":"Yes","url":"https:\/\/www.facebook.com\/MountainRoadChristianAcademy\/","review":"https:\/\/www.privateschoolreview.com\/mountain-road-christian-academy-profile","virtual":"No"},{"title":"Mountain View High School","lat":"41.274508","lon":"-110.331603","type":"Traditional Public School","address":"330 7th Street","grades":["High"],"city":"Mountain View","state":"WY","zip":"82939","phone":"(307) 782-6340","low":"9","high":"12","students":"267","cost":"No","url":"https:\/\/mvhs.uinta4.com\/","review":"https:\/\/www.publicschoolreview.com\/mountain-view-high-school-profile\/82939","virtual":"No"},{"title":"Mountain View K - 8","lat":"41.270639","lon":"-110.339165","type":"Traditional Public School","address":"3100 County Road 241","grades":["Elementary","Middle"],"city":"Mountain View","state":"WY","zip":"82939","phone":"(307) 782-6202","low":"K","high":"8","students":"518","cost":"No","url":"https:\/\/www.uinta4.com\/","review":"https:\/\/www.publicschoolreview.com\/mountain-view-k-8-profile","virtual":"No"},{"title":"Munger Mountain Elementary School","lat":"43.370087","lon":"-110.743276","type":"Traditional Public School","address":"7605 South Highway 89","grades":["Elementary"],"city":"Jackson","state":"WY","zip":"83001","phone":"(307) 733-3020","low":"K","high":"5","students":"433","cost":"No","url":"https:\/\/www.tcsd.org:443\/9\/home","review":"https:\/\/www.publicschoolreview.com\/munger-mountain-elementary-school-profile","virtual":"No"},{"title":"Natrona County High School","lat":"42.841362","lon":"-106.329403","type":"Traditional Public School","address":"930 South Elm","grades":["High"],"city":"Casper","state":"WY","zip":"82601","phone":"(307) 253-1700","low":"9","high":"12","students":"1717","cost":"No","url":"https:\/\/www.natronacountyhs.org\/","review":"https:\/\/www.publicschoolreview.com\/natrona-county-high-school-profile","virtual":"No"},{"title":"Natural Bridge Academy","lat":"42.854825","lon":"-105.871977","type":"Traditional Public School","address":"412 S. 4th Street","grades":["Pre-K","Elementary","Middle","High"],"city":"Glenrock","state":"WY","zip":"82637","phone":"(307) 733-8210","low":"PK","high":"12","students":"See website","cost":"No","url":"","review":"https:\/\/www.publicschoolreview.com\/natural-bridge-academy-profile\/82637","virtual":"No"},{"title":"New Frontier High School","lat":"41.788191","lon":"-110.546103","type":"Traditional Public School","address":"1401 Lincoln Heights Drive","grades":["Middle","High"],"city":"Diamondville","state":"WY","zip":"83116","phone":"(307) 877-5819","low":"7","high":"12","students":"18","cost":"No","url":"https:\/\/www.rangers1.net\/276993_2","review":"https:\/\/www.publicschoolreview.com\/new-frontier-high-school-profile","virtual":"No"},{"title":"New West High School","lat":"44.346439","lon":"-106.713117","type":"Traditional Public School","address":"300 S. Spruce","grades":["High"],"city":"Buffalo","state":"WY","zip":"82834","phone":"(307) 620-2478","low":"10","high":"12","students":"27","cost":"No","url":"https:\/\/www.jcsd1.us\/","review":"https:\/\/www.publicschoolreview.com\/new-west-high-school-profile","virtual":"No"},{"title":"Newcastle Elementary 3 - 5","lat":"43.82011","lon":"-104.13797","type":"Traditional Public School","address":"5040 Us Highway 16","grades":["Elementary"],"city":"Newcastle","state":"WY","zip":"82701","phone":"(307) 746-2717","low":"3","high":"5","students":"183","cost":"No","url":"https:\/\/www.wcsd1.org\/","review":"https:\/\/www.publicschoolreview.com\/newcastle-elementary-3-5-profile","virtual":"No"},{"title":"Newcastle Elementary K - 2","lat":"43.82011","lon":"-104.13797","type":"Traditional Public School","address":"5040 Us Highway 16","grades":["Elementary"],"city":"Newcastle","state":"WY","zip":"82701","phone":"(307) 746-2717","low":"K","high":"2","students":"178","cost":"No","url":"https:\/\/www.wcsd1.org\/","review":"https:\/\/www.publicschoolreview.com\/newcastle-elementary-k-2-profile","virtual":"No"},{"title":"Newcastle High School","lat":"43.84936","lon":"-104.208807","type":"Traditional Public School","address":"111 Casper Avenue","grades":["High"],"city":"Newcastle","state":"WY","zip":"82701","phone":"(307) 746-2713","low":"9","high":"12","students":"246","cost":"No","url":"https:\/\/high.wcsd1.org\/","review":"https:\/\/www.publicschoolreview.com\/newcastle-high-school-profile\/82701","virtual":"No"},{"title":"Newcastle Middle School","lat":"43.84936","lon":"-104.208854","type":"Traditional Public School","address":"15 Stampede","grades":["Middle"],"city":"Newcastle","state":"WY","zip":"82701","phone":"(307) 746-2746","low":"6","high":"8","students":"170","cost":"No","url":"https:\/\/www.wcsd1.org\/","review":"https:\/\/www.publicschoolreview.com\/newcastle-middle-school-profile","virtual":"No"},{"title":"Niobrara County High School","lat":"42.759631","lon":"-104.459601","type":"Traditional Public School","address":"702 West 5th Street","grades":["High"],"city":"Lusk","state":"WY","zip":"82225","phone":"(307) 334-3320","low":"9","high":"12","students":"377","cost":"No","url":"https:\/\/www.growingluskleaders.org\/o\/ncsd\/page\/niobrara-county-high-school","review":"https:\/\/www.publicschoolreview.com\/niobrara-county-high-school-profile","virtual":"No"},{"title":"North Evanston Elementary School","lat":"41.271958","lon":"-110.958901","type":"Traditional Public School","address":"500 Cedar Street","grades":["Elementary"],"city":"Evanston","state":"WY","zip":"82931","phone":"(307) 789-7658","low":"K","high":"5","students":"271","cost":"No","url":"https:\/\/nes.uinta1.com\/","review":"https:\/\/www.publicschoolreview.com\/north-evanston-elementary-school-profile","virtual":"No"},{"title":"Northpark Elementary School","lat":"41.630605","lon":"-109.261481","type":"Traditional Public School","address":"1 North Park Drive","grades":["Elementary"],"city":"Rock Springs","state":"WY","zip":"82902","phone":"(307) 352-3235","low":"K","high":"4","students":"240","cost":"No","url":"http:\/\/np.sweetwater1.org\/","review":"https:\/\/www.publicschoolreview.com\/northpark-elementary-school-profile","virtual":"No"},{"title":"Notch Peak Elementary School","lat":"42.0584","lon":"-105.3808","type":"Traditional Public School","address":"2616 Palmer Canyon Road","grades":["Elementary","Middle"],"city":"Wheatland","state":"WY","zip":"82201","phone":"(307) 241-0034","low":"K","high":"8","students":"See website","cost":"No","url":"https:\/\/www.acsd1.org\/acsd\/","review":"https:\/\/www.publicschoolreview.com\/notch-peak-elementary-school-profile","virtual":"No"},{"title":"Open School","lat":"41.3083112","lon":"-105.5623006","type":"Private School","address":"414 S 24th St","grades":["Pre-K","Elementary"],"city":"Laramie","state":"WY","zip":"82070","phone":"(307) 745-7256","low":"PK","high":"K","students":"80","cost":"Yes","url":"https:\/\/www.laramieopenschool.org\/","review":"https:\/\/www.privateschoolreview.com\/open-school-profile","virtual":"No"},{"title":"Oregon Trail Elementary School","lat":"42.815952","lon":"-106.417472","type":"Traditional Public School","address":"6332 Buckboard Road","grades":["Elementary"],"city":"Casper","state":"WY","zip":"82604","phone":"(307) 253-6200","low":"K","high":"5","students":"326","cost":"No","url":"https:\/\/www.natronaschools.org\/apps\/pages\/index.jsp?uREC_ID=2043112&type=d&pREC_ID=2116237","review":"https:\/\/www.publicschoolreview.com\/oregon-trail-elementary-school-profile\/82604","virtual":"No"},{"title":"Osmond Elementary School","lat":"42.648693","lon":"-110.933464","type":"Traditional Public School","address":"3120 State Highway 241","grades":["Elementary","Middle"],"city":"Afton","state":"WY","zip":"83110","phone":"(307) 885-9457","low":"4","high":"6","students":"357","cost":"No","url":"https:\/\/osmond.lcsd2.org\/","review":"https:\/\/www.publicschoolreview.com\/osmond-elementary-school-profile\/83110","virtual":"No"},{"title":"Overland Elementary School","lat":"41.588985","lon":"-109.251707","type":"Traditional Public School","address":"3400 Foothill Boulevard","grades":["Elementary"],"city":"Rock Springs","state":"WY","zip":"82902","phone":"(307) 352-3260","low":"K","high":"4","students":"238","cost":"No","url":"https:\/\/schola.com\/schools\/wyoming\/rock-springs\/public-district\/overland-elementary_87202?new=1","review":"https:\/\/www.publicschoolreview.com\/overland-elementary-school-profile","virtual":"No"},{"title":"Paintbrush Elementary School","lat":"44.269251","lon":"-105.517863","type":"Traditional Public School","address":"1001 West Lakeway Road","grades":["Elementary","Middle"],"city":"Gillette","state":"WY","zip":"82717","phone":"(307) 686-1778","low":"K","high":"6","students":"298","cost":"No","url":"https:\/\/sites.google.com\/a\/ccsd1schools.net\/paintbrush\/","review":"https:\/\/www.publicschoolreview.com\/paintbrush-elementary-school-profile","virtual":"No"},{"title":"Paradise Valley Christian School","lat":"42.8194037","lon":"-106.3947369","type":"Private School","address":"3041 Paradise Dr","grades":["Pre-K","Elementary","Middle"],"city":"Casper","state":"WY","zip":"82604","phone":"(307) 234-2450","low":"PK","high":"6","students":"99","cost":"Yes","url":"http:\/\/www.pvcseagles.com","review":"","virtual":"No"},{"title":"Paradise Valley Elementary School","lat":"42.821024","lon":"-106.397154","type":"Traditional Public School","address":"22 Magnolia","grades":["Elementary"],"city":"Casper","state":"WY","zip":"82604","phone":"(307) 253-4584","low":"K","high":"5","students":"418","cost":"No","url":"http:\/\/pvschool.org\/","review":"https:\/\/www.publicschoolreview.com\/paradise-valley-elementary-school-profile","virtual":"No"},{"title":"Park Elementary School","lat":"42.841656","lon":"-106.325789","type":"Traditional Public School","address":"140 West 9th Street","grades":["Elementary"],"city":"Casper","state":"WY","zip":"82601","phone":"(307) 253-3200","low":"K","high":"5","students":"366","cost":"No","url":"","review":"https:\/\/www.publicschoolreview.com\/park-elementary-school-profile\/82601","virtual":"No"},{"title":"Parkside Elementary School","lat":"44.752453","lon":"-108.763583","type":"Traditional Public School","address":"125 South Douglas Street","grades":["Elementary"],"city":"Powell","state":"WY","zip":"82435","phone":"(307) 764-6182","low":"K","high":"5","students":"190","cost":"No","url":"http:\/\/www.park1.k12.wy.us\/Pages\/Schools\/Parkside.html","review":"https:\/\/www.publicschoolreview.com\/parkside-elementary-school-profile\/82435","virtual":"No"},{"title":"Pathfinder High School","lat":"42.839969","lon":"-108.713426","type":"Traditional Public School","address":"863 Sweetwater Street","grades":["High"],"city":"Lander","state":"WY","zip":"82520","phone":"(307) 335-7050","low":"9","high":"12","students":"38","cost":"No","url":"https:\/\/www.landerschools.org\/","review":"https:\/\/www.publicschoolreview.com\/pathfinder-high-school-profile","virtual":"No"},{"title":"Peak High School","lat":"42.058734","lon":"-104.959348","type":"Traditional Public School","address":"1207 13th Street","grades":["High"],"city":"Wheatland","state":"WY","zip":"82201","phone":"(307) 322-2075","low":"9","high":"12","students":"16","cost":"No","url":"https:\/\/www.platte1.org\/","review":"https:\/\/www.publicschoolreview.com\/peak-high-school-profile","virtual":"No"},{"title":"Pilot Butte Elementary School","lat":"41.590474","lon":"-109.251904","type":"Traditional Public School","address":"1003 Summit Drive","grades":["Elementary","Middle"],"city":"Rock Springs","state":"WY","zip":"82902","phone":"(307) 352-3464","low":"5","high":"6","students":"412","cost":"No","url":"http:\/\/pbe.sweetwater1.org\/","review":"https:\/\/www.publicschoolreview.com\/pilot-butte-elementary-school-profile","virtual":"No"},{"title":"Pine Bluffs Elementary School","lat":"41.178821","lon":"-104.066794","type":"Traditional Public School","address":"503 Elm Street","grades":["Pre-K","Elementary","Middle"],"city":"Pine Bluffs","state":"WY","zip":"82082","phone":"(307) 245-4070","low":"PK","high":"6","students":"171","cost":"No","url":"https:\/\/www.laramie2.org:443\/5\/home","review":"https:\/\/www.publicschoolreview.com\/pine-bluffs-elementary-school-profile","virtual":"No"},{"title":"Pine Bluffs Jr & Sr High School","lat":"41.179614","lon":"-104.064205","type":"Traditional Public School","address":"502 Maple Street","grades":["Middle","High"],"city":"Pine Bluffs","state":"WY","zip":"82082","phone":"(307) 245-4000","low":"7","high":"12","students":"186","cost":"No","url":"https:\/\/www.laramie2.org:443\/7\/Home","review":"https:\/\/www.publicschoolreview.com\/pine-bluffs-jr-sr-high-school-profile","virtual":"No"},{"title":"Pinedale Elementary School","lat":"42.873702","lon":"-109.861203","type":"Traditional Public School","address":"3040 Bloomfield Avenue","grades":["Elementary"],"city":"Pinedale","state":"WY","zip":"82941","phone":"(307) 367-2828","low":"K","high":"5","students":"437","cost":"No","url":"https:\/\/pes.sub1.org\/","review":"https:\/\/www.publicschoolreview.com\/pinedale-elementary-school-profile\/82941","virtual":"No"},{"title":"Pinedale High School","lat":"42.870175","lon":"-109.859807","type":"Traditional Public School","address":"101 East Hennick","grades":["High"],"city":"Pinedale","state":"WY","zip":"82941","phone":"(307) 367-2137","low":"9","high":"12","students":"318","cost":"No","url":"https:\/\/phs.sub1.org\/","review":"https:\/\/www.publicschoolreview.com\/pinedale-high-school-profile","virtual":"No"},{"title":"Pinedale Middle School","lat":"42.870157","lon":"-109.857796","type":"Traditional Public School","address":"227 East Hennick","grades":["Middle"],"city":"Pinedale","state":"WY","zip":"82941","phone":"(307) 367-2821","low":"6","high":"8","students":"263","cost":"No","url":"https:\/\/pms.sub1.org\/","review":"https:\/\/www.publicschoolreview.com\/pinedale-middle-school-profile","virtual":"No"},{"title":"Pineview Elementary School","lat":"42.843532","lon":"-106.287124","type":"Traditional Public School","address":"639 Payne Avenue","grades":["Pre-K","Elementary"],"city":"Casper","state":"WY","zip":"82609","phone":"(307) 253-6000","low":"PK","high":"5","students":"328","cost":"No","url":"","review":"https:\/\/www.publicschoolreview.com\/pineview-elementary-school-profile\/82609","virtual":"No"},{"title":"Pioneer Park Elementary School","lat":"41.143297","lon":"-104.83706","type":"Traditional Public School","address":"1407 Cosgriff Court","grades":["Elementary","Middle"],"city":"Cheyenne","state":"WY","zip":"82001","phone":"(307) 771-2316","low":"K","high":"6","students":"352","cost":"No","url":"https:\/\/pioneerpark.laramie1.org\/","review":"https:\/\/www.publicschoolreview.com\/pioneer-park-elementary-school-profile\/82001","virtual":"No"},{"title":"Platte River School","lat":"42.068127","lon":"-104.188789","type":"Traditional Public School","address":"2400 West C Street","grades":["High"],"city":"Torrington","state":"WY","zip":"82240","phone":"(307) 532-7101","low":"9","high":"12","students":"16","cost":"No","url":"https:\/\/www.goshen1.org\/","review":"https:\/\/www.publicschoolreview.com\/platte-river-school-profile","virtual":"No"},{"title":"Poder Academy","lat":"41.1100511","lon":"-104.8199512","type":"Public Charter School","address":"2201 Morrie Avenue","grades":["Elementary"],"city":"Cheyenne","state":"WY","zip":"82001","phone":"(307) 632-2248","low":"K","high":"5","students":"170","cost":"No","url":"https:\/\/www.poderacademy.com\/ec\/ec-home?dh=1","review":"https:\/\/www.publicschoolreview.com\/poder-academy-profile","virtual":"No"},{"title":"Poder Academy Secondary School","lat":"41.142836","lon":"-104.807688","type":"Public Charter School","address":"2201 Morrie Avenue","grades":["Middle","High"],"city":"Cheyenne","state":"WY","zip":"82001","phone":"(307) 632-2248","low":"6","high":"12","students":"104","cost":"No","url":"https:\/\/www.poderacademy.com\/ec\/ec-home?dh=1","review":"https:\/\/www.publicschoolreview.com\/poder-academy-secondary-school-profile","virtual":"No"},{"title":"Poison Spider Elementary School","lat":"42.836968","lon":"-106.755717","type":"Traditional Public School","address":"14200 Poison Spider Road","grades":["Elementary","Middle"],"city":"Casper","state":"WY","zip":"82604","phone":"(307) 253-6900","low":"K","high":"8","students":"182","cost":"No","url":"http:\/\/www.natronaschools.org\/school.php?id=77","review":"https:\/\/www.publicschoolreview.com\/poison-spider-elementary-school-profile","virtual":"No"},{"title":"Powder River Basin Children's Center","lat":"44.2974807","lon":"-105.4953181","type":"Traditional Public School","address":"410 N Miller Ave","grades":["Elementary","Middle","High"],"city":"Gillette","state":"WY","zip":"82716","phone":"(307) 682-0231","low":"K","high":"12","students":"See website","cost":"No","url":"https:\/\/newboces.com\/","review":"https:\/\/www.publicschoolreview.com\/powder-river-basin-children-s-center-profile","virtual":"No"},{"title":"Powell High School","lat":"44.760953","lon":"-108.745235","type":"Traditional Public School","address":"1151 East 7th Street","grades":["High"],"city":"Powell","state":"WY","zip":"82435","phone":"(307) 764-6181","low":"9","high":"12","students":"581","cost":"No","url":"http:\/\/www.park1.k12.wy.us\/Pages\/Schools\/HighSchool.html","review":"https:\/\/www.publicschoolreview.com\/powell-high-school-profile\/82435","virtual":"No"},{"title":"Powell Middle School","lat":"44.755573","lon":"-108.7547","type":"Traditional Public School","address":"369 East 3rd Street","grades":["Middle"],"city":"Powell","state":"WY","zip":"82435","phone":"(307) 764-6185","low":"6","high":"8","students":"411","cost":"No","url":"http:\/\/www.park1.k12.wy.us\/powell%20middle%20school.htm","review":"https:\/\/www.publicschoolreview.com\/powell-middle-school-profile\/82435","virtual":"No"},{"title":"Prairie Wind Elementary School","lat":"44.28992","lon":"-105.54867","type":"Traditional Public School","address":"200 Overdale Drive","grades":["Elementary","Middle"],"city":"Gillette","state":"WY","zip":"82717","phone":"(307) 682-7289","low":"K","high":"6","students":"312","cost":"No","url":"https:\/\/sites.google.com\/ccsd1schools.net\/prairiewindelem","review":"https:\/\/www.publicschoolreview.com\/prairie-wind-elementary-school-profile\/82717","virtual":"No"},{"title":"Prairie Wind Elementary School","lat":"41.2239308","lon":"-104.8281947","type":"Traditional Public School","address":"11400 Yellowstone Road","grades":["Elementary","Middle"],"city":"Cheyenne","state":"WY","zip":"82009","phone":"(307) 771-2340","low":"K","high":"6","students":"440","cost":"No","url":"https:\/\/prairiewind.laramie1.org\/","review":"https:\/\/www.publicschoolreview.com\/prairie-wind-elementary-school-profile\/82009","virtual":"No"},{"title":"Pronghorn Elementary School","lat":"44.264503","lon":"-105.529981","type":"Traditional Public School","address":"3005 Oakcrest Drive","grades":["Elementary","Middle"],"city":"Gillette","state":"WY","zip":"82717","phone":"(307) 682-1676","low":"K","high":"6","students":"396","cost":"No","url":"https:\/\/sites.google.com\/ccsd1schools.net\/pronghornelementary","review":"https:\/\/www.publicschoolreview.com\/pronghorn-elementary-school-profile","virtual":"No"},{"title":"Ralph Witters Elementary School","lat":"43.647455","lon":"-108.208796","type":"Traditional Public School","address":"215 Springview","grades":["Pre-K","Elementary"],"city":"Thermopolis","state":"WY","zip":"82443","phone":"(307) 864-6561","low":"PK","high":"4","students":"242","cost":"No","url":"https:\/\/www.hotsprings1.org\/","review":"https:\/\/www.publicschoolreview.com\/ralph-witters-elementary-school-profile","virtual":"No"},{"title":"Rawhide Elementary School","lat":"44.390575","lon":"-105.539298","type":"Traditional Public School","address":"200 Prospector Parkway","grades":["Elementary","Middle"],"city":"Gillette","state":"WY","zip":"82717","phone":"(307) 682-0774","low":"K","high":"6","students":"303","cost":"No","url":"https:\/\/sites.google.com\/a\/ccsd1schools.net\/rawhide-elementary-school\/","review":"https:\/\/www.publicschoolreview.com\/rawhide-elementary-school-profile","virtual":"No"},{"title":"Rawlins Elementary School","lat":"41.8150236","lon":"-107.2252249","type":"Traditional Public School","address":"1301 Darnley Road","grades":["Pre-K","Elementary"],"city":"Rawlins","state":"WY","zip":"82301","phone":"(307) 328-7900","low":"PK","high":"5","students":"682","cost":"No","url":"https:\/\/res.crb1.net\/","review":"https:\/\/www.publicschoolreview.com\/rawlins-elementary-school-profile","virtual":"No"},{"title":"Rawlins High School","lat":"41.800599","lon":"-107.23486","type":"Traditional Public School","address":"1401 Colorado","grades":["High"],"city":"Rawlins","state":"WY","zip":"82301","phone":"(307) 328-9280","low":"9","high":"12","students":"396","cost":"No","url":"https:\/\/rhs.crb1.net\/","review":"https:\/\/www.publicschoolreview.com\/rawlins-high-school-profile","virtual":"No"},{"title":"Rawlins Middle School","lat":"41.801517","lon":"-107.225434","type":"Traditional Public School","address":"1001 East Brooks Street","grades":["Middle"],"city":"Rawlins","state":"WY","zip":"82301","phone":"(307) 328-9205","low":"6","high":"8","students":"354","cost":"No","url":"https:\/\/asd.sau53.org\/","review":"https:\/\/www.publicschoolreview.com\/rawlins-middle-school-profile","virtual":"No"},{"title":"Recluse School","lat":"44.743764","lon":"-105.722766","type":"Traditional Public School","address":"31 Greenough Road","grades":["Elementary","Middle"],"city":"Gillette","state":"WY","zip":"82717","phone":"(307) 682-9612","low":"K","high":"8","students":"15","cost":"No","url":"https:\/\/sites.google.com\/a\/ccsd1schools.net\/recluse\/","review":"https:\/\/www.publicschoolreview.com\/recluse-school-profile","virtual":"No"},{"title":"Red Creek Elementary School","lat":"42.644187","lon":"-106.419864","type":"Traditional Public School","address":"15651 Highway 487","grades":["Elementary"],"city":"Casper","state":"WY","zip":"82604","phone":"(307) 473-1224","low":"K","high":"5","students":"See website","cost":"No","url":"https:\/\/www.natronaschools.org\/apps\/pages\/index.jsp?uREC_ID=2043112&type=d&pREC_ID=2116432","review":"https:\/\/www.publicschoolreview.com\/red-creek-elementary-school-profile","virtual":"No"},{"title":"Red Top Meadows","lat":"43.437158","lon":"-110.865035","type":"Traditional Public School","address":"7905 Fall Creek Road","grades":["Middle","High"],"city":"Wilson","state":"WY","zip":"83014","phone":"(307) 733-9098","low":"6","high":"12","students":"See website","cost":"No","url":"https:\/\/tetonyouthandfamilyservices.org\/","review":"https:\/\/www.publicschoolreview.com\/red-top-meadows-profile","virtual":"No"},{"title":"Red Top Meadows","lat":"43.517","lon":"-110.857","type":"Private School","address":"7905 Fall Creek Rd.","grades":["Middle","High"],"city":"Wilson","state":"WY","zip":"83014","phone":"(307) 733-9098","low":"7","high":"12","students":"13","cost":"Yes","url":"https:\/\/tetonyouthandfamilyservices.org\/","review":"https:\/\/www.privateschoolreview.com\/red-top-meadows-profile","virtual":"No"},{"title":"Rendezvous Elementary School","lat":"43.028656","lon":"-108.395423","type":"Traditional Public School","address":"413 North 4th West","grades":["Elementary"],"city":"Riverton","state":"WY","zip":"82501","phone":"(307) 857-7070","low":"4","high":"5","students":"301","cost":"No","url":"http:\/\/www.fremont25.k12.wy.us\/","review":"https:\/\/www.publicschoolreview.com\/rendezvous-elementary-school-profile","virtual":"No"},{"title":"Riverside Middle\/High School","lat":"44.379975","lon":"-108.046674","type":"Traditional Public School","address":"1212 West B Street","grades":["Middle","High"],"city":"Basin","state":"WY","zip":"82410","phone":"(307) 568-2416","low":"6","high":"12","students":"135","cost":"No","url":"https:\/\/rmhs.bgh4.org\/","review":"https:\/\/www.publicschoolreview.com\/riverside-middle-high-school-profile","virtual":"No"},{"title":"Riverton High School","lat":"43.033622","lon":"-108.416536","type":"Traditional Public School","address":"2001 West Sunset","grades":["High"],"city":"Riverton","state":"WY","zip":"82501","phone":"(307) 856-9491","low":"9","high":"12","students":"722","cost":"No","url":"http:\/\/www.fremont25.k12.wy.us\/schools\/rhs\/index.html","review":"https:\/\/www.publicschoolreview.com\/riverton-high-school-profile\/82501","virtual":"No"},{"title":"Riverton Middle School","lat":"43.033739","lon":"-108.410415","type":"Traditional Public School","address":"840 Major Avenue","grades":["Middle"],"city":"Riverton","state":"WY","zip":"82501","phone":"(307) 856-9443","low":"6","high":"8","students":"555","cost":"No","url":"http:\/\/www.fremont25.k12.wy.us\/","review":"https:\/\/www.publicschoolreview.com\/riverton-middle-school-profile\/82501","virtual":"No"},{"title":"Rock River Elementary School","lat":"41.742034","lon":"-105.970413","type":"Traditional Public School","address":"262 North Morris","grades":["Pre-K","Elementary","Middle"],"city":"Rock River","state":"WY","zip":"82083","phone":"(307) 378-2271","low":"PK","high":"6","students":"42","cost":"No","url":"https:\/\/www.acsd1.org\/rr\/","review":"https:\/\/www.publicschoolreview.com\/rock-river-elementary-school-profile\/82083","virtual":"No"},{"title":"Rock River High School","lat":"41.742034","lon":"-105.970413","type":"Traditional Public School","address":"262 North Morris","grades":["High"],"city":"Rock River","state":"WY","zip":"82083","phone":"(307) 378-2271","low":"9","high":"12","students":"29","cost":"No","url":"https:\/\/www.acsd1.org\/rr\/","review":"https:\/\/www.publicschoolreview.com\/rock-river-high-school-profile","virtual":"No"},{"title":"Rock River Junior High School","lat":"41.742034","lon":"-105.970413","type":"Traditional Public School","address":"262 N. Morris","grades":["Middle"],"city":"Rock River","state":"WY","zip":"82083","phone":"(307) 378-2271","low":"7","high":"8","students":"See website","cost":"No","url":"https:\/\/www.acsd1.org\/rr\/","review":"https:\/\/www.publicschoolreview.com\/rock-river-junior-high-school-profile","virtual":"No"},{"title":"Rock Springs High School","lat":"41.591216","lon":"-109.206571","type":"Traditional Public School","address":"1375 James Drive","grades":["High"],"city":"Rock Springs","state":"WY","zip":"82902","phone":"(307) 352-3440","low":"9","high":"12","students":"1437","cost":"No","url":"http:\/\/rshs.sweetwater1.org\/","review":"https:\/\/www.publicschoolreview.com\/rock-springs-high-school-profile","virtual":"No"},{"title":"Rock Springs Junior High School","lat":"41.587152","lon":"-109.213697","type":"Traditional Public School","address":"3500 Foothill Boulevard","grades":["Middle"],"city":"Rock Springs","state":"WY","zip":"82902","phone":"(307) 352-3474","low":"7","high":"8","students":"815","cost":"No","url":"http:\/\/www.sweetwater1.org\/","review":"https:\/\/www.publicschoolreview.com\/rock-springs-junior-high-school-profile","virtual":"No"},{"title":"Rocky Mountain Elementary School","lat":"44.881916","lon":"-108.469294","type":"Traditional Public School","address":"101 South Division","grades":["Pre-K","Elementary"],"city":"Cowley","state":"WY","zip":"82420","phone":"(307) 548-2211","low":"PK","high":"5","students":"683","cost":"No","url":"https:\/\/www.bighorn1.com\/RMES","review":"https:\/\/www.publicschoolreview.com\/rocky-mountain-elementary-school-profile\/82420","virtual":"No"},{"title":"Rocky Mountain High School","lat":"44.88111","lon":"-108.46791","type":"Traditional Public School","address":"404 South 3rd East","grades":["High"],"city":"Cowley","state":"WY","zip":"82420","phone":"(307) 548-2723","low":"9","high":"12","students":"502","cost":"No","url":"https:\/\/www.bighorn1.com\/RMHS\/","review":"https:\/\/www.publicschoolreview.com\/rocky-mountain-high-school-profile\/82420","virtual":"No"},{"title":"Rocky Mountain Middle School","lat":"44.88292","lon":"-108.46832","type":"Traditional Public School","address":"404 South 3rd East","grades":["Middle"],"city":"Cowley","state":"WY","zip":"82420","phone":"(307) 548-2723","low":"6","high":"8","students":"412","cost":"No","url":"https:\/\/www.bighorn1.com\/RMHS","review":"https:\/\/www.publicschoolreview.com\/rocky-mountain-middle-school-profile\/82420","virtual":"No"},{"title":"Roosevelt High School","lat":"42.861007","lon":"-106.324094","type":"Traditional Public School","address":"3000 Independence Court","grades":["High"],"city":"Casper","state":"WY","zip":"82604","phone":"(307) 253-1400","low":"9","high":"12","students":"225","cost":"No","url":"","review":"https:\/\/www.publicschoolreview.com\/roosevelt-high-school-profile\/82604","virtual":"No"},{"title":"Roosevelt Learning Center","lat":"41.584533","lon":"-109.2267226","type":"Traditional Public School","address":"440 Dewar Drive","grades":["Elementary","Middle","High"],"city":"Rock Springs","state":"WY","zip":"82901","phone":"(307) 362-6525","low":"1","high":"12","students":"See website","cost":"No","url":"","review":"https:\/\/www.publicschoolreview.com\/roosevelt-learning-center-profile","virtual":"No"},{"title":"Rossman Elementary School","lat":"41.102394","lon":"-104.809818","type":"Traditional Public School","address":"916 West College Drive","grades":["Pre-K","Elementary","Middle"],"city":"Cheyenne","state":"WY","zip":"82007","phone":"(307) 771-2544","low":"PK","high":"6","students":"314","cost":"No","url":"https:\/\/rossman.laramie1.org\/","review":"https:\/\/www.publicschoolreview.com\/rossman-elementary-school-profile\/82007","virtual":"No"},{"title":"Rozet Elementary School","lat":"44.278233","lon":"-105.208923","type":"Traditional Public School","address":"14054 Us Highway 51","grades":["Elementary","Middle"],"city":"Rozet","state":"WY","zip":"82727","phone":"(307) 682-3133","low":"K","high":"6","students":"253","cost":"No","url":"https:\/\/sites.google.com\/a\/ccsd1schools.net\/rozet\/","review":"https:\/\/www.publicschoolreview.com\/rozet-elementary-school-profile","virtual":"No"},{"title":"Saddle Ridge Elementary School","lat":"41.152332","lon":"-104.728005","type":"Traditional Public School","address":"6815 Wilderness Trail","grades":["Elementary","Middle"],"city":"Cheyenne","state":"WY","zip":"82001","phone":"(307) 771-2360","low":"K","high":"6","students":"349","cost":"No","url":"https:\/\/saddleridge.laramie1.org\/","review":"https:\/\/www.publicschoolreview.com\/saddle-ridge-elementary-school-profile","virtual":"No"},{"title":"Sage Elementary School","lat":"41.6476","lon":"-109.2722","type":"Traditional Public School","address":"903 Summit Drive","grades":["Elementary"],"city":"Rock Springs","state":"WY","zip":"82902","phone":"(307) 352-3270","low":"K","high":"4","students":"260","cost":"No","url":"http:\/\/sage.sweetwater1.org\/","review":"https:\/\/www.publicschoolreview.com\/sage-elementary-school-profile\/82902","virtual":"No"},{"title":"Sage Valley Junior High School","lat":"44.269522","lon":"-105.518675","type":"Traditional Public School","address":"1000 West Lakeway Road","grades":["Middle"],"city":"Gillette","state":"WY","zip":"82717","phone":"(307) 682-2225","low":"7","high":"8","students":"699","cost":"No","url":"https:\/\/www.ccsd.k12.wy.us\/site\/default.aspx?PageType=3&ModuleInstanceID=963&ViewID=82ad4dc1-ff8e-4c91-9428-7a2a172acda0&RenderLoc=0&FlexDataID=1324&PageID=951","review":"https:\/\/www.publicschoolreview.com\/sage-valley-junior-high-school-profile","virtual":"No"},{"title":"Sagebrush Elementary School","lat":"44.811626","lon":"-106.978881","type":"Traditional Public School","address":"1685 Hillpond Drive","grades":["Elementary"],"city":"Sheridan","state":"WY","zip":"82801","phone":"(307) 672-9059","low":"K","high":"5","students":"315","cost":"No","url":"https:\/\/scsd2.com\/sagebrush-elementary-school","review":"https:\/\/www.publicschoolreview.com\/sagebrush-elementary-school-profile\/82801","virtual":"No"},{"title":"Sagewood Elementary School","lat":"42.82381","lon":"-106.305139","type":"Traditional Public School","address":"2451 Shattuck Avenue","grades":["Pre-K","Elementary"],"city":"Casper","state":"WY","zip":"82601","phone":"(307) 253-3300","low":"PK","high":"5","students":"342","cost":"No","url":"http:\/\/www.sagewoodelementary.com\/","review":"https:\/\/www.publicschoolreview.com\/sagewood-elementary-school-profile","virtual":"No"},{"title":"Saint Joseph's Children's Home","lat":"42.0591967","lon":"-104.1843062","type":"Specialized Public School","address":"1419 Main Street","grades":["Elementary","Middle","High"],"city":"Torrington","state":"WY","zip":"82240","phone":"(307) 532-4197","low":"K","high":"12","students":"19","cost":"No","url":"https:\/\/www.stjoseph-wy.org\/","review":"https:\/\/www.publicschoolreview.com\/saint-joseph-s-children-s-home-profile","virtual":"No"},{"title":"Saratoga Elementary School","lat":"41.453802","lon":"-106.8109","type":"Traditional Public School","address":"311 West Spring Street","grades":["Elementary","Middle"],"city":"Saratoga","state":"WY","zip":"82331","phone":"(307) 326-8365","low":"K","high":"6","students":"188","cost":"No","url":"http:\/\/www.crb2.org\/users\/saratogaes\/","review":"https:\/\/www.publicschoolreview.com\/saratoga-elementary-school-profile\/82331","virtual":"No"},{"title":"Saratoga Middle\/High School","lat":"41.452769","lon":"-106.819018","type":"Traditional Public School","address":"801 West Elm Street","grades":["Middle","High"],"city":"Saratoga","state":"WY","zip":"82331","phone":"(307) 326-5246","low":"7","high":"12","students":"110","cost":"No","url":"https:\/\/www.crb2.org\/index.php?pageID=327487_3","review":"https:\/\/www.publicschoolreview.com\/saratoga-middle-high-school-profile","virtual":"No"},{"title":"Shawnee Elementary School","lat":"42.696859","lon":"-105.099716","type":"Traditional Public School","address":"1218 Us Highway 18\/20","grades":["Elementary","Middle"],"city":"Douglas","state":"WY","zip":"82633","phone":"(307) 358-3278","low":"K","high":"8","students":"See website","cost":"No","url":"https:\/\/www.ccsd1.org\/","review":"https:\/\/www.publicschoolreview.com\/shawnee-elementary-school-profile\/82633","virtual":"No"},{"title":"Sheridan High School","lat":"44.81092","lon":"-106.983403","type":"Traditional Public School","address":"1056 Long Drive","grades":["High"],"city":"Sheridan","state":"WY","zip":"82801","phone":"(307) 672-2495","low":"9","high":"12","students":"1004","cost":"No","url":"https:\/\/scsd2.com\/sheridan-high-school","review":"https:\/\/www.publicschoolreview.com\/sheridan-high-school-profile\/82801","virtual":"No"},{"title":"Sheridan Junior High School","lat":"44.80395","lon":"-106.962779","type":"Traditional Public School","address":"500 Lewis Street","grades":["Middle"],"city":"Sheridan","state":"WY","zip":"82801","phone":"(307) 672-9745","low":"6","high":"8","students":"852","cost":"No","url":"https:\/\/scsd2.com\/sheridan-junior-high-school","review":"https:\/\/www.publicschoolreview.com\/sheridan-junior-high-school-profile","virtual":"No"},{"title":"Shoshone Learning Center","lat":"44.753574","lon":"-108.751556","type":"Traditional Public School","address":"140 North Ferris Street","grades":["High"],"city":"Powell","state":"WY","zip":"82435","phone":"(307) 764-6187","low":"9","high":"12","students":"16","cost":"No","url":"http:\/\/www.park1.k12.wy.us\/Pages\/Schools\/SLC.html","review":"https:\/\/www.publicschoolreview.com\/shoshone-learning-center-profile","virtual":"No"},{"title":"Shoshoni Elementary School","lat":"43.236681","lon":"-108.110825","type":"Traditional Public School","address":"404 Wrangler Way","grades":["Pre-K","Elementary","Middle"],"city":"Shoshoni","state":"WY","zip":"82649","phone":"(307) 876-2563","low":"PK","high":"6","students":"212","cost":"No","url":"https:\/\/www.fremont24.com\/","review":"https:\/\/www.publicschoolreview.com\/shoshoni-elementary-school-profile","virtual":"No"},{"title":"Shoshoni High School","lat":"43.236681","lon":"-108.110825","type":"Traditional Public School","address":"404 Wrangler Way","grades":["High"],"city":"Shoshoni","state":"WY","zip":"82649","phone":"(307) 876-2576","low":"9","high":"12","students":"111","cost":"No","url":"https:\/\/www.fremont24.com\/","review":"https:\/\/www.publicschoolreview.com\/shoshoni-high-school-profile","virtual":"No"},{"title":"Shoshoni Junior High School","lat":"43.236681","lon":"-108.110825","type":"Traditional Public School","address":"404 Wrangler Way","grades":["Middle"],"city":"Shoshoni","state":"WY","zip":"82649","phone":"(307) 876-2576","low":"7","high":"8","students":"63","cost":"No","url":"https:\/\/www.fremont24.com\/","review":"https:\/\/www.publicschoolreview.com\/shoshoni-junior-high-school-profile","virtual":"No"},{"title":"Skyline High School","lat":"42.8732253","lon":"-109.8604946","type":"Traditional Public School","address":"665 North Tyler","grades":["High"],"city":"Pinedale","state":"WY","zip":"82941","phone":"(307) 367-5408","low":"9","high":"12","students":"19","cost":"No","url":"https:\/\/www.sub1.org\/","review":"https:\/\/www.publicschoolreview.com\/skyline-high-school-profile\/82941","virtual":"No"},{"title":"Slack Elementary School","lat":"44.985665","lon":"-107.437338","type":"Traditional Public School","address":"562 County Road 144","grades":["Elementary"],"city":"Ranchester","state":"WY","zip":"82839","phone":"(307) 655-2206","low":"K","high":"5","students":"47","cost":"No","url":"https:\/\/www.sheridan.k12.wy.us\/","review":"https:\/\/www.publicschoolreview.com\/slack-elementary-school-profile\/82839","virtual":"No"},{"title":"Slade Elementary School","lat":"41.321285","lon":"-105.58112","type":"Traditional Public School","address":"1212 Baker","grades":["Pre-K","Elementary"],"city":"Laramie","state":"WY","zip":"82070","phone":"(307) 721-4446","low":"PK","high":"5","students":"282","cost":"No","url":"https:\/\/www.acsd1.org\/ses\/","review":"https:\/\/www.publicschoolreview.com\/slade-elementary-school-profile","virtual":"No"},{"title":"Smart - Start Montessori Academy","lat":"43.0358604","lon":"-108.4003","type":"Private School","address":"1014 N 8th St W","grades":["Pre-K","Elementary"],"city":"Riverton","state":"WY","zip":"82501","phone":"(307) 856-7633","low":"PK","high":"K","students":"82","cost":"Yes","url":"","review":"https:\/\/www.privateschoolreview.com\/smart-start-montessori-academy-profile","virtual":"No"},{"title":"Snowy Range Academy","lat":"41.305832","lon":"-105.544357","type":"Public Charter School","address":"4037 Grand Avenue","grades":["Elementary","Middle"],"city":"Laramie","state":"WY","zip":"82070","phone":"(307) 745-9930","low":"K","high":"8","students":"240","cost":"No","url":"https:\/\/www.snowyrangeacademy.org\/","review":"https:\/\/www.publicschoolreview.com\/snowy-range-academy-profile","virtual":"No"},{"title":"Solid Rock Christian Academy","lat":"44.2633149","lon":"-104.9502538","type":"Private School","address":"Po Box 1001","grades":["Elementary","Middle","High"],"city":"Moorcroft","state":"WY","zip":"82721","phone":"(307) 756-3461","low":"K","high":"11","students":"11","cost":"Yes","url":"","review":"https:\/\/www.privateschoolreview.com\/solid-rock-christian-academy-profile\/82721","virtual":"No"},{"title":"Sonshine Academy","lat":"44.011173","lon":"-107.946145","type":"Private School","address":"660 S 17th St","grades":["Pre-K","Elementary","Middle"],"city":"Worland","state":"WY","zip":"82401","phone":"(307) 800-1022","low":"NS","high":"8","students":"See website","cost":"Yes","url":"https:\/\/www.sonshine-academy.org\/","review":"https:\/\/www.privateschoolreview.com\/sonshine-academy-profile","virtual":"No"},{"title":"South High School","lat":"41.110055","lon":"-104.819473","type":"Traditional Public School","address":"1213 West Allison Road","grades":["High"],"city":"Cheyenne","state":"WY","zip":"82007","phone":"(307) 771-2410","low":"9","high":"12","students":"1238","cost":"No","url":"https:\/\/south.laramie1.org\/","review":"https:\/\/www.publicschoolreview.com\/south-high-school-profile\/82007","virtual":"No"},{"title":"South Side Elementary School","lat":"44.011538","lon":"-107.953163","type":"Traditional Public School","address":"1229 Howell Avenue","grades":["Elementary"],"city":"Worland","state":"WY","zip":"82401","phone":"(307) 347-3306","low":"2","high":"3","students":"150","cost":"No","url":"https:\/\/south.wsh1.k12.wy.us\/","review":"https:\/\/www.publicschoolreview.com\/south-side-elementary-school-profile\/82401","virtual":"No"},{"title":"Southeast Elementary School","lat":"41.914727","lon":"-104.297357","type":"Traditional Public School","address":"1 Lacy Street","grades":["Elementary","Middle"],"city":"Yoder","state":"WY","zip":"82244","phone":"(307) 532-3679","low":"K","high":"6","students":"109","cost":"No","url":"https:\/\/www.goshen1.org\/","review":"https:\/\/www.publicschoolreview.com\/southeast-elementary-school-profile\/82244","virtual":"No"},{"title":"Southeast High School","lat":"41.914727","lon":"-104.297357","type":"Traditional Public School","address":"1 Lacy Street","grades":["High"],"city":"Yoder","state":"WY","zip":"82244","phone":"(307) 532-7176","low":"9","high":"12","students":"74","cost":"No","url":"https:\/\/www.goshen1.org\/","review":"https:\/\/www.publicschoolreview.com\/southeast-high-school-profile\/82244","virtual":"No"},{"title":"Southeast Junior High School","lat":"41.914727","lon":"-104.297357","type":"Traditional Public School","address":"1 Lacy Street","grades":["Middle"],"city":"Yoder","state":"WY","zip":"82244","phone":"(307) 532-7176","low":"7","high":"8","students":"41","cost":"No","url":"https:\/\/www.goshen1.org\/","review":"https:\/\/www.publicschoolreview.com\/southeast-junior-high-school-profile\/82244","virtual":"No"},{"title":"Southridge Elementary School","lat":"42.821528","lon":"-106.34424","type":"Traditional Public School","address":"1600 West 29th Street","grades":["Elementary"],"city":"Casper","state":"WY","zip":"82604","phone":"(307) 253-1900","low":"K","high":"5","students":"309","cost":"No","url":"https:\/\/sites.google.com\/myncsd.org\/superstars\/home","review":"https:\/\/www.publicschoolreview.com\/southridge-elementary-school-profile\/82604","virtual":"No"},{"title":"Southside Elementary School","lat":"44.746473","lon":"-108.755125","type":"Traditional Public School","address":"278 East Monroe Street","grades":["Elementary"],"city":"Powell","state":"WY","zip":"82435","phone":"(307) 764-6183","low":"K","high":"5","students":"292","cost":"No","url":"http:\/\/www.park1.k12.wy.us\/Pages\/Schools\/Southside.html","review":"https:\/\/www.publicschoolreview.com\/southside-elementary-school-profile\/82435","virtual":"No"},{"title":"Spring Creek Elementary School","lat":"41.302885","lon":"-105.582628","type":"Traditional Public School","address":"1203 Russell","grades":["Elementary"],"city":"Laramie","state":"WY","zip":"82070","phone":"(307) 721-4410","low":"K","high":"5","students":"287","cost":"No","url":"https:\/\/www.acsd1.org\/sces\/","review":"https:\/\/www.publicschoolreview.com\/spring-creek-elementary-school-profile\/82070","virtual":"No"},{"title":"St. Anthony Tri - Parish Catholic School","lat":"42.8438","lon":"-106.323512","type":"Private School","address":"1145 W. 20th St.","grades":["Pre-K","Elementary","Middle"],"city":"Casper","state":"WY","zip":"82604","phone":"(307) 234-2873","low":"PK","high":"8","students":"352","cost":"Yes","url":"https:\/\/sascasper.wordpress.com\/","review":"https:\/\/www.privateschoolreview.com\/st-anthony-tri-parish-catholic-school-profile","virtual":"No"},{"title":"St. Joseph's Children's Home","lat":"42.0557","lon":"-104.1843","type":"Private School","address":"1419 Main Street","grades":["Elementary","Middle","High"],"city":"Torrington","state":"WY","zip":"82240","phone":"(307) 532-4197","low":"1","high":"12","students":"50","cost":"Yes","url":"https:\/\/www.stjoseph-wy.org\/","review":"https:\/\/www.privateschoolreview.com\/st-joseph-s-children-s-home-profile","virtual":"No"},{"title":"St. Margaret Catholic School","lat":"43.026479","lon":"-108.382953","type":"Private School","address":"220 N 7th St E","grades":["Pre-K","Elementary"],"city":"Riverton","state":"WY","zip":"82501","phone":"(307) 856-5922","low":"PK","high":"5","students":"95","cost":"Yes","url":"https:\/\/educationexcorde.wordpress.com\/about\/","review":"https:\/\/www.privateschoolreview.com\/st-margaret-catholic-school-profile\/82501","virtual":"No"},{"title":"St. Mary's Catholic School","lat":"41.140517","lon":"-104.818621","type":"Private School","address":"2200 Oneil Ave","grades":["Pre-K","Elementary","Middle"],"city":"Cheyenne","state":"WY","zip":"82001","phone":"(307) 638-9268","low":"PK","high":"6","students":"126","cost":"Yes","url":"http:\/\/www.stmaryswyo.org\/","review":"","virtual":"No"},{"title":"St. Stephens Indian School","lat":"42.98512","lon":"-108.4208","type":"Traditional Public School","address":"128 Mission Road","grades":["Elementary","Middle","High"],"city":"Saint Stephens","state":"WY","zip":"82524","phone":"(307) 856-4147","low":"K","high":"12","students":"250","cost":"No","url":"https:\/\/www.st-stephens.net\/","review":"https:\/\/www.publicschoolreview.com\/st-stephens-indian-school-profile","virtual":"No"},{"title":"Stagecoach Elementary School","lat":"41.6031681","lon":"-109.2639336","type":"Traditional Public School","address":"3000 Stagecoach Boulevard","grades":["Elementary"],"city":"Rock Springs","state":"WY","zip":"82902","phone":"(307) 352-3265","low":"K","high":"4","students":"262","cost":"No","url":"http:\/\/www.sweetwater1.org","review":"https:\/\/www.publicschoolreview.com\/stagecoach-elementary-school-profile\/82902","virtual":"No"},{"title":"Star Valley High School","lat":"42.73506","lon":"-110.942759","type":"Traditional Public School","address":"444 West Swift Creek Lane","grades":["High"],"city":"Afton","state":"WY","zip":"83110","phone":"(307) 885-7847","low":"9","high":"12","students":"792","cost":"No","url":"https:\/\/svhs.lcsd2.org\/","review":"https:\/\/www.publicschoolreview.com\/star-valley-high-school-profile","virtual":"No"},{"title":"Star Valley Middle School","lat":"42.749333","lon":"-110.942139","type":"Traditional Public School","address":"999 Warrior Way","grades":["Middle"],"city":"Afton","state":"WY","zip":"83110","phone":"(307) 885-5208","low":"7","high":"8","students":"473","cost":"No","url":"https:\/\/svms.lcsd2.org\/","review":"https:\/\/www.publicschoolreview.com\/star-valley-middle-school-profile","virtual":"No"},{"title":"Stocktrail Elementary School","lat":"44.286836","lon":"-105.516016","type":"Traditional Public School","address":"800 Stocktrail Avenue","grades":["Pre-K","Elementary","Middle"],"city":"Gillette","state":"WY","zip":"82718","phone":"(307) 686-8215","low":"PK","high":"6","students":"380","cost":"No","url":"http:\/\/www.campbellcountyschools.net\/","review":"https:\/\/www.publicschoolreview.com\/stocktrail-elementary-school-profile","virtual":"No"},{"title":"Story Elementary School","lat":"44.572311","lon":"-106.893658","type":"Traditional Public School","address":"103 Fish Hatchery Road","grades":["Elementary"],"city":"Story","state":"WY","zip":"82842","phone":"(307) 683-2316","low":"K","high":"5","students":"35","cost":"No","url":"https:\/\/scsd2.com\/story-elementary-school","review":"https:\/\/www.publicschoolreview.com\/story-elementary-school-profile\/82842","virtual":"No"},{"title":"Summit Elementary School","lat":"42.8290149","lon":"-106.2686812","type":"Traditional Public School","address":"2210 Waterford Street","grades":["Elementary"],"city":"Casper","state":"WY","zip":"82609","phone":"(307) 253-3000","low":"K","high":"5","students":"423","cost":"No","url":"http:\/\/summitelementary.weebly.com\/","review":"https:\/\/www.publicschoolreview.com\/summit-elementary-school-profile\/82609","virtual":"No"},{"title":"Summit Innovations School","lat":"43.460548","lon":"-110.803485","type":"Traditional Public School","address":"100 Middle School Road","grades":["High"],"city":"Jackson","state":"WY","zip":"83001","phone":"(307) 733-9116","low":"9","high":"12","students":"40","cost":"No","url":"https:\/\/www.tcsd.org:443\/1\/Home","review":"https:\/\/www.publicschoolreview.com\/summit-innovations-school-profile","virtual":"No"},{"title":"Sundance Elementary School","lat":"44.403181","lon":"-104.372634","type":"Traditional Public School","address":"100 Fairgrounds Loop Road","grades":["Elementary","Middle"],"city":"Sundance","state":"WY","zip":"82729","phone":"(307) 283-1227","low":"K","high":"6","students":"195","cost":"No","url":"https:\/\/www.crook1.com\/","review":"https:\/\/www.publicschoolreview.com\/sundance-elementary-school-profile\/82729","virtual":"No"},{"title":"Sundance Secondary School","lat":"44.407908","lon":"-104.370854","type":"Traditional Public School","address":"1016 East Cleveland","grades":["Middle","High"],"city":"Sundance","state":"WY","zip":"82729","phone":"(307) 283-1007","low":"7","high":"12","students":"190","cost":"No","url":"https:\/\/ss.crook1.com\/","review":"https:\/\/www.publicschoolreview.com\/sundance-secondary-school-profile","virtual":"No"},{"title":"Sunflower Elementary School","lat":"44.271855","lon":"-105.50455","type":"Traditional Public School","address":"2500 South Dogwood Avenue","grades":["Elementary","Middle"],"city":"Gillette","state":"WY","zip":"82717","phone":"(307) 686-0631","low":"K","high":"6","students":"316","cost":"No","url":"https:\/\/sites.google.com\/ccsd1schools.net\/sunflower-elementary\/home","review":"https:\/\/www.publicschoolreview.com\/sunflower-elementary-school-profile\/82717","virtual":"No"},{"title":"Sunrise Elementary School","lat":"41.1377","lon":"-104.7497","type":"Traditional Public School","address":"5021 East 13th Street","grades":["Elementary","Middle"],"city":"Cheyenne","state":"WY","zip":"82001","phone":"(307) 771-2280","low":"K","high":"6","students":"342","cost":"No","url":"https:\/\/sunrise.laramie1.org\/","review":"https:\/\/www.publicschoolreview.com\/sunrise-elementary-school-profile\/82001","virtual":"No"},{"title":"Sunrise School","lat":"42.834618","lon":"-108.734208","type":"Traditional Public School","address":"465 Lincoln Street","grades":["Elementary","Middle","High"],"city":"Lander","state":"WY","zip":"82520","phone":"(307) 332-3774","low":"1","high":"12","students":"See website","cost":"No","url":"","review":"https:\/\/www.publicschoolreview.com\/sunrise-school-profile\/82520","virtual":"No"},{"title":"Sunset Elementary School","lat":"44.526246","lon":"-109.028331","type":"Traditional Public School","address":"3101 East Sheridan Avenue","grades":["Elementary"],"city":"Cody","state":"WY","zip":"82414","phone":"(307) 587-4279","low":"K","high":"5","students":"295","cost":"No","url":"https:\/\/sunset.park6.org\/","review":"https:\/\/www.publicschoolreview.com\/sunset-elementary-school-profile\/82414","virtual":"No"},{"title":"Swift Creek High School","lat":"42.725176","lon":"-110.927167","type":"Traditional Public School","address":"222 East 4th Avenue","grades":["High"],"city":"Afton","state":"WY","zip":"83110","phone":"(307) 885-7139","low":"9","high":"12","students":"64","cost":"No","url":"https:\/\/schs.lcsd2.org\/","review":"https:\/\/www.publicschoolreview.com\/swift-creek-high-school-profile","virtual":"No"},{"title":"Ten Sleep K - 12","lat":"44.0359","lon":"-107.4475","type":"Traditional Public School","address":"242 Cedar Street","grades":["Pre-K","Elementary","Middle","High"],"city":"Ten Sleep","state":"WY","zip":"82442","phone":"(307) 366-2233","low":"PK","high":"12","students":"112","cost":"No","url":"https:\/\/www.wsh2.k12.wy.us\/","review":"https:\/\/www.publicschoolreview.com\/ten-sleep-k-12-profile","virtual":"No"},{"title":"Thayne Elementary School","lat":"42.919301","lon":"-110.99817","type":"Traditional Public School","address":"304 Myers Street","grades":["Elementary"],"city":"Thayne","state":"WY","zip":"83127","phone":"(307) 885-2380","low":"K","high":"3","students":"357","cost":"No","url":"https:\/\/thayne.lcsd2.org\/","review":"https:\/\/www.publicschoolreview.com\/thayne-elementary-school-profile","virtual":"No"},{"title":"The Bridge School","lat":"44.8726766","lon":"-107.2632628","type":"Traditional Public School","address":"1150 Main Street","grades":["Middle","High"],"city":"Dayton","state":"WY","zip":"82836","phone":"(307) 655-2236","low":"6","high":"12","students":"34","cost":"No","url":"https:\/\/www.sheridan.k12.wy.us:443\/","review":"https:\/\/www.publicschoolreview.com\/the-bridge-school-profile","virtual":"No"},{"title":"The Wright Place","lat":"44.803981","lon":"-106.964479","type":"Traditional Public School","address":"500 Lewis Street","grades":["Middle"],"city":"Sheridan","state":"WY","zip":"82801","phone":"(307) 673-8730","low":"6","high":"8","students":"15","cost":"No","url":"https:\/\/www.century21bhj.com\/wrightplace.php","review":"https:\/\/www.publicschoolreview.com\/the-wright-place-profile","virtual":"No"},{"title":"Thermopolis Middle School","lat":"43.640431","lon":"-108.226609","type":"Traditional Public School","address":"1450 Valleyview Drive","grades":["Elementary","Middle"],"city":"Thermopolis","state":"WY","zip":"82443","phone":"(307) 864-6551","low":"5","high":"8","students":"203","cost":"No","url":"https:\/\/tms.hotsprings1.org\/","review":"https:\/\/www.publicschoolreview.com\/thermopolis-middle-school-profile","virtual":"No"},{"title":"Thoman Ranch Elementary School","lat":"42.029674","lon":"-110.055016","type":"Traditional Public School","address":"38622 State Highway 372","grades":["Elementary","Middle"],"city":"Kemmerer","state":"WY","zip":"83101","phone":"(307) 877-3426","low":"K","high":"8","students":"See website","cost":"No","url":"https:\/\/tres.swcsd2.org\/","review":"https:\/\/www.publicschoolreview.com\/thoman-ranch-elementary-school-profile","virtual":"No"},{"title":"Thunder Basin High School","lat":"44.259097","lon":"-105.511388","type":"Traditional Public School","address":"4001 Saunders Boulevard","grades":["High"],"city":"Gillette","state":"WY","zip":"82717","phone":"(307) 687-7733","low":"9","high":"12","students":"1161","cost":"No","url":"https:\/\/www.ccsd.k12.wy.us:443\/","review":"https:\/\/www.publicschoolreview.com\/thunder-basin-high-school-profile","virtual":"No"},{"title":"Tongue River Elementary School","lat":"44.909732","lon":"-107.157636","type":"Traditional Public School","address":"1351 Dayton Street","grades":["Elementary"],"city":"Ranchester","state":"WY","zip":"82839","phone":"(307) 655-2206","low":"K","high":"5","students":"237","cost":"No","url":"https:\/\/www.sheridan.k12.wy.us\/o\/tre","review":"https:\/\/www.publicschoolreview.com\/tongue-river-elementary-school-profile","virtual":"No"},{"title":"Tongue River High School","lat":"44.870796","lon":"-107.263124","type":"Traditional Public School","address":"1150 Us Highway 14","grades":["High"],"city":"Dayton","state":"WY","zip":"82836","phone":"(307) 655-2236","low":"9","high":"12","students":"201","cost":"No","url":"https:\/\/www.sheridan.k12.wy.us\/o\/trhs","review":"https:\/\/www.publicschoolreview.com\/tongue-river-high-school-profile","virtual":"No"},{"title":"Tongue River Middle School","lat":"44.906866","lon":"-107.172801","type":"Traditional Public School","address":"1251 Dayton Street","grades":["Middle"],"city":"Ranchester","state":"WY","zip":"82839","phone":"(307) 655-9533","low":"6","high":"8","students":"161","cost":"No","url":"https:\/\/www.sheridan.k12.wy.us\/o\/trms","review":"https:\/\/www.publicschoolreview.com\/tongue-river-middle-school-profile","virtual":"No"},{"title":"Torrington High School","lat":"42.068022","lon":"-104.188884","type":"Traditional Public School","address":"2400 West C Street","grades":["High"],"city":"Torrington","state":"WY","zip":"82240","phone":"(307) 532-7101","low":"9","high":"12","students":"333","cost":"No","url":"https:\/\/www.goshen1.org\/","review":"https:\/\/www.publicschoolreview.com\/torrington-high-school-profile\/82240","virtual":"No"},{"title":"Torrington Middle School","lat":"42.071357","lon":"-104.191519","type":"Traditional Public School","address":"2742 West E Street","grades":["Middle"],"city":"Torrington","state":"WY","zip":"82240","phone":"(307) 532-7014","low":"6","high":"8","students":"265","cost":"No","url":"https:\/\/cdn.live7.revize.com\/revize\/goshentms\/","review":"https:\/\/www.publicschoolreview.com\/torrington-middle-school-profile\/82240","virtual":"No"},{"title":"Trail Elementary School","lat":"42.060342","lon":"-104.168081","type":"Traditional Public School","address":"1601 East M Street","grades":["Elementary"],"city":"Torrington","state":"WY","zip":"82240","phone":"(307) 532-5429","low":"3","high":"5","students":"238","cost":"No","url":"https:\/\/www.goshen1.org\/","review":"https:\/\/www.publicschoolreview.com\/trail-elementary-school-profile","virtual":"No"},{"title":"Trinity Lutheran School","lat":"41.14247628","lon":"-104.80620023","type":"Private School","address":"1111 E 22nd St","grades":["Pre-K","Elementary","Middle"],"city":"Cheyenne","state":"WY","zip":"82001","phone":"(307) 631-6050","low":"PK","high":"8","students":"92","cost":"Yes","url":"https:\/\/trinitycheyenne.org\/","review":"https:\/\/www.privateschoolreview.com\/trinity-lutheran-school-profile\/82001","virtual":"No"},{"title":"Trinity Lutheran School","lat":"43.0266","lon":"-108.38604286","type":"Private School","address":"419 E Park Ave","grades":["Pre-K","Elementary","Middle"],"city":"Riverton","state":"WY","zip":"82501","phone":"(307) 857-5710","low":"PK","high":"8","students":"50","cost":"Yes","url":"http:\/\/www.trinitylutheranschool.net","review":"https:\/\/www.privateschoolreview.com\/trinity-lutheran-school-profile\/82501","virtual":"No"},{"title":"Triple Sj Regional Learning Center","lat":"44.807588","lon":"-106.982896","type":"Traditional Public School","address":"909 Long Ave. Ste. A","grades":["Pre-K","Elementary","Middle","High"],"city":"Sheridan","state":"WY","zip":"82801","phone":"(307) 675-1291","low":"PK","high":"12","students":"See website","cost":"No","url":"https:\/\/newboces.com\/","review":"https:\/\/www.publicschoolreview.com\/triple-sj-regional-learning-center-profile","virtual":"No"},{"title":"Triumph High School","lat":"41.102434","lon":"-104.815987","type":"Traditional Public School","address":"1250 West College Drive","grades":["Middle","High"],"city":"Cheyenne","state":"WY","zip":"82007","phone":"(307) 771-2500","low":"7","high":"12","students":"209","cost":"No","url":"https:\/\/triumph.laramie1.org\/","review":"https:\/\/www.publicschoolreview.com\/triumph-high-school-profile","virtual":"No"},{"title":"Truman Elementary School","lat":"41.507198","lon":"-109.458861","type":"Traditional Public School","address":"1055 West Teton Boulevard","grades":["Elementary"],"city":"Green River","state":"WY","zip":"82935","phone":"(307) 872-1900","low":"K","high":"5","students":"282","cost":"No","url":"https:\/\/trues.swcsd2.org\/","review":"https:\/\/www.publicschoolreview.com\/truman-elementary-school-profile\/82935","virtual":"No"},{"title":"Twin Spruce Junior High School","lat":"44.288238","lon":"-105.50379","type":"Traditional Public School","address":"100 East 7th Street","grades":["Middle"],"city":"Gillette","state":"WY","zip":"82717","phone":"(307) 682-3144","low":"7","high":"8","students":"676","cost":"No","url":"https:\/\/sites.google.com\/a\/ccsd1schools.net\/twin-spruce-junior-high\/home","review":"https:\/\/www.publicschoolreview.com\/twin-spruce-junior-high-school-profile","virtual":"No"},{"title":"Uinta Meadows Elementary School","lat":"41.258108","lon":"-110.959717","type":"Traditional Public School","address":"90 Cheyenne Drive","grades":["Elementary"],"city":"Evanston","state":"WY","zip":"82931","phone":"(307) 789-8098","low":"K","high":"5","students":"442","cost":"No","url":"https:\/\/ume.uinta1.com\/","review":"https:\/\/www.publicschoolreview.com\/uinta-meadows-elementary-school-profile","virtual":"No"},{"title":"Upton Elementary School","lat":"44.102125","lon":"-104.622172","type":"Traditional Public School","address":"802 Juniper","grades":["Elementary"],"city":"Upton","state":"WY","zip":"82730","phone":"(307) 468-9331","low":"K","high":"5","students":"96","cost":"No","url":"https:\/\/ues.weston7.org\/","review":"https:\/\/www.publicschoolreview.com\/upton-elementary-school-profile\/82730","virtual":"No"},{"title":"Upton High School","lat":"44.099952","lon":"-104.620576","type":"Traditional Public School","address":"610 Poplar","grades":["High"],"city":"Upton","state":"WY","zip":"82730","phone":"(307) 468-2361","low":"9","high":"12","students":"71","cost":"No","url":"https:\/\/uhs.weston7.org\/","review":"https:\/\/www.publicschoolreview.com\/upton-high-school-profile","virtual":"No"},{"title":"Upton Middle School","lat":"44.102125","lon":"-104.622172","type":"Traditional Public School","address":"802 Juniper","grades":["Middle"],"city":"Upton","state":"WY","zip":"82730","phone":"(307) 468-9331","low":"6","high":"8","students":"55","cost":"No","url":"https:\/\/ums.weston7.org\/","review":"https:\/\/www.publicschoolreview.com\/upton-middle-school-profile\/82730","virtual":"No"},{"title":"Urie Elementary School","lat":"41.322943","lon":"-110.33244","type":"Traditional Public School","address":"1707 Powers Avenue","grades":["Elementary"],"city":"Lyman","state":"WY","zip":"82937","phone":"(307) 786-4100","low":"K","high":"4","students":"247","cost":"No","url":"http:\/\/urie.uinta6.k12.wy.us\/pages\/Urie_Elementary","review":"https:\/\/www.publicschoolreview.com\/urie-elementary-school-profile","virtual":"No"},{"title":"Uw Laboratory School","lat":"41.311208","lon":"-105.580375","type":"Traditional Public School","address":"Dept 3374, 1000 E. University ","grades":["Elementary","Middle"],"city":"Laramie","state":"WY","zip":"82071","phone":"(307) 721-2155","low":"K","high":"8","students":"247","cost":"No","url":"https:\/\/www.uwyo.edu\/wsup\/about\/","review":"https:\/\/www.publicschoolreview.com\/uw-laboratory-school-profile","virtual":"No"},{"title":"Valley Christian School","lat":"42.0742","lon":"-104.1791","type":"Private School","address":"2441 East E St","grades":["Pre-K","Elementary"],"city":"Torrington","state":"WY","zip":"82240","phone":"(307) 532-3133","low":"PK","high":"5","students":"73","cost":"Yes","url":"https:\/\/www.facebook.com\/pages\/Valley-Christian-School\/702705649792402?sk=info&tab=overview","review":"https:\/\/www.privateschoolreview.com\/valley-christian-school-profile\/82240","virtual":"No"},{"title":"Valley Elementary School","lat":"44.52401","lon":"-109.06915","type":"Traditional Public School","address":"3566 South Fork Highway","grades":["Elementary"],"city":"Cody","state":"WY","zip":"82414","phone":"(307) 587-4271","low":"K","high":"5","students":"See website","cost":"No","url":"https:\/\/www.park6.org\/o\/valley","review":"https:\/\/www.publicschoolreview.com\/valley-elementary-school-profile\/82414","virtual":"No"},{"title":"Velma Linford Elementary School","lat":"41.31296","lon":"-105.626211","type":"Traditional Public School","address":"120 South Johnson","grades":["Pre-K","Elementary"],"city":"Laramie","state":"WY","zip":"82070","phone":"(307) 721-4439","low":"PK","high":"5","students":"276","cost":"No","url":"https:\/\/www.acsd1.org\/les\/","review":"https:\/\/www.publicschoolreview.com\/velma-linford-elementary-school-profile","virtual":"No"},{"title":"Verda James Elementary School","lat":"42.84365","lon":"-106.267457","type":"Traditional Public School","address":"701 Carriage Lane","grades":["Elementary"],"city":"Casper","state":"WY","zip":"82609","phone":"(307) 253-1100","low":"K","high":"5","students":"438","cost":"No","url":"https:\/\/verdajameselementary.weebly.com\/","review":"https:\/\/www.publicschoolreview.com\/verda-james-elementary-school-profile","virtual":"No"},{"title":"Wagonwheel Elementary School","lat":"44.302076","lon":"-105.526665","type":"Traditional Public School","address":"800 Hemlock","grades":["Elementary","Middle"],"city":"Gillette","state":"WY","zip":"82717","phone":"(307) 686-1060","low":"K","high":"6","students":"277","cost":"No","url":"https:\/\/sites.google.com\/a\/ccsd1schools.net\/wagonwheel\/","review":"https:\/\/www.publicschoolreview.com\/wagonwheel-elementary-school-profile","virtual":"No"},{"title":"Walnut Elementary School","lat":"41.574241","lon":"-109.218165","type":"Traditional Public School","address":"1115 Walnut","grades":["Elementary"],"city":"Rock Springs","state":"WY","zip":"82902","phone":"(307) 352-3225","low":"K","high":"4","students":"293","cost":"No","url":"http:\/\/wal.sweetwater1.org\/","review":"https:\/\/www.publicschoolreview.com\/walnut-elementary-school-profile\/82902","virtual":"No"},{"title":"Wapiti Elementary School","lat":"44.462486","lon":"-109.450562","type":"Traditional Public School","address":"3167 North Fork Highway","grades":["Elementary"],"city":"Cody","state":"WY","zip":"82414","phone":"(307) 587-3947","low":"K","high":"5","students":"14","cost":"No","url":"https:\/\/wapiti.park6.org\/","review":"https:\/\/www.publicschoolreview.com\/wapiti-elementary-school-profile","virtual":"No"},{"title":"Washington Elementary School","lat":"41.536627","lon":"-109.472878","type":"Traditional Public School","address":"750 West 5th North","grades":["Elementary"],"city":"Green River","state":"WY","zip":"82935","phone":"(307) 872-2000","low":"K","high":"5","students":"177","cost":"No","url":"https:\/\/waes.swcsd2.org\/","review":"https:\/\/www.publicschoolreview.com\/washington-elementary-school-profile\/82935","virtual":"No"},{"title":"West Elementary School","lat":"42.049859","lon":"-104.969568","type":"Traditional Public School","address":"201 20th Street","grades":["Elementary"],"city":"Wheatland","state":"WY","zip":"82201","phone":"(307) 322-4180","low":"3","high":"5","students":"186","cost":"No","url":"https:\/\/west.platte1.org\/","review":"https:\/\/www.publicschoolreview.com\/west-elementary-school-profile\/82201","virtual":"No"},{"title":"West Side Elementary School","lat":"44.008697","lon":"-107.961342","type":"Traditional Public School","address":"810 South 6th Street","grades":["Elementary"],"city":"Worland","state":"WY","zip":"82401","phone":"(307) 347-4298","low":"4","high":"5","students":"156","cost":"No","url":"https:\/\/west.wsh1.k12.wy.us\/","review":"https:\/\/www.publicschoolreview.com\/west-side-elementary-school-profile\/82401","virtual":"No"},{"title":"Westridge Elementary School","lat":"41.586206","lon":"-109.266629","type":"Traditional Public School","address":"3501 Dewar Drive","grades":["Elementary"],"city":"Rock Springs","state":"WY","zip":"82902","phone":"(307) 352-3250","low":"K","high":"4","students":"298","cost":"No","url":"https:\/\/www.suffieldacademy.org\/admission","review":"https:\/\/www.publicschoolreview.com\/westridge-elementary-school-profile\/82902","virtual":"No"},{"title":"Westside Elementary School","lat":"44.759524","lon":"-108.772131","type":"Traditional Public School","address":"555 Grand Street","grades":["Elementary"],"city":"Powell","state":"WY","zip":"82435","phone":"(307) 764-6184","low":"K","high":"5","students":"297","cost":"No","url":"http:\/\/www.park1.k12.wy.us\/Pages\/Schools\/Westside.html","review":"https:\/\/www.publicschoolreview.com\/westside-elementary-school-profile\/82435","virtual":"No"},{"title":"Westwood High School","lat":"44.288866","lon":"-105.512449","type":"Traditional Public School","address":"7 Opportunity Spur","grades":["High"],"city":"Gillette","state":"WY","zip":"82717","phone":"(307) 682-9809","low":"9","high":"12","students":"139","cost":"No","url":"https:\/\/sites.google.com\/ccsd1schools.net\/westwoodhighschool","review":"https:\/\/www.publicschoolreview.com\/westwood-high-school-profile\/82717","virtual":"No"},{"title":"Wheatland High School","lat":"42.059015","lon":"-104.958963","type":"Traditional Public School","address":"1207 13th Street","grades":["High"],"city":"Wheatland","state":"WY","zip":"82201","phone":"(307) 322-2075","low":"9","high":"12","students":"269","cost":"No","url":"https:\/\/whs.platte1.org\/","review":"https:\/\/www.publicschoolreview.com\/wheatland-high-school-profile","virtual":"No"},{"title":"Wheatland Middle School","lat":"42.047856","lon":"-104.977009","type":"Traditional Public School","address":"2600 West Mariposa Parkway","grades":["Middle"],"city":"Wheatland","state":"WY","zip":"82201","phone":"(307) 322-1518","low":"6","high":"8","students":"211","cost":"No","url":"https:\/\/wms.platte1.org\/","review":"https:\/\/www.publicschoolreview.com\/wheatland-middle-school-profile","virtual":"No"},{"title":"White Elementary School","lat":"42.541586","lon":"-105.424552","type":"Traditional Public School","address":"1641 Esterbrook Road","grades":["Elementary","Middle"],"city":"Douglas","state":"WY","zip":"82633","phone":"(307) 358-0842","low":"K","high":"8","students":"11","cost":"No","url":"","review":"https:\/\/www.publicschoolreview.com\/white-elementary-school-profile\/82633","virtual":"No"},{"title":"Whiting High School","lat":"41.305404","lon":"-105.562363","type":"Traditional Public School","address":"801 South 24th Street","grades":["High"],"city":"Laramie","state":"WY","zip":"82070","phone":"(307) 721-4449","low":"9","high":"12","students":"60","cost":"No","url":"https:\/\/www.acsd1.org\/whs\/","review":"https:\/\/www.publicschoolreview.com\/whiting-high-school-profile\/82070","virtual":"No"},{"title":"Willadsen Elementary School","lat":"41.094882","lon":"-105.172887","type":"Traditional Public School","address":"645 Road 102","grades":["Elementary","Middle"],"city":"Granite Canon","state":"WY","zip":"82059","phone":"(307) 771-2295","low":"K","high":"6","students":"15","cost":"No","url":"https:\/\/willadsen.laramie1.org\/","review":"https:\/\/www.publicschoolreview.com\/willadsen-elementary-school-profile","virtual":"No"},{"title":"Willow Creek Elementary School","lat":"43.02092","lon":"-108.406725","type":"Traditional Public School","address":"1200 West Monroe Avenue","grades":["Elementary"],"city":"Riverton","state":"WY","zip":"82501","phone":"(307) 856-6004","low":"1","high":"3","students":"197","cost":"No","url":"https:\/\/wc.fremont25.org\/","review":"https:\/\/www.publicschoolreview.com\/willow-creek-elementary-school-profile\/82501","virtual":"No"},{"title":"Wilson Elementary School","lat":"43.498794","lon":"-110.867076","type":"Traditional Public School","address":"5200 Hhr Ranch Road","grades":["Elementary"],"city":"Jackson","state":"WY","zip":"83001","phone":"(307) 733-3077","low":"K","high":"5","students":"208","cost":"No","url":"https:\/\/www.tcsd.org:443\/","review":"https:\/\/www.publicschoolreview.com\/wilson-elementary-school-profile\/83001","virtual":"No"},{"title":"Wind River Elementary School","lat":"43.242095","lon":"-108.689033","type":"Traditional Public School","address":"223 North Cherry Street","grades":["Pre-K","Elementary"],"city":"Pavillion","state":"WY","zip":"82523","phone":"(307) 856-7970","low":"PK","high":"5","students":"159","cost":"No","url":"https:\/\/www.fre6.k12.wy.us\/","review":"https:\/\/www.publicschoolreview.com\/wind-river-elementary-school-profile","virtual":"No"},{"title":"Wind River High School","lat":"43.2442159","lon":"-108.6890976","type":"Traditional Public School","address":"223 North Cherry Street","grades":["High"],"city":"Pavillion","state":"WY","zip":"82523","phone":"(307) 856-7970","low":"9","high":"12","students":"112","cost":"No","url":"https:\/\/www.fremont6.org\/220576_2","review":"https:\/\/www.publicschoolreview.com\/wind-river-high-school-profile","virtual":"No"},{"title":"Wind River Learning Academy","lat":"43.246002","lon":"-108.684784","type":"Traditional Public School","address":"1994 Cougar Drive","grades":["High"],"city":"Pavillion","state":"WY","zip":"82523","phone":"(307) 856-7970","low":"9","high":"12","students":"See website","cost":"No","url":"https:\/\/www.fre6.k12.wy.us\/220577_2","review":"https:\/\/www.publicschoolreview.com\/wind-river-learning-academy-profile","virtual":"No"},{"title":"Wind River Middle School","lat":"43.2442159","lon":"-108.6890976","type":"Traditional Public School","address":"223 North Cherry Street","grades":["Middle"],"city":"Pavillion","state":"WY","zip":"82523","phone":"(307) 856-7970","low":"6","high":"8","students":"95","cost":"No","url":"https:\/\/www.fremont6.org\/220575_2","review":"https:\/\/www.publicschoolreview.com\/wind-river-middle-school-profile\/82523","virtual":"No"},{"title":"Woodland Park Elementary School","lat":"44.74159","lon":"-106.94574","type":"Traditional Public School","address":"1010 East Woodland Park Road","grades":["Elementary"],"city":"Sheridan","state":"WY","zip":"82801","phone":"(307) 674-7937","low":"K","high":"5","students":"293","cost":"No","url":"https:\/\/scsd2.com\/woodland-park-elementary-school","review":"https:\/\/www.publicschoolreview.com\/woodland-park-elementary-school-profile\/82801","virtual":"No"},{"title":"Woods Learning Center","lat":"42.846553","lon":"-106.27685","type":"Traditional Public School","address":"500 South Walsh Drive","grades":["Elementary","Middle"],"city":"Casper","state":"WY","zip":"82609","phone":"(307) 253-3900","low":"K","high":"8","students":"179","cost":"No","url":"http:\/\/woodslearningcenter.org\/","review":"https:\/\/www.publicschoolreview.com\/woods-learning-center-profile","virtual":"No"},{"title":"Worland High School","lat":"44.009408","lon":"-107.945913","type":"Traditional Public School","address":"801 South 17th Street","grades":["High"],"city":"Worland","state":"WY","zip":"82401","phone":"(307) 347-2412","low":"9","high":"12","students":"408","cost":"No","url":"http:\/\/www.whsaa.org\/directory\/directorypage.asp?SCHID=76","review":"https:\/\/www.publicschoolreview.com\/worland-high-school-profile","virtual":"No"},{"title":"Worland Middle School","lat":"44.011669","lon":"-107.941952","type":"Traditional Public School","address":"2150 Howell Avenue","grades":["Middle"],"city":"Worland","state":"WY","zip":"82401","phone":"(307) 347-3233","low":"6","high":"8","students":"274","cost":"No","url":"https:\/\/middle.wsh1.k12.wy.us\/","review":"https:\/\/www.publicschoolreview.com\/worland-middle-school-profile","virtual":"No"},{"title":"Wright Jr. & Sr. High School","lat":"43.755918","lon":"-105.490311","type":"Traditional Public School","address":"220 Wright Boulevard","grades":["Middle","High"],"city":"Wright","state":"WY","zip":"82732","phone":"(307) 464-0140","low":"7","high":"12","students":"197","cost":"No","url":"https:\/\/sites.google.com\/ccsd1schools.net\/wjsh\/activities\/high-school-sports","review":"https:\/\/www.publicschoolreview.com\/wright-jr-sr-high-school-profile","virtual":"No"},{"title":"Wyoming Behavioral Institute","lat":"42.834697","lon":"-106.294237","type":"Private School","address":"2521 E 15th St","grades":["Middle","High"],"city":"Casper","state":"WY","zip":"82609","phone":"(307) 472-2267","low":"6","high":"11","students":"29","cost":"Yes","url":"https:\/\/wbihelp.com\/","review":"https:\/\/www.privateschoolreview.com\/wyoming-behavioral-institute-profile","virtual":"No"},{"title":"Wyoming Behavioral Institute","lat":"42.834697","lon":"-106.294237","type":"Traditional Public School","address":"2521 East 15th Street","grades":["Elementary","Middle","High"],"city":"Casper","state":"WY","zip":"82609","phone":"(800) 457-9312","low":"K","high":"12","students":"11","cost":"No","url":"https:\/\/wbihelp.com\/treatment-services\/child-adolescent-treatment\/residential-trauma-informed-care\/","review":"https:\/\/www.publicschoolreview.com\/wyoming-behavioral-institute-profile","virtual":"No"},{"title":"Wyoming Boys School","lat":"44.0112628","lon":"-107.9811547","type":"Traditional Public School","address":"1550 Highway 20 South","grades":["Middle","High"],"city":"Worland","state":"WY","zip":"82401","phone":"(307) 347-5377","low":"7","high":"12","students":"18","cost":"No","url":"http:\/\/dfsweb.wyo.gov\/social-services\/wyoming-boys-school","review":"https:\/\/www.publicschoolreview.com\/wyoming-boys-school-profile","virtual":"No"},{"title":"Wyoming Girls School","lat":"44.7606147","lon":"-106.9620069","type":"Traditional Public School","address":"3500 Big Horn Avenue, Po Box 8","grades":["Middle","High"],"city":"Sheridan","state":"WY","zip":"82801","phone":"(307) 674-7476","low":"7","high":"12","students":"See website","cost":"No","url":"http:\/\/dfsweb.wyo.gov\/social-services\/wyoming-girls-school","review":"https:\/\/www.publicschoolreview.com\/wyoming-girls-school-profile","virtual":"No"},{"title":"Wyoming Indian Elementary School","lat":"42.979135","lon":"-108.769014","type":"Traditional Public School","address":"369 Blue Sky Highway","grades":["Pre-K","Elementary"],"city":"Lander","state":"WY","zip":"82520","phone":"(307) 332-2053","low":"PK","high":"5","students":"298","cost":"No","url":"http:\/\/www.fremont14.k12.wy.us\/25959","review":"https:\/\/www.publicschoolreview.com\/wyoming-indian-elementary-school-profile","virtual":"No"},{"title":"Wyoming Indian High School","lat":"43.015512","lon":"-108.774939","type":"Traditional Public School","address":"636 Blue Sky Highway","grades":["High"],"city":"Lander","state":"WY","zip":"82520","phone":"(307) 332-9765","low":"9","high":"12","students":"196","cost":"No","url":"http:\/\/www.fremont14.k12.wy.us\/25961","review":"https:\/\/www.publicschoolreview.com\/wyoming-indian-high-school-profile","virtual":"No"},{"title":"Wyoming Indian Middle School","lat":"43.025933","lon":"-108.771316","type":"Traditional Public School","address":"535 Ethete Road","grades":["Middle"],"city":"Lander","state":"WY","zip":"82520","phone":"(307) 332-2992","low":"6","high":"8","students":"156","cost":"No","url":"https:\/\/www.wyomingindianschools.com\/25960","review":"https:\/\/www.publicschoolreview.com\/wyoming-indian-middle-school-profile","virtual":"No"},{"title":"Youth Emergency Services","lat":"44.3052532","lon":"-105.4892594","type":"Private School","address":"905 N Gurley Ave","grades":["Middle","High"],"city":"Gillette","state":"WY","zip":"82716","phone":"(307) 686-0669","low":"7","high":"12","students":"37","cost":"Yes","url":"http:\/\/www.youthemergencyservices.org\/","review":"https:\/\/www.privateschoolreview.com\/youth-emergency-services-profile","virtual":"No"},{"title":"Youth Emergency Services Inc.","lat":"44.2967376","lon":"-105.494484","type":"Traditional Public School","address":"905 N. Gurley Ave.","grades":["Middle","High"],"city":"Gillette","state":"WY","zip":"82716","phone":"(307) 686-0669","low":"7","high":"12","students":"13","cost":"No","url":"http:\/\/www.youthemergencyservices.org\/contact-us\/","review":"https:\/\/www.publicschoolreview.com\/youth-emergency-services-inc-profile","virtual":"No"}]